%time,field.stamp,field.id,field.x,field.y,field.z,field.distanceFromTag,field.rssi,field.rssi_fp
1732085150573128588,1732085150572986364,5,2.5775,0.87,1.97,7.273180333333333,-79.68,-80.63
1732085150673457904,1732085150673274993,5,2.5775,0.87,1.97,7.285687666666667,-79.32,-80.56
1732085150773374860,1732085150773224115,5,2.5775,0.87,1.97,7.285687666666667,-79.48,-80.43
1732085150874705107,1732085150873957633,5,2.5775,0.87,1.97,7.285687666666667,-79.7,-80.85
1732085150973591172,1732085150973467350,5,2.5775,0.87,1.97,7.279433999999999,-79.95,-80.81
1732085151075120821,1732085151074283361,5,2.5775,0.87,1.97,7.273180333333333,-79.6,-80.51
1732085151170633367,1732085151170463323,5,2.5775,0.87,1.97,7.2669266666666665,-79.93,-80.61
1732085151270839159,1732085151270491361,5,2.5775,0.87,1.97,7.260673,-80.59,-81.29
1732085151370864238,1732085151370530843,5,2.5775,0.87,1.97,7.260673,-80.03,-80.79
1732085151470847722,1732085151470480442,5,2.5775,0.87,1.97,7.2669266666666665,-79.43,-80.76
1732085151571278828,1732085151570526123,5,2.5775,0.87,1.97,7.285688,-79.52,-80.76
1732085151670975663,1732085151670509099,5,2.5775,0.87,1.97,7.285688,-79.79,-80.52
1732085151770910393,1732085151770498275,5,2.5775,0.87,1.97,7.279434333333334,-79.49,-81.05
1732085151870657542,1732085151870452404,5,2.5775,0.87,1.97,7.2544189999999995,-79.86,-80.69
1732085151970672745,1732085151970458507,5,2.5775,0.87,1.97,7.273180333333333,-79.43,-80.68
1732085152070884566,1732085152070501565,5,2.5775,0.87,1.97,7.260672666666667,-79.93,-80.78
1732085152170818805,1732085152170443058,5,2.5775,0.87,1.97,7.2669266666666665,-79.63,-80.7
1732085152274162539,1732085152274013757,5,2.5775,0.87,1.97,7.254419000000001,-79.51,-80.79
1732085152373400501,1732085152373160123,5,2.5775,0.87,1.97,7.273180333333333,-79.24,-80.52
1732085152473567227,1732085152473334074,5,2.5775,0.87,1.97,7.304449333333333,-83.01,-82.75
1732085152574440821,1732085152574308633,5,2.5775,0.87,1.97,7.304449333333333,-79.54,-81.36
1732085152673358085,1732085152673227310,5,2.5775,0.87,1.97,7.304449333333333,-79.59,-80.86
1732085152773116136,1732085152772968530,5,2.5775,0.87,1.97,7.279433999999999,-79.57,-80.82
1732085152873829612,1732085152873650550,5,2.5775,0.87,1.97,7.304449333333333,-81.7,-81.68
1732085153004277587,1732085153004045486,5,2.5775,0.87,1.97,7.310703,-79.44,-80.57
1732085153072993834,1732085153072794914,5,2.5775,0.87,1.97,7.3482259999999995,-79.79,-80.74
1732085153172947716,1732085153172607660,5,2.5775,0.87,1.97,7.304449333333333,-79.63,-80.81
1732085153272953440,1732085153272776603,5,2.5775,0.87,1.97,7.3107033333333336,-79.73,-80.6
1732085153374450482,1732085153374246597,5,2.5775,0.87,1.97,7.273180333333333,-79.86,-80.93
1732085153473457525,1732085153473232984,5,2.5775,0.87,1.97,7.279433999999999,-79.84,-80.83
1732085153570858761,1732085153570464372,5,2.5775,0.87,1.97,7.266926333333333,-79.62,-80.67
1732085153672213772,1732085153671928882,5,2.5775,0.87,1.97,7.260672666666667,-79.38,-80.99
1732085153771833537,1732085153771736145,5,2.5775,0.87,1.97,7.279433999999999,-79.82,-80.7
1732085153870848950,1732085153870474100,5,2.5775,0.87,1.97,7.273180333333333,-79.78,-80.88
1732085153970778435,1732085153970477819,5,2.5775,0.87,1.97,7.285687666666667,-80.16,-80.79
1732085154070785476,1732085154070446491,5,2.5775,0.87,1.97,7.285687666666667,-79.58,-80.42
1732085154170935473,1732085154170450925,5,2.5775,0.87,1.97,7.285687666666667,-79.95,-80.98
1732085154270924685,1732085154270470380,5,2.5775,0.87,1.97,7.273180333333333,-79.91,-81.03
1732085154372362292,1732085154371999502,5,2.5775,0.87,1.97,7.273180333333333,-79.86,-81.17
1732085154471932094,1732085154471663951,5,2.5775,0.87,1.97,7.273180333333333,-79.58,-80.81
1732085154571806040,1732085154571611166,5,2.5775,0.87,1.97,7.273180333333333,-79.64,-80.52
1732085154671930485,1732085154671649217,5,2.5775,0.87,1.97,7.2669266666666665,-79.36,-80.8
1732085154771852680,1732085154771695137,5,2.5775,0.87,1.97,7.279433999999999,-79.88,-80.78
1732085154872203925,1732085154871903181,5,2.5775,0.87,1.97,7.298195333333333,-79.94,-80.92
1732085154971817827,1732085154971616029,5,2.5775,0.87,1.97,7.304449000000001,-79.51,-80.54
1732085155072281088,1732085155071945428,5,2.5775,0.87,1.97,7.298195333333333,-80.34,-81.05
1732085155171953157,1732085155171656608,5,2.5775,0.87,1.97,7.304449000000001,-80.46,-80.93
1732085155272316074,1732085155271891117,5,2.5775,0.87,1.97,7.291941666666666,-79.4,-80.89
1732085155371788220,1732085155371607542,5,2.5775,0.87,1.97,7.298195333333333,-79.94,-80.92
1732085155471905164,1732085155471737861,5,2.5775,0.87,1.97,7.285687666666667,-80.18,-80.62
1732085155572043015,1732085155571915864,5,2.5775,0.87,1.97,7.291941333333334,-79.51,-80.5
1732085155671963726,1732085155671690702,5,2.5775,0.87,1.97,7.279433999999999,-79.67,-80.48
1732085155772343505,1732085155772021770,5,2.5775,0.87,1.97,7.285687666666667,-80.09,-80.74
1732085155872072949,1732085155871880292,5,2.5775,0.87,1.97,7.273180333333333,-79.93,-81.14
1732085155971910024,1732085155971667528,5,2.5775,0.87,1.97,7.273180333333333,-79.93,-80.49
1732085156072121228,1732085156071844100,5,2.5775,0.87,1.97,7.2669266666666665,-79.57,-80.66
1732085156171825632,1732085156171524047,5,2.5775,0.87,1.97,7.279433999999999,-79.68,-80.88
1732085156272033024,1732085156271692752,5,2.5775,0.87,1.97,7.285687666666667,-79.58,-80.96
1732085156371958483,1732085156371714591,5,2.5775,0.87,1.97,7.298195333333333,-80.44,-80.75
1732085156471731529,1732085156471573352,5,2.5775,0.87,1.97,7.304449333333333,-79.89,-81.22
1732085156571935833,1732085156571604490,5,2.5775,0.87,1.97,7.304449333333333,-79.66,-80.79
1732085156671774149,1732085156671556234,5,2.5775,0.87,1.97,7.285688,-79.57,-80.43
1732085156772062343,1732085156771901607,5,2.5775,0.87,1.97,7.285688,-79.66,-80.62
1732085156872137526,1732085156871812582,5,2.5775,0.87,1.97,7.291941666666666,-79.84,-80.92
1732085156971841652,1732085156971540927,5,2.5775,0.87,1.97,7.304449000000001,-80.74,-81.24
1732085157072662481,1732085157072433233,5,2.5775,0.87,1.97,7.304449000000001,-79.54,-80.52
1732085157170860488,1732085157170467615,5,2.5775,0.87,1.97,7.298195333333333,-80.32,-80.68
1732085157271121883,1732085157270483255,5,2.5775,0.87,1.97,7.310703,-80.61,-80.94
1732085157370765441,1732085157370476245,5,2.5775,0.87,1.97,7.329464333333334,-80.15,-80.94
1732085157470828610,1732085157470469474,5,2.5775,0.87,1.97,7.341972000000001,-79.62,-80.52
1732085157570778565,1732085157570472717,5,2.5775,0.87,1.97,7.323210666666667,-79.56,-80.53
1732085157673190728,1732085157672831296,5,2.5775,0.87,1.97,7.304449333333333,-80.61,-81.17
1732085157772903271,1732085157772776842,5,2.5775,0.87,1.97,7.298195333333333,-79.56,-80.51
1732085157871929572,1732085157871648788,5,2.5775,0.87,1.97,7.298195333333333,-79.74,-80.63
1732085158002554580,1732085158002130270,5,2.5775,0.87,1.97,7.291941333333334,-79.58,-80.56
1732085158071712619,1732085158071633100,5,2.5775,0.87,1.97,7.291941333333334,-79.7,-80.51
1732085158171993148,1732085158171622037,5,2.5775,0.87,1.97,7.298195,-79.45,-80.49
1732085158272204819,1732085158271958827,5,2.5775,0.87,1.97,7.279433666666667,-79.23,-80.46
1732085158372182658,1732085158371840000,5,2.5775,0.87,1.97,7.266926333333333,-79.46,-80.79
1732085158471711114,1732085158471513509,5,2.5775,0.87,1.97,7.248165,-79.88,-80.91
1732085158570902340,1732085158570512533,5,2.5775,0.87,1.97,7.260672666666667,-79.4,-80.75
1732085158672450551,1732085158672098875,5,2.5775,0.87,1.97,7.229403333333333,-79.27,-81.1
1732085158770855752,1732085158770516633,5,2.5775,0.87,1.97,7.204387999999999,-78.93,-80.9
1732085158872038762,1732085158871903896,5,2.5775,0.87,1.97,0.3439589999999999,-79.45,-81.27
1732085158972031454,1732085158971664428,5,2.5775,0.87,1.97,0.3189440000000001,-79.05,-81.16
1732085159071842598,1732085159071690082,5,2.5775,0.87,1.97,0.3064366666666671,-78.83,-81.19
1732085159171818315,1732085159171645402,5,2.5775,0.87,1.97,7.110581333333333,-79.05,-80.79
1732085159271323301,1732085159270522832,5,2.5775,0.87,1.97,7.104327333333333,-79.24,-81.16
1732085159370767461,1732085159370458364,5,2.5775,0.87,1.97,7.073058,-79.15,-81.59
1732085159571746304,1732085159571492671,5,2.5775,0.87,1.97,6.9855046666666665,-79.16,-81.02
1732085159670788017,1732085159670466661,5,2.5775,0.87,1.97,6.922966666666667,-79.4,-81.1
1732085159770925155,1732085159770471572,5,2.5775,0.87,1.97,6.866682666666667,-79.8,-81.21
1732085159870811339,1732085159870458602,5,2.5775,0.87,1.97,6.860429,-79.29,-80.86
1732085159970996599,1732085159970453262,5,2.5775,0.87,1.97,6.797891,-79.35,-80.5
1732085160070879220,1732085160070467472,5,2.5775,0.87,1.97,6.7353526666666665,-79.23,-80.44
1732085160173385348,1732085160173259973,5,2.5775,0.87,1.97,6.660307,-79.69,-81.01
1732085160274225340,1732085160273978710,5,2.5775,0.87,1.97,6.6165303333333325,-79.43,-80.46
1732085160373340412,1732085160373137950,5,2.5775,0.87,1.97,6.560245999999999,-79.61,-80.74
1732085160473318212,1732085160473162174,5,2.5775,0.87,1.97,6.522723,-79.4,-80.63
1732085160573518198,1732085160573405742,5,2.5775,0.87,1.97,6.4852,-79.3,-80.89
1732085160673248983,1732085160673069238,5,2.5775,0.87,1.97,6.453931,-79.18,-80.83
1732085160773268244,1732085160773125648,5,2.5775,0.87,1.97,6.410154333333334,-79.44,-80.77
1732085160873717956,1732085160873540401,5,2.5775,0.87,1.97,6.3726313333333335,-79.04,-81.32
1732085160973455768,1732085160973322868,5,2.5775,0.87,1.97,6.322601,-79.41,-82.0
1732085161074214251,1732085161073925971,5,2.5775,0.87,1.97,6.285078000000001,-79.19,-81.12
1732085161174041249,1732085161173821926,5,2.5775,0.87,1.97,6.2225399999999995,-80.35,-80.89
1732085161274244774,1732085161273967027,5,2.5775,0.87,1.97,6.166255666666667,-78.99,-80.52
1732085161373334418,1732085161372904300,5,2.5775,0.87,1.97,6.109971333333334,-80.06,-80.97
1732085161473020566,1732085161472791910,5,2.5775,0.87,1.97,6.053687,-79.26,-80.88
1732085161572864240,1732085161572591304,5,2.5775,0.87,1.97,5.997402666666666,-79.15,-81.12
1732085161672557870,1732085161672416448,5,2.5775,0.87,1.97,5.947372333333334,-79.0,-80.85
1732085161773049308,1732085161772835731,5,2.5775,0.87,1.97,5.922357333333333,-78.9,-81.28
1732085161873369199,1732085161873068094,5,2.5775,0.87,1.97,5.884834333333333,-79.25,-80.95
1732085161971943018,1732085161971767187,5,2.5775,0.87,1.97,5.834804000000001,-78.76,-82.17
1732085162071801283,1732085162071662664,5,2.5775,0.87,1.97,5.784773333333334,-79.24,-80.84
1732085162171906527,1732085162171674966,5,2.5775,0.87,1.97,5.766012,-78.93,-81.74
1732085162271856332,1732085162271776437,5,2.5775,0.87,1.97,5.7347426666666665,-79.24,-80.7
1732085162372073736,1732085162371883869,5,2.5775,0.87,1.97,5.697219999999999,-79.02,-81.35
1732085162472003215,1732085162471609592,5,2.5775,0.87,1.97,5.647189666666667,-79.05,-80.51
1732085162572912607,1732085162572535753,5,2.5775,0.87,1.97,5.609666999999999,-79.31,-80.61
1732085162672024793,1732085162671691417,5,2.5775,0.87,1.97,5.553382666666667,-79.3,-80.85
1732085162772399072,1732085162772031784,5,2.5775,0.87,1.97,5.497098333333334,-79.4,-81.02
1732085162872200265,1732085162872003316,5,2.5775,0.87,1.97,5.465829333333333,-79.71,-81.17
1732085163002397052,1732085163002173662,5,2.5775,0.87,1.97,5.453321666666667,-78.89,-81.27
1732085163072115996,1732085163071719884,5,2.5775,0.87,1.97,5.428306333333333,-79.17,-80.75
1732085163172854738,1732085163172670602,5,2.5775,0.87,1.97,5.403290999999999,-79.74,-80.96
1732085163273996542,1732085163273752927,5,2.5775,0.87,1.97,5.378275666666667,-79.38,-81.92
1732085163373381375,1732085163373211860,5,2.5775,0.87,1.97,5.372022,-79.45,-81.42
1732085163472751392,1732085163472574710,5,2.5775,0.87,1.97,5.3532606666666664,-79.37,-81.96
1732085163573412917,1732085163573131561,5,2.5775,0.87,1.97,5.328245333333332,-80.45,-81.57
1732085163672179075,1732085163671877145,5,2.5775,0.87,1.97,5.309483666666666,-79.67,-81.57
1732085163772238895,1732085163771808147,5,2.5775,0.87,1.97,5.290722333333334,-79.49,-80.96
1732085163872131650,1732085163871725320,5,2.5775,0.87,1.97,5.290722333333334,-80.86,-81.65
1732085163972014926,1732085163971774578,5,2.5775,0.87,1.97,5.278214666666667,-79.26,-80.98
1732085164072087335,1732085164071824789,5,2.5775,0.87,1.97,5.278214666666667,-80.68,-81.47
1732085164171947034,1732085164171604394,5,2.5775,0.87,1.97,5.259453333333333,-79.58,-81.25
1732085164270849931,1732085164270481109,5,2.5775,0.87,1.97,5.259453333333333,-80.83,-81.53
1732085164371976052,1732085164371657609,5,2.5775,0.87,1.97,5.259453333333333,-79.76,-81.36
1732085164470952746,1732085164470469713,5,2.5775,0.87,1.97,5.278214666666667,-79.32,-81.2
1732085164571341331,1732085164570503473,5,2.5775,0.87,1.97,5.265707,-79.5,-80.86
1732085164670795073,1732085164670469522,5,2.5775,0.87,1.97,5.278214666666667,-81.25,-81.95
1732085164771884610,1732085164771624803,5,2.5775,0.87,1.97,5.284468666666666,-80.07,-81.26
1732085164871601132,1732085164871440172,5,2.5775,0.87,1.97,5.30323,-80.27,-81.24
1732085164972235990,1732085164971907138,5,2.5775,0.87,1.97,5.296976,-79.56,-80.59
1732085165072067614,1732085165071754217,5,2.5775,0.87,1.97,5.290722,-80.43,-81.41
1732085165171966042,1732085165171709775,5,2.5775,0.87,1.97,5.30323,-79.61,-80.99
1732085165271738915,1732085165271602630,5,2.5775,0.87,1.97,5.315738,-79.5,-81.82
1732085165372390514,1732085165372038841,5,2.5775,0.87,1.97,5.328246,-81.38,-82.22
1732085165471773604,1732085165471588611,5,2.5775,0.87,1.97,5.353261,-79.81,-81.46
1732085165570905781,1732085165570453643,5,2.5775,0.87,1.97,5.353261,-79.67,-81.17
1732085165670921996,1732085165670464038,5,2.5775,0.87,1.97,5.390783666666667,-79.36,-81.82
1732085165770845692,1732085165770459890,5,2.5775,0.87,1.97,5.3970373333333335,-79.64,-81.02
1732085165870832655,1732085165870471477,5,2.5775,0.87,1.97,5.447067666666666,-79.5,-80.54
1732085165970905961,1732085165970481634,5,2.5775,0.87,1.97,5.453321333333334,-79.64,-81.03
1732085166070961962,1732085166070453405,5,2.5775,0.87,1.97,5.478336666666667,-79.89,-81.2
1732085166170790665,1732085166170466899,5,2.5775,0.87,1.97,5.484590333333333,-79.63,-80.71
1732085166271070327,1732085166270487785,5,2.5775,0.87,1.97,5.540874666666667,-79.48,-80.78
1732085166370950776,1732085166370479583,5,2.5775,0.87,1.97,5.572143666666666,-78.89,-81.08
1732085166470891626,1732085166470469713,5,2.5775,0.87,1.97,5.615920333333334,-79.15,-80.68
1732085166570822644,1732085166570571660,5,2.5775,0.87,1.97,5.640935666666667,-79.5,-81.1
1732085166671042381,1732085166670541286,5,2.5775,0.87,1.97,5.684712333333334,-78.79,-81.08
1732085166770775886,1732085166770485162,5,2.5775,0.87,1.97,5.759758000000001,-78.99,-80.75
1732085166870704889,1732085166870450019,5,2.5775,0.87,1.97,5.791027,-79.16,-80.75
1732085166970856986,1732085166970468044,5,2.5775,0.87,1.97,5.834803666666666,-79.02,-80.38
1732085167070881398,1732085167070407867,5,2.5775,0.87,1.97,5.853565333333333,-79.14,-80.39
1732085167170841227,1732085167170454263,5,2.5775,0.87,1.97,5.909849666666666,-79.54,-80.46
1732085167270902385,1732085167270473718,5,2.5775,0.87,1.97,5.984895333333333,-79.0,-80.52
1732085167373234030,1732085167373093605,5,2.5775,0.87,1.97,6.066194666666667,-79.1,-81.1
1732085167473402469,1732085167473157167,5,2.5775,0.87,1.97,6.141240333333333,-78.91,-80.83
1732085167573409532,1732085167573064804,5,2.5775,0.87,1.97,6.197524666666666,-78.91,-80.63
1732085167673650177,1732085167673375606,5,2.5775,0.87,1.97,6.260062666666667,-79.29,-80.99
1732085167773555897,1732085167773424863,5,2.5775,0.87,1.97,6.335108333333333,-79.2,-80.55
1732085167873174403,1732085167872968196,5,2.5775,0.87,1.97,6.4351693333333335,-79.87,-80.81
1732085168004025416,1732085168003703355,5,2.5775,0.87,1.97,6.497707666666667,-79.05,-80.43
1732085168073531901,1732085168073204994,5,2.5775,0.87,1.97,6.560245999999999,-79.56,-81.02
1732085168173279891,1732085168173145771,5,2.5775,0.87,1.97,6.604022666666666,-78.98,-80.91
1732085168273550857,1732085168273326873,5,2.5775,0.87,1.97,6.697829666666666,-79.23,-81.13
1732085168373616225,1732085168373495101,5,2.5775,0.87,1.97,6.791636666666666,-79.31,-82.45
1732085168473346436,1732085168473270177,5,2.5775,0.87,1.97,6.87919,-79.12,-81.33
1732085168570779569,1732085168570463895,5,2.5775,0.87,1.97,6.935474333333334,-79.28,-81.04
1732085168671027006,1732085168670460939,5,2.5775,0.87,1.97,7.004266333333334,-79.54,-81.34
1732085168770767935,1732085168770453691,5,2.5775,0.87,1.97,7.073058333333333,-79.44,-80.79
1732085168870847863,1732085168870452165,5,2.5775,0.87,1.97,7.154357999999999,-79.42,-80.63
1732085168971077061,1732085168970482110,5,2.5775,0.87,1.97,7.229403666666667,-78.95,-80.61
1732085169070830248,1732085169070460081,5,2.5775,0.87,1.97,7.3294646666666665,-78.76,-80.58
1732085169171088958,1732085169170447587,5,2.5775,0.87,1.97,7.423271666666667,-78.64,-80.68
1732085169273049815,1732085169272890329,5,2.5775,0.87,1.97,7.510825,-79.34,-80.94
1732085169372924384,1732085169372761249,5,2.5775,0.87,1.97,7.5733630000000005,-79.17,-80.87
1732085169471935038,1732085169471560001,5,2.5775,0.87,1.97,7.629647333333334,-79.19,-81.72
1732085169572183359,1732085169571733236,5,2.5775,0.87,1.97,7.7109466666666675,-79.46,-80.94
1732085169671831354,1732085169671594858,5,2.5775,0.87,1.97,7.785992333333334,-79.45,-81.2
1732085169772523320,1732085169772316455,5,2.5775,0.87,1.97,7.873545666666668,-79.88,-81.15
1732085169871944500,1732085169871593236,5,2.5775,0.87,1.97,7.917322333333334,-79.19,-80.67
1732085169974066081,1732085169973920822,5,2.5775,0.87,1.97,7.992368,-79.46,-80.77
1732085170070926828,1732085170070458650,5,2.5775,0.87,1.97,8.073667666666667,-78.93,-80.56
1732085170171105169,1732085170170458078,5,2.5775,0.87,1.97,8.173728666666667,-78.96,-80.65
1732085170271009215,1732085170270446538,5,2.5775,0.87,1.97,8.255028333333334,-79.21,-81.04
1732085170371137556,1732085170370451450,5,2.5775,0.87,1.97,8.336327666666667,-79.26,-80.8
1732085170472050293,1732085170471720695,5,2.5775,0.87,1.97,8.448896333333332,-79.02,-80.62
1732085170572212248,1732085170572000026,5,2.5775,0.87,1.97,8.542703666666668,-79.21,-80.57
1732085171172857633,1732085171172704458,5,2.5775,0.87,1.97,9.086785333333333,-79.63,-80.92
1732085171272378792,1732085171271973371,5,2.5775,0.87,1.97,9.261891666666665,-79.16,-80.58
1732085171372375749,1732085171372081041,5,2.5775,0.87,1.97,9.374460333333332,-80.6,-81.52
1732085171470910192,1732085171470473051,5,2.5775,0.87,1.97,9.474521333333334,-79.64,-81.08
1732085171571068643,1732085171570440292,5,2.5775,0.87,1.97,9.574582333333334,-80.29,-81.12
1732085171670984148,1732085171670461654,5,2.5775,0.87,1.97,9.655881666666666,-79.71,-80.79
1732085171770963638,1732085171770491361,5,2.5775,0.87,1.97,9.762196666666668,-79.59,-80.65
1732085171870840544,1732085171870449304,5,2.5775,0.87,1.97,9.862257666666666,-79.35,-81.21
1732085171970788560,1732085171970449924,5,2.5775,0.87,1.97,9.974826333333334,-79.59,-80.7
1732085172070822262,1732085172070489883,5,2.5775,0.87,1.97,10.068633,-79.66,-81.1
1732085172170739727,1732085172170451164,5,2.5775,0.87,1.97,10.168694,-79.55,-80.57
1732085172270810792,1732085172270449399,5,2.5775,0.87,1.97,10.275008999999999,-79.67,-81.05
1732085172371089350,1732085172370481252,5,2.5775,0.87,1.97,10.393831666666665,-80.52,-81.24
1732085172470768059,1732085172470474720,5,2.5775,0.87,1.97,10.518908,-80.7,-81.05
1732085172570649986,1732085172570456504,5,2.5775,0.87,1.97,10.631476333333334,-80.84,-81.29
1732085172670813119,1732085172670485973,5,2.5775,0.87,1.97,10.725283333333332,-79.9,-80.87
1732085172770945360,1732085172770521402,5,2.5775,0.87,1.97,10.819089999999997,-80.52,-82.33
1732085172870917027,1732085172870501518,5,2.5775,0.87,1.97,10.912897,-80.95,-82.14
1732085172970878213,1732085172970514059,5,2.5775,0.87,1.97,11.012958333333335,-80.37,-83.46
1732085173070815326,1732085173070423126,5,2.5775,0.87,1.97,11.125527,-80.15,-82.52
1732085173170808410,1732085173170459985,5,2.5775,0.87,1.97,11.256857333333334,-80.59,-82.1
1732085173271078378,1732085173270452260,5,2.5775,0.87,1.97,11.375679333333332,-81.21,-82.5
1732085173370888790,1732085173370434522,5,2.5775,0.87,1.97,11.456978666666666,-80.08,-81.55
1732085173470807660,1732085173470452547,5,2.5775,0.87,1.97,11.550785666666668,-80.51,-81.37
1732085173570929291,1732085173570481061,5,2.5775,0.87,1.97,11.644593,-80.32,-81.95
1732085173670887597,1732085173670509099,5,2.5775,0.87,1.97,11.750908,-81.1,-81.68
1732085173770864558,1732085173770431041,5,2.5775,0.87,1.97,11.838461,-80.41,-81.12
1732085173872453357,1732085173872123241,5,2.5775,0.87,1.97,11.938522,-81.24,-82.28
1732085173972016224,1732085173971764802,5,2.5775,0.87,1.97,12.038583000000001,-80.32,-81.05
1732085174071882341,1732085174071621656,5,2.5775,0.87,1.97,12.157405666666667,-81.16,-81.51
1732085174171866164,1732085174171704053,5,2.5775,0.87,1.97,12.276227666666665,-80.69,-81.48
1732085174272082027,1732085174271973133,5,2.5775,0.87,1.97,12.388796,-80.63,-81.73
1732085174371911072,1732085174371639013,5,2.5775,0.87,1.97,12.470095666666666,-81.27,-84.09
1732085174472169570,1732085174472045898,5,2.5775,0.87,1.97,12.557649,-81.95,-84.31
1732085174571880976,1732085174571607828,5,2.5775,0.87,1.97,12.651456333333334,-81.32,-83.76
1732085174672525310,1732085174672153949,5,2.5775,0.87,1.97,12.751517,-81.12,-83.85
1732085174771929501,1732085174771617650,5,2.5775,0.87,1.97,12.864086,-81.2,-82.63
1732085174872298706,1732085174872000455,5,2.5775,0.87,1.97,12.982908333333333,-81.36,-82.38
1732085174972130706,1732085174971809625,5,2.5775,0.87,1.97,13.095477,-82.47,-83.21
1732085175072864143,1732085175072397708,5,2.5775,0.87,1.97,13.195537666666667,-81.01,-81.65
1732085175172152470,1732085175171854734,5,2.5775,0.87,1.97,13.301852333333334,-80.76,-81.39
1732085175273965340,1732085175273732185,5,2.5775,0.87,1.97,13.408167,-80.98,-81.3
1732085175373531233,1732085175373401165,5,2.5775,0.87,1.97,13.514481666666669,-80.65,-81.27
1732085175473637152,1732085175473479986,5,2.5775,0.87,1.97,13.595781333333335,-80.33,-81.17
1732085175573513751,1732085175573349714,5,2.5775,0.87,1.97,13.689588333333333,-81.26,-81.65
1732085175674041358,1732085175673746109,5,2.5775,0.87,1.97,13.802157,-80.42,-80.88
1732085175773782452,1732085175773595094,5,2.5775,0.87,1.97,13.927233000000001,-80.71,-81.13
1732085175870784662,1732085175870481729,5,2.5775,0.87,1.97,14.033547666666665,-80.72,-81.77
1732085175973178723,1732085175972481727,5,2.5775,0.87,1.97,14.121101000000001,-80.48,-81.7
1732085176072221083,1732085176071944713,5,2.5775,0.87,1.97,14.227415666666667,-80.61,-82.15
1732085176172884600,1732085176172661542,5,2.5775,0.87,1.97,14.352491999999998,-81.17,-81.69
1732085176272243666,1732085176272002220,5,2.5775,0.87,1.97,14.477568333333332,-81.17,-81.72
1732085176670969500,1732085176670495510,5,2.5775,0.87,1.97,14.677690333333333,-83.34,-84.62
1732085176770840789,1732085176770508766,5,2.5775,0.87,1.97,14.877812333333333,-82.88,-83.54
1732085176872726055,1732085176872628688,5,2.5775,0.87,1.97,15.077933999999999,-85.09,-88.14
1732085176972714944,1732085176972453594,5,2.5775,0.87,1.97,15.190503,-82.49,-82.97
1732085177074012414,1732085177073846340,5,2.5775,0.87,1.97,15.296817666666668,-82.17,-83.21
1732085177173711704,1732085177173434257,5,2.5775,0.87,1.97,15.421894,-82.41,-83.35
1732085177274189720,1732085177273916721,5,2.5775,0.87,1.97,15.528208666666666,-81.36,-82.0
1732085177373363004,1732085177373230934,5,2.5775,0.87,1.97,15.665792666666666,-80.92,-81.25
1732085177474423278,1732085177474220752,5,2.5775,0.87,1.97,15.778361333333335,-80.76,-81.58
1732085177573929332,1732085177573706388,5,2.5775,0.87,1.97,15.909690666666668,-80.68,-81.5
1732085177674583396,1732085177674383401,5,2.5775,0.87,1.97,15.997243333333335,-80.77,-81.36
1732085177773739028,1732085177773436307,5,2.5775,0.87,1.97,16.097303999999998,-81.57,-81.66
1732085177873671733,1732085177873433589,5,2.5775,0.87,1.97,16.203619,-80.48,-81.09
1732085178004282859,1732085178004093170,5,2.5775,0.87,1.97,16.328695333333332,-81.09,-81.08
1732085178073362805,1732085178073214292,5,2.5775,0.87,1.97,16.46002533333333,-80.52,-81.15
1732085178173701064,1732085178173573493,5,2.5775,0.87,1.97,16.660147,-80.14,-80.71
1732085178274048853,1732085178273848772,5,2.5775,0.87,1.97,16.741446333333332,-80.48,-81.09
1732085178374286880,1732085178373805284,5,2.5775,0.87,1.97,16.847761333333334,-80.15,-80.55
1732085178473896689,1732085178473716259,5,2.5775,0.87,1.97,16.966583333333336,-80.4,-80.89
1732085178573654376,1732085178573538541,5,2.5775,0.87,1.97,17.079152000000004,-80.07,-80.51
1732085178673457598,1732085178673227310,5,2.5775,0.87,1.97,17.191720666666665,-81.4,-82.26
1732085178773686116,1732085178773489952,5,2.5775,0.87,1.97,17.285528,-80.35,-81.12
1732085178873525831,1732085178873300313,5,2.5775,0.87,1.97,17.404349999999997,-80.52,-81.41
1732085178972295563,1732085178971744298,5,2.5775,0.87,1.97,17.49190366666667,-80.59,-81.19
1732085179071924291,1732085179071661710,5,2.5775,0.87,1.97,17.64199533333333,-81.46,-81.22
1732085179172783557,1732085179172574043,5,2.5775,0.87,1.97,17.748310333333333,-80.86,-81.0
1732085179272902468,1732085179272612810,5,2.5775,0.87,1.97,17.860878666666665,-80.94,-81.25
1732085179373024756,1732085179372869014,5,2.5775,0.87,1.97,17.94217833333333,-82.1,-82.0
1732085179472596650,1732085179472415208,5,2.5775,0.87,1.97,18.042239,-81.17,-81.65
1732085179572662550,1732085179572393655,5,2.5775,0.87,1.97,18.16731533333333,-83.0,-83.02
1732085179672617781,1732085179672393560,5,2.5775,0.87,1.97,18.273629666666668,-81.89,-83.64
1732085179770875376,1732085179770477056,5,2.5775,0.87,1.97,18.386198333333333,-82.37,-82.74
1732085179870816062,1732085179870455265,5,2.5775,0.87,1.97,18.480005000000002,-82.74,-83.92
1732085179970790549,1732085179970489025,5,2.5775,0.87,1.97,18.58006633333333,-83.54,-84.29
1732085180071013802,1732085180070473909,5,2.5775,0.87,1.97,18.686381333333333,-84.35,-85.74
1732085180171000521,1732085180170536994,5,2.5775,0.87,1.97,18.780188666666664,-83.87,-87.06
1732085180270860828,1732085180270472526,5,2.5775,0.87,1.97,18.892757,-83.91,-84.67
1732085180370874699,1732085180370479822,5,2.5775,0.87,1.97,18.992817666666667,-85.27,-87.25
1732085180470816745,1732085180470461130,5,2.5775,0.87,1.97,19.111640333333337,-84.21,-84.9
1732085180570916962,1732085180570529222,5,2.5775,0.87,1.97,19.224209,-86.94,-90.13
1732085180673343977,1732085180673177719,5,2.5775,0.87,1.97,19.336777666666666,-83.59,-84.64
1732085180773498534,1732085180773302316,5,2.5775,0.87,1.97,19.461854,-84.51,-87.42
1732085180873568028,1732085180873066186,5,2.5775,0.87,1.97,19.574422666666667,-82.97,-83.35
1732085180973702737,1732085180973562479,5,2.5775,0.87,1.97,19.686991,-83.75,-84.43
1732085181470880347,1732085181470480203,5,2.5775,0.87,1.97,20.224818666666664,-81.17,-81.33
1732085181572674767,1732085181572367906,5,2.5775,0.87,1.97,20.393670999999998,-81.16,-81.11
1732085181672137350,1732085181671961069,5,2.5775,0.87,1.97,20.499986,-81.03,-81.88
1732085181772247991,1732085181771949291,5,2.5775,0.87,1.97,20.618808,-80.74,-81.63
1732085181872067041,1732085181871895551,5,2.5775,0.87,1.97,20.725123,-80.73,-80.88
1732085181972931027,1732085181972711563,5,2.5775,0.87,1.97,20.825184,-80.62,-80.84
1732085182073010065,1732085182072808027,5,2.5775,0.87,1.97,20.931499,-80.78,-81.25
1732085182173098376,1732085182172959566,5,2.5775,0.87,1.97,21.031559666666666,-80.8,-81.33
1732085182273585502,1732085182273441553,5,2.5775,0.87,1.97,21.156635666666663,-81.69,-81.62
1732085182372165377,1732085182372022867,5,2.5775,0.87,1.97,21.275457999999997,-80.64,-81.57
1732085182472809592,1732085182472497701,5,2.5775,0.87,1.97,21.39428033333333,-80.7,-80.95
1732085182572513150,1732085182572247982,5,2.5775,0.87,1.97,21.500595333333333,-81.82,-82.16
1732085182673089047,1732085182672876834,5,2.5775,0.87,1.97,21.600656,-80.89,-81.3
1732085182772938517,1732085182772825956,5,2.5775,0.87,1.97,21.706971,-80.26,-80.93
1732085182872722386,1732085182872598886,5,2.5775,0.87,1.97,21.819539666666667,-80.53,-81.46
1732085183003877798,1732085183003570079,5,2.5775,0.87,1.97,21.919601,-80.46,-81.07
1732085183072637802,1732085183072500228,5,2.5775,0.87,1.97,22.044676999999997,-80.3,-80.65
1732085183173073644,1732085183172918081,5,2.5775,0.87,1.97,22.163499,-80.72,-81.35
1732085183272919514,1732085183272660970,5,2.5775,0.87,1.97,22.288574666666666,-80.18,-81.23
1732085183373148082,1732085183372819185,5,2.5775,0.87,1.97,22.376127666666665,-80.31,-81.46
1732085183472855115,1732085183472599983,5,2.5775,0.87,1.97,22.469935000000003,-80.73,-81.05
1732085183571988524,1732085183571722269,5,2.5775,0.87,1.97,22.601265666666666,-81.18,-81.26
1732085183671943877,1732085183671669483,5,2.5775,0.87,1.97,22.70758066666667,-80.67,-81.82
1732085183771964795,1732085183771767854,5,2.5775,0.87,1.97,22.838910666666667,-81.56,-81.78
1732085183872368206,1732085183871939420,5,2.5775,0.87,1.97,22.945224999999997,-80.72,-81.41
1732085183971982210,1732085183971638679,5,2.5775,0.87,1.97,23.095316333333333,-80.94,-81.22
1732085184072052672,1732085184071803569,5,2.5775,0.87,1.97,23.214139,-81.47,-81.41
1732085184171966316,1732085184171695709,5,2.5775,0.87,1.97,23.307945999999998,-81.85,-82.02
1732085184272052092,1732085184271824598,5,2.5775,0.87,1.97,23.382992,-81.53,-82.25
1732085184371962631,1732085184371628046,5,2.5775,0.87,1.97,23.470544999999998,-82.04,-82.07
1732085184472087743,1732085184471748352,5,2.5775,0.87,1.97,23.589367999999997,-81.54,-81.8
1732085184571857215,1732085184571574449,5,2.5775,0.87,1.97,23.708190666666667,-82.0,-82.16
1732085184672417300,1732085184672153949,5,2.5775,0.87,1.97,23.814505666666665,-82.34,-84.79
1732085184772134347,1732085184771816015,5,2.5775,0.87,1.97,23.908312,-82.21,-82.24
1732085184870926705,1732085184870527029,5,2.5775,0.87,1.97,24.00837266666667,-82.01,-81.95
1732085184971001376,1732085184970448017,5,2.5775,0.87,1.97,24.102179666666668,-82.75,-82.66
1732085185070810504,1732085185070455074,5,2.5775,0.87,1.97,24.214748333333336,-82.02,-82.32
1732085185170691290,1732085185170453071,5,2.5775,0.87,1.97,24.33982466666667,-81.63,-83.66
1732085185270939332,1732085185270509004,5,2.5775,0.87,1.97,24.477408333333333,-83.37,-84.96
1732085185370856218,1732085185370487451,5,2.5775,0.87,1.97,24.57746966666667,-82.06,-82.46
1732085185470851154,1732085185470453262,5,2.5775,0.87,1.97,24.796353333333332,-82.85,-85.21
1732085185570749609,1732085185570452213,5,2.5775,0.87,1.97,24.940191,-83.01,-84.76
1732085185670862508,1732085185670457601,5,2.5775,0.87,1.97,25.05275933333333,-83.33,-83.02
1732085185770900100,1732085185770460605,5,2.5775,0.87,1.97,25.152820000000002,-83.77,-83.39
1732085185870700700,1732085185870449066,5,2.5775,0.87,1.97,25.246627333333333,-84.58,-86.15
1732085185970919374,1732085185970494031,5,2.5775,0.87,1.97,25.359196,-85.49,-85.16
1732085186070654499,1732085186070470094,5,2.5775,0.87,1.97,25.484272333333333,-84.59,-84.77
1732085186170918830,1732085186170449733,5,2.5775,0.87,1.97,25.596840666666665,-85.73,-88.01
1732085186270797067,1732085186270457506,5,2.5775,0.87,1.97,25.696901333333333,-84.72,-84.95
1732085186370865116,1732085186370499849,5,2.5775,0.87,1.97,25.803216333333335,-88.99,-91.22
1732085186570720387,1732085186570472955,5,2.5775,0.87,1.97,25.965815333333335,-83.47,-86.36
1732085186670900195,1732085186670574903,5,2.5775,0.87,1.97,26.12216066666667,-83.75,-87.54
1732085186771750570,1732085186771445035,5,2.5775,0.87,1.97,26.278506000000004,-83.5,-89.26
1732085186871690041,1732085186871519327,5,2.5775,0.87,1.97,26.378566666666668,-85.56,-88.02
1732085186971865481,1732085186971477270,5,2.5775,0.87,1.97,26.484881,-84.88,-86.9
1732085187071884899,1732085187071599960,5,2.5775,0.87,1.97,26.578687666666667,-85.76,-85.9
1732085187173561830,1732085187173366069,5,2.5775,0.87,1.97,26.69751066666667,-85.24,-86.16
1732085187273391610,1732085187273160457,5,2.5775,0.87,1.97,26.828841333333333,-86.28,-88.37
1732085187373496744,1732085187373419523,5,2.5775,0.87,1.97,26.960171666666668,-84.71,-86.18
1732085187470813005,1732085187470466852,5,2.5775,0.87,1.97,27.07274,-86.03,-86.47
1732085187572073316,1732085187571710824,5,2.5775,0.87,1.97,27.185308333333335,-84.44,-85.78
1732085187672239218,1732085187672096014,5,2.5775,0.87,1.97,27.304130333333337,-85.52,-87.62
1732085187772710130,1732085187772453069,5,2.5775,0.87,1.97,27.429206000000004,-83.7,-84.75
1732085187872619648,1732085187872395753,5,2.5775,0.87,1.97,27.54802833333333,-83.37,-83.53
1732085188001330672,1732085188001052856,5,2.5775,0.87,1.97,27.641835666666665,-83.27,-83.5
1732085188074186102,1732085188074026823,5,2.5775,0.87,1.97,27.748150666666664,-84.21,-83.78
1732085188173250767,1732085188173071384,5,2.5775,0.87,1.97,27.860719,-82.45,-82.36
1732085188272729903,1732085188272549390,5,2.5775,0.87,1.97,27.992048999999998,-82.36,-82.72
1732085188374066983,1732085188373907566,5,2.5775,0.87,1.97,28.11712533333333,-85.75,-86.98
1732085188473316622,1732085188473117589,5,2.5775,0.87,1.97,28.229694,-82.66,-82.65
1732085188573745875,1732085188573534011,5,2.5775,0.87,1.97,28.348516666666665,-81.94,-82.06
1732085188672603186,1732085188672437906,5,2.5775,0.87,1.97,28.454831666666667,-82.2,-82.59
1732085188773261687,1732085188773054838,5,2.5775,0.87,1.97,28.548638999999998,-82.52,-82.91
1732085188872897918,1732085188872698068,5,2.5775,0.87,1.97,28.64869966666667,-81.9,-82.73
1732085188973059623,1732085188972759962,5,2.5775,0.87,1.97,28.773775333333333,-84.6,-86.59
1732085189073670380,1732085189073438644,5,2.5775,0.87,1.97,28.905105000000002,-81.6,-81.87
1732085189172846115,1732085189172641754,5,2.5775,0.87,1.97,29.017673666666667,-82.07,-82.38
1732085189273920506,1732085189273706436,5,2.5775,0.87,1.97,29.111480999999998,-82.17,-82.5
1732085189372920559,1732085189372721433,5,2.5775,0.87,1.97,29.199034666666666,-83.06,-83.34
1732085189473600099,1732085189473416090,5,2.5775,0.87,1.97,29.299095333333337,-81.92,-81.61
1732085189572976311,1732085189572802543,5,2.5775,0.87,1.97,29.417918,-82.83,-82.58
1732085189672693988,1732085189672472000,5,2.5775,0.87,1.97,29.536739999999998,-81.83,-81.61
1732085189772823558,1732085189772647857,5,2.5775,0.87,1.97,29.661816333333334,-82.12,-81.78
1732085189873053376,1732085189872870445,5,2.5775,0.87,1.97,29.774384666666666,-81.87,-81.76
1732085189973792604,1732085189973242998,5,2.5775,0.87,1.97,29.893207666666665,-82.18,-82.44
1732085190073027168,1732085190072725772,5,2.5775,0.87,1.97,30.018283999999998,-81.52,-81.38
1732085190173369114,1732085190173205852,5,2.5775,0.87,1.97,30.143360333333334,-81.88,-81.58
1732085190272108456,1732085190271944522,5,2.5775,0.87,1.97,30.255928666666666,-83.39,-83.15
1732085190372009401,1732085190371684551,5,2.5775,0.87,1.97,30.362243000000003,-82.3,-84.06
1732085190470986851,1732085190470474720,5,2.5775,0.87,1.97,30.45604966666667,-81.34,-82.06
1732085190571042777,1732085190570488691,5,2.5775,0.87,1.97,30.581126,-81.18,-81.33
1732085190671289397,1732085190670495271,5,2.5775,0.87,1.97,30.699948666666668,-81.72,-81.88
1732085190770943508,1732085190770482540,5,2.5775,0.87,1.97,30.812517333333332,-81.33,-82.2
1732085190871251958,1732085190870499372,5,2.5775,0.87,1.97,30.925085999999997,-83.31,-84.83
1732085190974161821,1732085190973871469,5,2.5775,0.87,1.97,31.025146666666668,-81.47,-81.59
1732085191073338250,1732085191073079824,5,2.5775,0.87,1.97,31.14396933333333,-82.6,-82.29
1732085191172009897,1732085191171656370,5,2.5775,0.87,1.97,31.24403,-81.44,-81.8
1732085191271803096,1732085191271547079,5,2.5775,0.87,1.97,31.350345,-81.57,-82.0
1732085191372579194,1732085191372316122,5,2.5775,0.87,1.97,31.462913666666665,-82.23,-82.06
1732085191472552179,1732085191472232341,5,2.5775,0.87,1.97,31.58799,-82.1,-81.94
1732085191572095951,1732085191571803092,5,2.5775,0.87,1.97,31.71306633333333,-84.2,-85.3
1732085191672449370,1732085191671931505,5,2.5775,0.87,1.97,31.838142333333334,-81.99,-81.89
1732085191772821969,1732085191772516965,5,2.5775,0.87,1.97,31.944456666666667,-81.85,-81.89
1732085192273232436,1732085192273085117,5,2.5775,0.87,1.97,32.451015,-81.99,-82.22
1732085192373114924,1732085192372986793,5,2.5775,0.87,1.97,32.59485333333333,-84.2,-86.31
1732085192473066241,1732085192472853183,5,2.5775,0.87,1.97,32.688660666666664,-82.92,-83.06
1732085192572410226,1732085192572192907,5,2.5775,0.87,1.97,32.93255966666667,-83.41,-83.48
1732085192673702320,1732085192673543930,5,2.5775,0.87,1.97,33.057635999999995,-85.42,-85.19
1732085192771022284,1732085192770509481,5,2.5775,0.87,1.97,33.17645733333333,-82.95,-85.02
1732085192870979511,1732085192870473384,5,2.5775,0.87,1.97,33.289025,-84.0,-83.98
1732085192970826727,1732085192970461368,5,2.5775,0.87,1.97,33.414101333333335,-86.22,-87.09
1732085193070696556,1732085193070439100,5,2.5775,0.87,1.97,33.532924,-85.83,-87.59
1732085193170810475,1732085193170495271,5,2.5775,0.87,1.97,33.63923966666667,-83.11,-83.71
1732085193271002796,1732085193270449161,5,2.5775,0.87,1.97,33.745554,-83.68,-84.23
1732085193371021562,1732085193370507717,5,2.5775,0.87,1.97,33.845615,-83.97,-85.11
1732085193470922093,1732085193470519542,5,2.5775,0.87,1.97,33.964436666666664,-84.53,-87.18
1732085193570823664,1732085193570499181,5,2.5775,0.87,1.97,34.070750999999994,-83.43,-85.23
1732085193670958987,1732085193670498847,5,2.5775,0.87,1.97,34.18957366666667,-85.43,-86.87
1732085193770873467,1732085193770486354,5,2.5775,0.87,1.97,34.29588933333333,-84.74,-86.74
1732085193870712616,1732085193870433330,5,2.5775,0.87,1.97,34.408458333333336,-85.43,-86.8
1732085193970862928,1732085193970476627,5,2.5775,0.87,1.97,34.508519,-84.43,-86.1
1732085194070915279,1732085194070468664,5,2.5775,0.87,1.97,34.61483333333333,-85.45,-87.7
1732085194170848850,1732085194170489311,5,2.5775,0.87,1.97,34.72740266666667,-89.01,-90.99
1732085194270977230,1732085194270465135,5,2.5775,0.87,1.97,34.86498633333333,-85.26,-86.4
1732085194372017308,1732085194371784687,5,2.5775,0.87,1.97,35.008823,-85.87,-88.99
1732085194473574607,1732085194471725463,5,2.5775,0.87,1.97,35.108883666666664,-85.18,-87.34
1732085194572030001,1732085194571650028,5,2.5775,0.87,1.97,35.183930000000004,-84.97,-87.04
1732085194672280401,1732085194671869754,5,2.5775,0.87,1.97,35.27148366666667,-84.6,-86.53
1732085194772051695,1732085194771710634,5,2.5775,0.87,1.97,35.377798000000006,-85.51,-89.28
1732085194871885677,1732085194871645927,5,2.5775,0.87,1.97,35.50287433333333,-86.66,-90.58
1732085194971835326,1732085194971646785,5,2.5775,0.87,1.97,35.62795066666667,-87.45,-88.45
1732085195071788803,1732085195071679830,5,2.5775,0.87,1.97,35.74677333333333,-87.8,-88.28
1732085195171871231,1732085195171641826,5,2.5775,0.87,1.97,35.85308766666667,-88.14,-89.8
1732085195271917178,1732085195271671056,5,2.5775,0.87,1.97,35.953148666666664,-90.68,-91.35
1732085195371788823,1732085195371595621,5,2.5775,0.87,1.97,36.078224999999996,-92.47,-93.34
1732085195570922065,1732085195570549249,5,2.5775,0.87,1.97,36.228317,-87.8,-89.4
1732085195670838138,1732085195670482873,5,2.5775,0.87,1.97,36.372155,-89.37,-90.5
1732085195771162697,1732085195770504951,5,2.5775,0.87,1.97,36.547261,-87.85,-88.0
1732085195870779916,1732085195870473146,5,2.5775,0.87,1.97,36.67859066666666,-89.17,-89.86
1732085195971763836,1732085195971557617,5,2.5775,0.87,1.97,36.82242766666666,-88.8,-89.43
1732085196073005271,1732085196072430849,5,2.5775,0.87,1.97,36.92248866666666,-88.02,-90.57
1732085196171966412,1732085196171664476,5,2.5775,0.87,1.97,37.060072,-86.73,-88.06
1732085196272245959,1732085196271738767,5,2.5775,0.87,1.97,37.160133,-90.33,-92.28
1732085196372750625,1732085196372211694,5,2.5775,0.87,1.97,37.26019366666667,-87.15,-88.74
1732085196472094478,1732085196471760034,5,2.5775,0.87,1.97,37.366508,-87.64,-91.11
1732085196571725162,1732085196571427106,5,2.5775,0.87,1.97,37.49158433333333,-87.51,-89.98
1732085196671000576,1732085196670502424,5,2.5775,0.87,1.97,37.610407,-88.41,-89.27
1732085196770909406,1732085196770553350,5,2.5775,0.87,1.97,37.69796066666667,-87.0,-88.07
1732085196872227745,1732085196871944904,5,2.5775,0.87,1.97,37.81678333333333,-88.68,-90.26
1732085196971902536,1732085196971688270,5,2.5775,0.87,1.97,37.94811333333334,-91.25,-92.79
1732085197070757956,1732085197070450544,5,2.5775,0.87,1.97,38.09195166666667,-91.62,-91.36
1732085197170886901,1732085197170446634,5,2.5775,0.87,1.97,38.173251666666665,-86.8,-88.59
1732085197270872193,1732085197270524263,5,2.5775,0.87,1.97,38.29207433333333,-91.38,-91.74
1732085197370677685,1732085197370456218,5,2.5775,0.87,1.97,38.360865999999994,-89.22,-90.11
1732085197470760667,1732085197470455884,5,2.5775,0.87,1.97,38.510956666666665,-90.65,-91.69
1732085197572808717,1732085197572510004,5,2.5775,0.87,1.97,22.369874999999997,-85.48,-85.19
1732085197672850574,1732085197672553062,5,2.5775,0.87,1.97,22.53872766666667,-86.74,-86.93
1732085197772565314,1732085197772343397,5,2.5775,0.87,1.97,22.663804,-86.0,-86.98
1732085197874154760,1732085197873923063,5,2.5775,0.87,1.97,39.03002266666667,-86.1,-85.98
1732085198004161353,1732085198003890037,5,2.5775,0.87,1.97,39.10506766666666,-88.68,-89.09
1732085198074098115,1732085198073772430,5,2.5775,0.87,1.97,39.18636766666666,-85.65,-85.37
1732085198172051049,1732085198171694278,5,2.5775,0.87,1.97,39.305190333333336,-86.87,-88.96
1732085198272878205,1732085198272665500,5,2.5775,0.87,1.97,39.44277533333334,-85.42,-85.24
1732085198372771081,1732085198372636556,5,2.5775,0.87,1.97,39.574105,-88.74,-88.09
1732085198473049920,1732085198472818136,5,2.5775,0.87,1.97,39.68041933333333,-85.32,-84.77
1732085198573218163,1732085198573005914,5,2.5775,0.87,1.97,39.792987000000004,-86.72,-88.55
1732085198672494378,1732085198672163009,5,2.5775,0.87,1.97,39.905555,-84.98,-84.48
1732085198772681204,1732085198772362470,5,2.5775,0.87,1.97,40.03063133333333,-87.87,-88.02
1732085198872280167,1732085198871888160,5,2.5775,0.87,1.97,40.13694566666667,-84.94,-84.52
1732085198971852917,1732085198971519708,5,2.5775,0.87,1.97,40.25576833333333,-86.14,-86.18
1732085199071838850,1732085199071755170,5,2.5775,0.87,1.97,40.36208266666666,-85.33,-86.27
1732085199171992186,1732085199171723604,5,2.5775,0.87,1.97,40.487159,-84.98,-84.91
1732085199272111831,1732085199271723031,5,2.5775,0.87,1.97,40.605982,-84.62,-84.19
1732085199372364035,1732085199371975421,5,2.5775,0.87,1.97,40.71855133333333,-85.4,-86.11
1732085199471885316,1732085199471703529,5,2.5775,0.87,1.97,40.837374000000004,-84.27,-85.9
1732085199571926913,1732085199571662187,5,2.5775,0.87,1.97,40.931181,-84.19,-85.37
1732085199672368780,1732085199672095537,5,2.5775,0.87,1.97,41.031241666666666,-85.99,-85.97
1732085199772185750,1732085199771919965,5,2.5775,0.87,1.97,41.13130266666666,-83.29,-82.95
1732085199871870189,1732085199871665000,5,2.5775,0.87,1.97,41.368947,-83.9,-83.82
1732085199971957966,1732085199971684932,5,2.5775,0.87,1.97,41.48776966666667,-84.75,-85.97
1732085200072148365,1732085200071709871,5,2.5775,0.87,1.97,41.600338666666666,-84.46,-84.86
1732085200172013581,1732085200171780824,5,2.5775,0.87,1.97,41.71290666666666,-84.11,-84.8
1732085200272387089,1732085200272210121,5,2.5775,0.87,1.97,41.82547466666666,-83.72,-83.57
1732085200371944174,1732085200371695518,5,2.5775,0.87,1.97,41.944296333333334,-84.99,-85.0
1732085200472079591,1732085200471705198,5,2.5775,0.87,1.97,42.063119,-83.49,-82.96
1732085200571764377,1732085200571575641,5,2.5775,0.87,1.97,42.175688,-83.59,-83.15
1732085200672021725,1732085200671793460,5,2.5775,0.87,1.97,42.30076433333334,-83.59,-83.14
1732085200773077964,1732085200772183656,5,2.5775,0.87,1.97,42.388318,-85.98,-86.14
1732085200871903703,1732085200871577739,5,2.5775,0.87,1.97,42.507140666666665,-83.33,-85.19
1732085200972090581,1732085200971649169,5,2.5775,0.87,1.97,42.619709666666665,-84.79,-86.36
1732085201071884577,1732085201071549892,5,2.5775,0.87,1.97,42.757293000000004,-83.56,-83.03
1732085201171781054,1732085201171599149,5,2.5775,0.87,1.97,42.86986099999999,-85.27,-84.53
1732085201271806392,1732085201271540880,5,2.5775,0.87,1.97,42.97617533333334,-83.05,-82.52
1732085201371883916,1732085201371673583,5,2.5775,0.87,1.97,43.08874466666666,-83.9,-84.91
1732085201472076568,1732085201471752882,5,2.5775,0.87,1.97,43.20756733333334,-87.11,-86.22
1732085201571743167,1732085201571542501,5,2.5775,0.87,1.97,43.32013666666668,-84.76,-86.25
1732085201671863089,1732085201671631813,5,2.5775,0.87,1.97,43.41394366666666,-83.3,-83.19
1732085201772669975,1732085201772217035,5,2.5775,0.87,1.97,43.50149733333333,-83.31,-82.99
1732085201871798347,1732085201871581554,5,2.5775,0.87,1.97,43.59530433333333,-83.29,-82.98
1732085201972316705,1732085201972026109,5,2.5775,0.87,1.97,43.714126,-83.81,-85.43
1732085202073533333,1732085202073383569,5,2.5775,0.87,1.97,43.83294766666666,-83.61,-85.02
1732085202173225260,1732085202173090219,5,2.5775,0.87,1.97,43.958024,-82.9,-82.48
1732085202274148430,1732085202273928880,5,2.5775,0.87,1.97,44.06433966666666,-83.18,-83.26
1732085202370876339,1732085202370472192,5,2.5775,0.87,1.97,44.183162333333335,-82.83,-82.32
1732085202470867878,1732085202470473289,5,2.5775,0.87,1.97,44.29573033333333,-82.83,-84.5
1732085202570805125,1732085202570481061,5,2.5775,0.87,1.97,44.427060000000004,-83.0,-82.53
1732085202671714829,1732085202671555042,5,2.5775,0.87,1.97,44.533374333333335,-84.31,-83.87
1732085202773780924,1732085202773206710,5,2.5775,0.87,1.97,44.652197,-83.05,-84.04
1732085203072149820,1732085203071824312,5,2.5775,0.87,1.97,44.82104966666666,-84.75,-86.07
1732085203170748632,1732085203170463800,5,2.5775,0.87,1.97,45.01491766666666,-82.85,-82.65
1732085203270670870,1732085203270375728,5,2.5775,0.87,1.97,45.19002366666667,-82.94,-82.77
1732085203373610178,1732085203373521566,5,2.5775,0.87,1.97,45.31509966666667,-86.54,-87.68
1732085203473633920,1732085203473355531,5,2.5775,0.87,1.97,45.41516166666667,-83.39,-82.9
1732085203573132499,1732085203572911262,5,2.5775,0.87,1.97,45.53398466666666,-85.11,-85.27
1732085203672027623,1732085203671682834,5,2.5775,0.87,1.97,45.63404566666667,-82.77,-82.15
1732085203771714035,1732085203771408081,5,2.5775,0.87,1.97,45.759122,-83.31,-82.79
1732085203872039868,1732085203871690988,5,2.5775,0.87,1.97,45.871691,-83.46,-83.29
1732085203971912877,1732085203971737623,5,2.5775,0.87,1.97,45.98425866666667,-83.48,-82.91
1732085204072073205,1732085204071830034,5,2.5775,0.87,1.97,46.071811,-83.06,-82.56
1732085204172068714,1732085204171703338,5,2.5775,0.87,1.97,46.184379,-82.72,-82.18
1732085204271883427,1732085204271588563,5,2.5775,0.87,1.97,46.303202,-83.03,-82.53
1732085204372269977,1732085204372120857,5,2.5775,0.87,1.97,46.422024666666665,-82.92,-83.08
1732085204471989927,1732085204471639156,5,2.5775,0.87,1.97,46.528338999999995,-82.63,-82.25
1732085204572035647,1732085204571770906,5,2.5775,0.87,1.97,46.64716166666667,-85.47,-84.74
1732085204670893850,1732085204670471668,5,2.5775,0.87,1.97,46.89106066666667,-83.42,-82.8
1732085204770844763,1732085204770466327,5,2.5775,0.87,1.97,46.984868000000006,-83.13,-83.42
1732085204870804437,1732085204870448350,5,2.5775,0.87,1.97,47.05991333333333,-83.61,-83.01
1732085204972176991,1732085204971960306,5,2.5775,0.87,1.97,47.116198,-82.95,-82.99
1732085205071492774,1732085205070448160,5,2.5775,0.87,1.97,47.15372033333333,-83.77,-83.98
1732085205170796226,1732085205170457839,5,2.5775,0.87,1.97,47.19749766666666,-83.4,-82.81
1732085205271137501,1732085205270456314,5,2.5775,0.87,1.97,47.24752733333333,-83.17,-82.83
1732085205371240839,1732085205370477914,5,2.5775,0.87,1.97,47.28504999999999,-82.73,-82.18
1732085205471111481,1732085205470490455,5,2.5775,0.87,1.97,47.29755733333334,-83.14,-84.04
1732085205570957355,1732085205570461750,5,2.5775,0.87,1.97,47.29755733333334,-82.44,-82.18
1732085205671284444,1732085205670446157,5,2.5775,0.87,1.97,47.29755733333334,-82.23,-81.83
1732085205773868720,1732085205773708105,5,2.5775,0.87,1.97,47.31631933333333,-83.12,-84.38
1732085205873401162,1732085205873288393,5,2.5775,0.87,1.97,47.31631933333333,-81.7,-81.3
1732085205973468392,1732085205973178625,5,2.5775,0.87,1.97,47.31631933333333,-81.96,-81.7
1732085206074595973,1732085206074302434,5,2.5775,0.87,1.97,47.303810666666664,-81.08,-82.55
1732085206174296157,1732085206174026966,5,2.5775,0.87,1.97,47.31006566666667,-82.62,-84.44
1732085206270833529,1732085206270457267,5,2.5775,0.87,1.97,47.32257433333333,-83.14,-82.94
1732085206472743959,1732085206472595930,5,2.5775,0.87,1.97,47.328827999999994,-83.35,-84.36
1732085206572932853,1732085206572721481,5,2.5775,0.87,1.97,47.31631933333333,-84.11,-83.97
1732085206672894648,1732085206672611236,5,2.5775,0.87,1.97,47.303810666666664,-87.33,-88.27
1732085206772709798,1732085206772489547,5,2.5775,0.87,1.97,47.316319,-83.51,-85.38
1732085206873192772,1732085206872982978,5,2.5775,0.87,1.97,47.32882766666666,-84.73,-84.98
1732085206973402712,1732085206973046779,5,2.5775,0.87,1.97,47.32882766666666,-83.67,-84.39
1732085207073824526,1732085207073664426,5,2.5775,0.87,1.97,47.29755866666667,-82.39,-82.37
1732085207173875612,1732085207173687696,5,2.5775,0.87,1.97,47.272543000000006,-80.86,-82.85
1732085207273699208,1732085207273596048,5,2.5775,0.87,1.97,47.253782333333334,-81.66,-82.4
1732085207370619470,1732085207370471239,5,2.5775,0.87,1.97,47.26003599999999,-81.72,-81.86
1732085207572628300,1732085207572420120,5,2.5775,0.87,1.97,47.272543000000006,-82.95,-85.4
1732085208472514547,1732085208472314834,5,2.5775,0.87,1.97,47.353843000000005,-81.32,-83.21
1732085208572850602,1732085208572714090,5,2.5775,0.87,1.97,47.36635033333334,-82.35,-82.73
1732085208671688539,1732085208671387910,5,2.5775,0.87,1.97,47.35384199999999,-81.81,-82.96
1732085208770768622,1732085208770463228,5,2.5775,0.87,1.97,47.34758866666667,-81.72,-82.24
1732085208871835566,1732085208871520042,5,2.5775,0.87,1.97,47.35384199999999,-81.62,-81.61
1732085208970722692,1732085208970478534,5,2.5775,0.87,1.97,47.385110999999995,-81.91,-82.88
1732085209072135764,1732085209071271419,5,2.5775,0.87,1.97,47.416380000000004,-83.95,-86.08
1732085209171459891,1732085209171292781,5,2.5775,0.87,1.97,47.39761933333333,-81.75,-81.74
1732085209271886161,1732085209271695613,5,2.5775,0.87,1.97,47.42263500000001,-86.44,-86.15
1732085209370799803,1732085209370497703,5,2.5775,0.87,1.97,47.441395666666665,-85.74,-87.94
1732085209473781704,1732085209473624467,5,2.5775,0.87,1.97,47.47266466666667,-84.72,-84.66
1732085209573285431,1732085209573057651,5,2.5775,0.87,1.97,47.466411,-81.67,-81.45
1732085209672720077,1732085209672525644,5,2.5775,0.87,1.97,47.435142000000006,-81.67,-82.02
1732085209772400884,1732085209772123575,5,2.5775,0.87,1.97,47.441395666666665,-85.5,-85.19
1732085209872346592,1732085209872103929,5,2.5775,0.87,1.97,47.42263366666666,-81.76,-81.56
1732085209972348661,1732085209972213745,5,2.5775,0.87,1.97,47.428887,-82.33,-81.98
1732085210073022691,1732085210072777271,5,2.5775,0.87,1.97,47.40387166666667,-81.66,-81.87
1732085210172786261,1732085210172554016,5,2.5775,0.87,1.97,47.40387166666667,-81.88,-81.77
1732085210272655660,1732085210272472858,5,2.5775,0.87,1.97,47.41012666666666,-81.69,-81.57
1732085210373274505,1732085210372964859,5,2.5775,0.87,1.97,47.42888833333333,-83.07,-83.43
1732085210472649373,1732085210472452163,5,2.5775,0.87,1.97,47.416381333333334,-81.74,-81.79
1732085210572800423,1732085210572632551,5,2.5775,0.87,1.97,47.416381333333334,-82.97,-84.99
1732085210672730222,1732085210672526597,5,2.5775,0.87,1.97,47.391366000000005,-82.47,-82.63
1732085210772703028,1732085210772517681,5,2.5775,0.87,1.97,47.403873000000004,-81.99,-81.83
1732085210872750220,1732085210872491359,5,2.5775,0.87,1.97,47.378857333333336,-81.56,-82.75
1732085210972913166,1732085210972775459,5,2.5775,0.87,1.97,47.385111,-82.33,-82.98
1732085211073050116,1732085211072739124,5,2.5775,0.87,1.97,47.385110999999995,-82.41,-82.4
1732085211172937904,1732085211172703266,5,2.5775,0.87,1.97,47.385110999999995,-82.31,-82.21
1732085211272589373,1732085211272427797,5,2.5775,0.87,1.97,47.353841666666675,-81.82,-82.28
1732085211373441360,1732085211373268365,5,2.5775,0.87,1.97,47.35384166666666,-83.04,-84.47
1732085211472620829,1732085211472483396,5,2.5775,0.87,1.97,47.37260233333333,-81.56,-81.45
1732085211572695198,1732085211572517871,5,2.5775,0.87,1.97,47.397618,-82.63,-82.41
1732085211673352774,1732085211672888278,5,2.5775,0.87,1.97,47.397618,-83.04,-82.84
1732085211772730833,1732085211772564888,5,2.5775,0.87,1.97,47.385111,-82.98,-84.24
1732085211872710231,1732085211872553110,5,2.5775,0.87,1.97,47.385111,-81.9,-81.75
1732085211972184441,1732085211972015857,5,2.5775,0.87,1.97,47.360096999999996,-82.22,-82.25
1732085212071952518,1732085212071626663,5,2.5775,0.87,1.97,47.372603999999995,-83.48,-83.8
1732085212172056126,1732085212171891689,5,2.5775,0.87,1.97,47.36635033333332,-81.79,-82.26
1732085212272170956,1732085212271852254,5,2.5775,0.87,1.97,47.41012633333333,-83.33,-82.96
1732085212372038505,1732085212371758222,5,2.5775,0.87,1.97,47.403873000000004,-81.77,-82.17
1732085212470939985,1732085212470450878,5,2.5775,0.87,1.97,47.435142000000006,-81.8,-83.39
1732085212572087136,1732085212571865797,5,2.5775,0.87,1.97,47.435142000000006,-81.79,-81.79
1732085212671792620,1732085212671628713,5,2.5775,0.87,1.97,47.460157333333335,-81.63,-81.52
1732085212772188433,1732085212771881103,5,2.5775,0.87,1.97,47.460157333333335,-81.73,-81.73
1732085212872124358,1732085212871639728,5,2.5775,0.87,1.97,47.460157333333335,-83.3,-85.11
1732085213002630149,1732085213002179145,5,2.5775,0.87,1.97,47.466411,-82.5,-82.31
1732085213070616653,1732085213070411682,5,2.5775,0.87,1.97,47.47891833333333,-82.19,-82.08
1732085213171101754,1732085213170472383,5,2.5775,0.87,1.97,47.485172,-81.74,-83.38
1732085213272179109,1732085213271843433,5,2.5775,0.87,1.97,47.49142533333333,-84.09,-85.62
1732085213671275056,1732085213670580625,5,2.5775,0.87,1.97,37.77926033333333,-83.04,-83.91
1732085213770871653,1732085213770486831,5,2.5775,0.87,1.97,47.59148733333333,-81.73,-83.62
1732085213870924418,1732085213870448112,5,2.5775,0.87,1.97,47.60399566666666,-84.78,-85.4
1732085213973818654,1732085213973637104,5,2.5775,0.87,1.97,47.60399566666666,-81.71,-81.83
1732085214073460804,1732085214073327302,5,2.5775,0.87,1.97,47.610249333333336,-83.85,-83.59
1732085214172985881,1732085214172887325,5,2.5775,0.87,1.97,47.610249333333336,-81.88,-82.2
1732085214273050255,1732085214272818326,5,2.5775,0.87,1.97,47.62901133333333,-82.28,-82.13
1732085214371942344,1732085214371753215,5,2.5775,0.87,1.97,47.62901133333333,-81.84,-81.75
1732085214472511747,1732085214471992015,5,2.5775,0.87,1.97,47.647771999999996,-81.74,-82.09
1732085214572301571,1732085214572030067,5,2.5775,0.87,1.97,47.660279,-81.84,-83.33
1732085214673940033,1732085214673738718,5,2.5775,0.87,1.97,47.672786,-81.75,-82.83
1732085214771879313,1732085214771705865,5,2.5775,0.87,1.97,47.679039666666675,-81.79,-81.72
1732085214872855498,1732085214872620105,5,2.5775,0.87,1.97,47.704055333333336,-85.87,-88.11
1732085214973293367,1732085214973108053,5,2.5775,0.87,1.97,47.697802,-81.88,-81.76
1732085215072916946,1732085215072562456,5,2.5775,0.87,1.97,47.704056666666666,-83.37,-82.93
1732085215173079773,1732085215172799348,5,2.5775,0.87,1.97,47.691549333333334,-81.68,-82.74
1732085215273893976,1732085215273604631,5,2.5775,0.87,1.97,47.710311,-82.58,-82.58
1732085215373579560,1732085215373331785,5,2.5775,0.87,1.97,47.73532533333333,-82.67,-83.89
1732085215472596987,1732085215472382068,5,2.5775,0.87,1.97,47.754086,-82.55,-82.32
1732085215572700647,1732085215572445154,5,2.5775,0.87,1.97,47.760339666666674,-81.73,-82.02
1732085215672463222,1732085215672239303,5,2.5775,0.87,1.97,47.74783266666666,-81.89,-81.74
1732085215772682160,1732085215772522687,5,2.5775,0.87,1.97,47.741579333333334,-81.64,-81.59
1732085215872483830,1732085215872246980,5,2.5775,0.87,1.97,47.75408633333333,-82.67,-82.74
1732085215973367457,1732085215973184585,5,2.5775,0.87,1.97,47.75408633333333,-81.73,-81.54
1732085216073207030,1732085216072944402,5,2.5775,0.87,1.97,47.760339666666674,-82.04,-82.05
1732085216172789541,1732085216172554969,5,2.5775,0.87,1.97,47.76659333333333,-82.51,-82.59
1732085216272644881,1732085216272467613,5,2.5775,0.87,1.97,47.77284666666666,-81.61,-81.8
1732085216372575751,1732085216372478008,5,2.5775,0.87,1.97,47.77910033333333,-84.4,-85.52
1732085216472579935,1732085216472421407,5,2.5775,0.87,1.97,47.760339666666674,-81.69,-81.75
1732085216572997132,1732085216572853803,5,2.5775,0.87,1.97,47.741579,-82.55,-82.32
1732085216673102914,1732085216672756910,5,2.5775,0.87,1.97,47.71656466666666,-81.8,-81.86
1732085216773323396,1732085216772803544,5,2.5775,0.87,1.97,47.69780266666667,-82.18,-83.74
1732085216872528008,1732085216872380495,5,2.5775,0.87,1.97,47.679041000000005,-82.36,-82.15
1732085216972585113,1732085216972479820,5,2.5775,0.87,1.97,47.65402566666666,-82.06,-82.75
1732085217073205732,1732085217073051929,5,2.5775,0.87,1.97,47.635265,-81.93,-81.78
1732085217172855037,1732085217172708749,5,2.5775,0.87,1.97,47.597742333333336,-83.83,-83.49
1732085217273296774,1732085217272961139,5,2.5775,0.87,1.97,47.566473333333334,-82.69,-82.64
1732085217372987614,1732085217372836112,5,2.5775,0.87,1.97,47.52894933333334,-83.3,-82.94
1732085217473118755,1732085217472944498,5,2.5775,0.87,1.97,47.522695666666664,-84.25,-85.04
1732085217573676187,1732085217573338985,5,2.5775,0.87,1.97,47.510187,-85.04,-85.67
1732085217673645124,1732085217673556327,5,2.5775,0.87,1.97,47.510187,-84.31,-86.12
1732085217773471914,1732085217773337364,5,2.5775,0.87,1.97,47.510187,-84.66,-84.22
1732085217873375834,1732085217873191118,5,2.5775,0.87,1.97,47.516442000000005,-83.88,-85.39
1732085218004241517,1732085218004041671,5,2.5775,0.87,1.97,47.52895066666667,-84.51,-84.77
1732085218073446017,1732085218073209762,5,2.5775,0.87,1.97,47.52895066666667,-84.83,-86.0
1732085218173566828,1732085218173328876,5,2.5775,0.87,1.97,47.51644233333334,-84.24,-84.29
1732085218273323573,1732085218273119449,5,2.5775,0.87,1.97,47.50393366666666,-84.73,-86.15
1732085218373381584,1732085218373137712,5,2.5775,0.87,1.97,47.478918,-83.03,-83.02
1732085218473350092,1732085218473137617,5,2.5775,0.87,1.97,47.472664333333334,-83.98,-84.3
1732085218573732050,1732085218573320865,5,2.5775,0.87,1.97,47.472664333333334,-83.13,-82.67
1732085218673238263,1732085218673115968,5,2.5775,0.87,1.97,47.491425,-83.32,-84.09
1732085218773238461,1732085218773115158,5,2.5775,0.87,1.97,47.497678666666665,-82.98,-84.6
1732085218971969808,1732085218971686840,5,2.5775,0.87,1.97,47.50393366666666,-82.99,-82.5
1732085219071852976,1732085219071596145,5,2.5775,0.87,1.97,47.497680333333335,-83.79,-83.65
1732085219172147777,1732085219171826839,5,2.5775,0.87,1.97,47.50393366666666,-83.34,-83.02
1732085219271892933,1732085219271625280,5,2.5775,0.87,1.97,47.497678666666665,-84.34,-85.68
1732085219371817808,1732085219371587038,5,2.5775,0.87,1.97,47.485171333333334,-82.82,-82.23
1732085219471774115,1732085219471559286,5,2.5775,0.87,1.97,47.45390233333333,-83.6,-83.39
1732085219573905555,1732085219573814630,5,2.5775,0.87,1.97,47.42263333333333,-83.14,-84.86
1732085219670853785,1732085219670478582,5,2.5775,0.87,1.97,47.397618,-83.69,-83.14
1732085219770837331,1732085219770467281,5,2.5775,0.87,1.97,47.360095333333334,-82.94,-83.07
1732085220170784728,1732085220170484066,5,2.5775,0.87,1.97,47.23502033333333,-85.06,-84.1
1732085220270785774,1732085220270483255,5,2.5775,0.87,1.97,47.18499066666667,-82.69,-82.01
1732085220370830784,1732085220370481014,5,2.5775,0.87,1.97,47.13495966666667,-84.71,-86.01
1732085220473685920,1732085220473369359,5,2.5775,0.87,1.97,47.097437000000006,-84.08,-84.21
1732085220571945173,1732085220571747779,5,2.5775,0.87,1.97,47.022390333333334,-83.01,-82.53
1732085220672237286,1732085220671607017,5,2.5775,0.87,1.97,46.966105666666664,-82.82,-82.58
1732085220770693518,1732085220770509004,5,2.5775,0.87,1.97,46.909821,-83.27,-82.96
1732085220871952875,1732085220871649503,5,2.5775,0.87,1.97,46.84102933333333,-82.67,-82.35
1732085220971983998,1732085220971792459,5,2.5775,0.87,1.97,46.78474633333334,-84.78,-84.2
1732085221071895379,1732085221071676015,5,2.5775,0.87,1.97,46.71595466666667,-82.82,-82.22
1732085221172799048,1732085221172538518,5,2.5775,0.87,1.97,46.67217866666667,-82.99,-82.43
1732085221272542931,1732085221272309303,5,2.5775,0.87,1.97,46.584624999999996,-83.09,-82.53
