%time,field.stamp,field.id,field.x,field.y,field.z,field.distanceFromTag,field.rssi,field.rssi_fp
1733037964615422482,1733037964615214347,9,0.71,-0.87,0.61,3.4145796666666666,-78.97,-80.56
1733037964715723146,1733037964715200424,9,0.71,-0.87,0.61,3.427087333333333,-78.99,-80.7
1733037964815644962,1733037964815217256,9,0.71,-0.87,0.61,3.4083256666666664,-78.87,-80.62
1733037964915704262,1733037964915211915,9,0.71,-0.87,0.61,3.4145796666666666,-78.94,-80.53
1733037965015614479,1733037965015218019,9,0.71,-0.87,0.61,3.4208336666666668,-79.06,-80.76
1733037965115404324,1733037965115235090,9,0.71,-0.87,0.61,3.4270876666666665,-79.14,-80.7
1733037965215558874,1733037965215227603,9,0.71,-0.87,0.61,3.4270876666666665,-78.68,-80.48
1733037965315958252,1733037965315324068,9,0.71,-0.87,0.61,3.439595333333333,-78.73,-80.44
1733037965415504877,1733037965415222167,9,0.71,-0.87,0.61,3.4708643333333336,-79.72,-80.96
1733037965515594155,1733037965515214443,9,0.71,-0.87,0.61,3.4646103333333333,-78.98,-80.72
1733037965615639000,1733037965615201950,9,0.71,-0.87,0.61,3.489625333333333,-78.45,-80.38
1733037965715497982,1733037965715216398,9,0.71,-0.87,0.61,3.452102333333333,-79.2,-80.68
1733037965815593092,1733037965815228700,9,0.71,-0.87,0.61,3.4458486666666666,-79.04,-80.74
1733037965915608075,1733037965915235757,9,0.71,-0.87,0.61,3.4208336666666668,-79.06,-80.87
1733037966015469377,1733037966015199184,9,0.71,-0.87,0.61,3.439595333333333,-78.83,-80.56
1733037966115514528,1733037966115231990,9,0.71,-0.87,0.61,3.439595333333333,-79.14,-80.73
1733037966217479681,1733037966217233657,9,0.71,-0.87,0.61,3.4333413333333334,-79.12,-80.61
1733037966317708243,1733037966317558526,9,0.71,-0.87,0.61,3.4208336666666668,-78.96,-80.74
1733037966417827913,1733037966417549848,9,0.71,-0.87,0.61,3.4145796666666666,-78.73,-80.62
1733037966517193385,1733037966517004966,9,0.71,-0.87,0.61,3.4208336666666668,-78.92,-80.48
1733037966617505254,1733037966617282390,9,0.71,-0.87,0.61,3.4333413333333334,-79.17,-80.7
1733037966717227768,1733037966717089891,9,0.71,-0.87,0.61,3.4458490000000004,-78.75,-80.39
1733037966815510725,1733037966815233707,9,0.71,-0.87,0.61,3.4333413333333334,-78.83,-80.54
1733037966915508855,1733037966915230274,9,0.71,-0.87,0.61,3.427087333333333,-78.92,-80.66
1733037967047142632,1733037967046769380,9,0.71,-0.87,0.61,3.408326,-79.22,-81.03
1733037967616725608,1733037967616375207,9,0.71,-0.87,0.61,3.427087333333333,-78.96,-80.47
1733037967716797564,1733037967716421365,9,0.71,-0.87,0.61,3.458356333333333,-79.46,-81.0
1733037967816520218,1733037967816306352,9,0.71,-0.87,0.61,3.439594666666667,-79.09,-80.86
1733037967916586195,1733037967916401386,9,0.71,-0.87,0.61,3.420833333333334,-78.95,-80.51
1733037968016669946,1733037968016393661,9,0.71,-0.87,0.61,3.402072,-78.85,-80.5
1733037968116517288,1733037968116413593,9,0.71,-0.87,0.61,3.4208336666666668,-79.21,-80.54
1733037968216699447,1733037968216488361,9,0.71,-0.87,0.61,3.427087333333333,-79.11,-80.7
1733037968316770313,1733037968316560029,9,0.71,-0.87,0.61,3.427087333333333,-78.91,-80.57
1733037968416491192,1733037968416311740,9,0.71,-0.87,0.61,3.4145796666666666,-79.12,-80.62
1733037968517051770,1733037968516659736,9,0.71,-0.87,0.61,3.427087333333333,-78.89,-80.49
1733037968615557245,1733037968615209817,9,0.71,-0.87,0.61,3.4208336666666668,-78.96,-80.54
1733037968715634764,1733037968715186119,9,0.71,-0.87,0.61,3.4208336666666668,-78.82,-80.39
1733037968818223038,1733037968817946434,9,0.71,-0.87,0.61,3.4270876666666665,-78.76,-80.36
1733037968917881101,1733037968917755126,9,0.71,-0.87,0.61,3.439595333333333,-78.75,-80.46
1733037969017427232,1733037969017184734,9,0.71,-0.87,0.61,3.4458490000000004,-79.03,-80.65
1733037969117476747,1733037969117219686,9,0.71,-0.87,0.61,3.4333413333333334,-78.95,-80.6
1733037969217211965,1733037969217064142,9,0.71,-0.87,0.61,3.427087333333333,-78.74,-80.46
1733037969317244881,1733037969317109346,9,0.71,-0.87,0.61,3.4208336666666668,-79.33,-80.9
1733037969417247899,1733037969417079448,9,0.71,-0.87,0.61,3.4333413333333334,-78.86,-80.38
1733037969517403998,1733037969517311573,9,0.71,-0.87,0.61,3.439595333333333,-78.7,-80.43
1733037969617540234,1733037969617241144,9,0.71,-0.87,0.61,3.439595333333333,-79.02,-80.57
1733037969716968097,1733037969716622114,9,0.71,-0.87,0.61,3.439595333333333,-79.18,-80.97
1733037969816671817,1733037969816410064,9,0.71,-0.87,0.61,3.4458490000000004,-78.61,-80.32
1733037969916996782,1733037969916653633,9,0.71,-0.87,0.61,3.4458490000000004,-78.91,-80.47
1733037970015586924,1733037970015193939,9,0.71,-0.87,0.61,3.439595,-78.78,-80.53
1733037970115538194,1733037970115186452,9,0.71,-0.87,0.61,3.4145796666666666,-78.87,-80.51
1733037970215561208,1733037970215196609,9,0.71,-0.87,0.61,3.420833333333333,-78.94,-80.56
1733037970315574149,1733037970315187692,9,0.71,-0.87,0.61,3.4145796666666666,-79.26,-80.94
1733037970415794425,1733037970415203571,9,0.71,-0.87,0.61,3.427087333333333,-78.71,-80.63
1733037970515674319,1733037970515180349,9,0.71,-0.87,0.61,3.408326,-79.28,-80.89
1733037970615718675,1733037970615221023,9,0.71,-0.87,0.61,3.4145796666666666,-78.7,-80.43
1733037970715595799,1733037970715183734,9,0.71,-0.87,0.61,3.402072,-78.99,-80.52
1733037970815831808,1733037970815199851,9,0.71,-0.87,0.61,3.4083256666666664,-79.27,-81.06
1733037970915476030,1733037970915193557,9,0.71,-0.87,0.61,3.402072,-79.08,-81.17
1733037971016212009,1733037971015329599,9,0.71,-0.87,0.61,3.433341,-78.75,-80.4
1733037971117087433,1733037971116690635,9,0.71,-0.87,0.61,3.4458486666666666,-79.23,-80.91
1733037971217579531,1733037971217339277,9,0.71,-0.87,0.61,3.4458486666666666,-78.99,-80.57
1733037971317736538,1733037971317507266,9,0.71,-0.87,0.61,3.427087333333333,-79.16,-80.71
1733037971417851245,1733037971417660474,9,0.71,-0.87,0.61,3.4208336666666668,-78.75,-80.59
1733037971517890423,1733037971517681121,9,0.71,-0.87,0.61,3.4208336666666668,-78.96,-80.54
1733037971617372534,1733037971617257356,9,0.71,-0.87,0.61,3.4270876666666665,-78.77,-80.46
1733037971717619263,1733037971717445611,9,0.71,-0.87,0.61,3.4270876666666665,-79.0,-80.77
1733037971817783938,1733037971817631483,9,0.71,-0.87,0.61,3.4145796666666666,-79.3,-80.98
1733037971917089820,1733037971916793584,9,0.71,-0.87,0.61,3.427087333333333,-78.93,-80.73
1733037972047220932,1733037972046909809,9,0.71,-0.87,0.61,3.4208336666666668,-78.69,-80.43
1733037972116538914,1733037972116339206,9,0.71,-0.87,0.61,3.4333413333333334,-79.11,-81.05
1733037972216593560,1733037972216362953,9,0.71,-0.87,0.61,3.4145796666666666,-78.87,-80.6
1733037972316545460,1733037972316386699,9,0.71,-0.87,0.61,3.4083256666666664,-78.85,-80.51
1733037972415542936,1733037972415242195,9,0.71,-0.87,0.61,3.4145796666666666,-78.8,-80.63
1733037972517533771,1733037972516365766,9,0.71,-0.87,0.61,3.4145796666666666,-79.44,-81.09
1733037972616568356,1733037972616235971,9,0.71,-0.87,0.61,3.4208336666666668,-79.36,-80.97
1733037972717562832,1733037972717289447,9,0.71,-0.87,0.61,3.4145796666666666,-79.33,-80.96
1733037972817330212,1733037972817184448,9,0.71,-0.87,0.61,3.427087333333333,-78.79,-80.38
1733037972917647421,1733037972917514085,9,0.71,-0.87,0.61,3.4458486666666666,-78.94,-80.59
1733037973017410051,1733037973017174959,9,0.71,-0.87,0.61,3.433341,-78.83,-80.47
1733037973216519675,1733037973216312646,9,0.71,-0.87,0.61,3.433341,-78.62,-80.47
1733037973316567579,1733037973316379070,9,0.71,-0.87,0.61,3.420833333333333,-78.82,-80.55
1733037973417393655,1733037973417119503,9,0.71,-0.87,0.61,3.427087333333333,-78.98,-80.52
1733037973517570416,1733037973517373800,9,0.71,-0.87,0.61,3.402072,-79.08,-81.01
1733037973617317396,1733037973617134809,9,0.71,-0.87,0.61,3.377056666666667,-79.1,-80.85
1733037973717483586,1733037973717217206,9,0.71,-0.87,0.61,3.358295,-79.57,-81.12
1733037973818694346,1733037973818434000,9,0.71,-0.87,0.61,3.3520413333333337,-79.46,-80.92
1733037973915677369,1733037973915231227,9,0.71,-0.87,0.61,3.345787666666667,-79.49,-81.04
1733037974015759071,1733037974015300512,9,0.71,-0.87,0.61,3.3520416666666666,-79.15,-80.65
1733037974115556140,1733037974115150928,9,0.71,-0.87,0.61,3.339534,-79.17,-80.71
1733037974215586876,1733037974215246438,9,0.71,-0.87,0.61,3.3457876666666664,-79.2,-80.95
1733037974315565490,1733037974315207958,9,0.71,-0.87,0.61,3.3332800000000002,-78.95,-80.73
1733037974415656992,1733037974415226936,9,0.71,-0.87,0.61,3.370803,-79.15,-80.74
1733037974515606644,1733037974515219926,9,0.71,-0.87,0.61,3.370803,-79.05,-80.84
1733037974615583796,1733037974615213632,9,0.71,-0.87,0.61,3.377056666666667,-78.65,-80.53
1733037974718024827,1733037974717934131,9,0.71,-0.87,0.61,3.358295,-79.23,-80.64
1733037974818387341,1733037974818258762,9,0.71,-0.87,0.61,3.3833103333333336,-79.09,-80.67
1733037974918165168,1733037974917961120,9,0.71,-0.87,0.61,3.389564333333334,-78.82,-80.47
1733037975018235895,1733037975018058300,9,0.71,-0.87,0.61,3.4208336666666668,-78.59,-80.71
1733037975118024490,1733037975117841720,9,0.71,-0.87,0.61,3.439595,-78.97,-80.74
1733037975218373812,1733037975218062877,9,0.71,-0.87,0.61,3.477117666666667,-78.63,-80.44
1733037975318170143,1733037975318055868,9,0.71,-0.87,0.61,3.5083866666666665,-79.03,-80.75
1733037975418135235,1733037975417882680,9,0.71,-0.87,0.61,3.502133,-78.86,-80.53
1733037975518024141,1733037975517880678,9,0.71,-0.87,0.61,3.5271483333333333,-78.8,-80.69
1733037975617472057,1733037975617329120,9,0.71,-0.87,0.61,3.5584173333333333,-78.79,-80.56
1733037975717857696,1733037975717744827,9,0.71,-0.87,0.61,3.6084476666666667,-78.75,-80.46
1733037975818204521,1733037975818033933,9,0.71,-0.87,0.61,3.6397166666666667,-78.75,-80.62
1733037975918039066,1733037975917834281,9,0.71,-0.87,0.61,3.677239333333333,-79.02,-80.59
1733037976018352802,1733037976018149614,9,0.71,-0.87,0.61,3.721016,-78.67,-80.52
1733037976118436469,1733037976118159770,9,0.71,-0.87,0.61,3.7647926666666667,-78.98,-80.96
1733037976215652262,1733037976215210199,9,0.71,-0.87,0.61,3.783554333333333,-79.32,-81.15
1733037976315900809,1733037976315200328,9,0.71,-0.87,0.61,3.852346333333333,-78.75,-80.81
1733037976415383362,1733037976415210485,9,0.71,-0.87,0.61,3.914884666666667,-78.86,-80.82
1733037976515557294,1733037976515209197,9,0.71,-0.87,0.61,3.977422666666667,-78.55,-80.75
1733037976615985350,1733037976615276813,9,0.71,-0.87,0.61,4.021199333333333,-78.58,-80.76
1733037976718553753,1733037976718325614,9,0.71,-0.87,0.61,4.0712296666666665,-78.63,-80.45
1733037976819917124,1733037976819690227,9,0.71,-0.87,0.61,4.158783,-78.83,-80.41
1733037976917265700,1733037976917028188,9,0.71,-0.87,0.61,4.233828666666667,-79.07,-81.16
1733037977017774379,1733037977017537117,9,0.71,-0.87,0.61,4.302620666666667,-78.8,-80.56
1733037977117472864,1733037977117181301,9,0.71,-0.87,0.61,4.365158666666667,-78.71,-80.54
1733037977217420002,1733037977217205047,9,0.71,-0.87,0.61,4.421443,-79.0,-80.62
1733037977317397522,1733037977317231178,9,0.71,-0.87,0.61,4.496488666666667,-79.02,-80.72
1733037977417740611,1733037977417571306,9,0.71,-0.87,0.61,4.552773,-79.08,-81.19
1733037977517502402,1733037977517362117,9,0.71,-0.87,0.61,4.6465803333333335,-78.71,-80.51
1733037977618386506,1733037977618190526,9,0.71,-0.87,0.61,4.7403873333333335,-78.75,-80.63
1733037977716671052,1733037977716402292,9,0.71,-0.87,0.61,4.852956,-79.14,-80.81
1733037977817439493,1733037977817218780,9,0.71,-0.87,0.61,4.946763000000001,-79.01,-80.72
1733037977917632353,1733037977917484998,9,0.71,-0.87,0.61,5.040570333333334,-79.07,-80.67
1733037978018181938,1733037978017968177,9,0.71,-0.87,0.61,5.109362,-79.0,-81.11
1733037978117649708,1733037978117508172,9,0.71,-0.87,0.61,5.190661333333334,-78.73,-80.44
1733037978217544660,1733037978217466831,9,0.71,-0.87,0.61,5.303229666666667,-78.88,-81.11
1733037978316675135,1733037978316461086,9,0.71,-0.87,0.61,5.428305999999999,-78.8,-80.68
1733037978416917498,1733037978416739702,9,0.71,-0.87,0.61,5.528366999999999,-78.95,-81.1
1733037978518001884,1733037978517811775,9,0.71,-0.87,0.61,5.597159,-79.12,-80.76
1733037978715545348,1733037978715210676,9,0.71,-0.87,0.61,5.740996666666667,-78.88,-80.66
1733037978816068312,1733037978815246820,9,0.71,-0.87,0.61,5.922357333333333,-78.72,-80.86
1733037978915853251,1733037978915261268,9,0.71,-0.87,0.61,6.122479333333334,-78.86,-80.55
1733037979015696742,1733037979015170335,9,0.71,-0.87,0.61,6.253809333333333,-78.9,-80.5
1733037979115632885,1733037979115186452,9,0.71,-0.87,0.61,6.341362666666666,-79.19,-80.81
1733037979215605072,1733037979215235471,9,0.71,-0.87,0.61,6.422662,-79.27,-80.87
1733037979317510007,1733037979317375183,9,0.71,-0.87,0.61,6.535230666666666,-78.8,-80.55
1733037979417679621,1733037979417355298,9,0.71,-0.87,0.61,6.654053,-79.11,-80.66
1733037979517669470,1733037979517497301,9,0.71,-0.87,0.61,6.7666216666666665,-78.97,-80.59
1733037979617487099,1733037979617358684,9,0.71,-0.87,0.61,6.854175000000001,-78.76,-80.41
1733037979718112777,1733037979718025922,9,0.71,-0.87,0.61,6.960489666666667,-79.03,-80.56
1733037979817284577,1733037979817097425,9,0.71,-0.87,0.61,7.079311999999999,-79.03,-80.72
1733037979917562637,1733037979917247056,9,0.71,-0.87,0.61,7.198134333333333,-79.13,-80.68
1733037980017722496,1733037980017427682,9,0.71,-0.87,0.61,7.329464333333334,-79.93,-80.79
1733037980115726721,1733037980115255117,9,0.71,-0.87,0.61,7.4357793333333335,-79.65,-81.08
1733037980215779896,1733037980215271949,9,0.71,-0.87,0.61,7.53584,-79.94,-81.29
1733037980315473923,1733037980315209627,9,0.71,-0.87,0.61,7.6546623333333335,-79.73,-80.93
1733037980415626285,1733037980415236711,9,0.71,-0.87,0.61,7.785992,-79.98,-81.13
1733037980515556864,1733037980515206336,9,0.71,-0.87,0.61,7.923576,-79.88,-81.13
1733037980615610257,1733037980615228891,9,0.71,-0.87,0.61,8.042398666666665,-79.46,-80.51
1733037980715552986,1733037980715211629,9,0.71,-0.87,0.61,8.179982666666666,-79.35,-80.6
1733037980818738637,1733037980818269491,9,0.71,-0.87,0.61,8.311312666666666,-79.2,-80.52
1733037980918170549,1733037980918009757,9,0.71,-0.87,0.61,8.436388999999998,-79.32,-80.77
1733037981017940668,1733037981017832994,9,0.71,-0.87,0.61,8.542703999999999,-79.23,-80.66
1733037981118451941,1733037981118096590,9,0.71,-0.87,0.61,8.642764999999999,-79.36,-80.99
1733037981218568751,1733037981218279838,9,0.71,-0.87,0.61,8.749079666666667,-79.15,-80.55
1733037981317885520,1733037981317795515,9,0.71,-0.87,0.61,8.880409333333333,-79.13,-80.64
1733037981515565059,1733037981515212535,9,0.71,-0.87,0.61,9.074277333333333,-79.01,-80.5
1733037981615518153,1733037981615235567,9,0.71,-0.87,0.61,9.230622666666667,-79.3,-80.6
1733037981715490942,1733037981715218067,9,0.71,-0.87,0.61,9.386968,-79.01,-80.51
1733037981815536161,1733037981815221548,9,0.71,-0.87,0.61,9.499536666666666,-79.52,-80.49
1733037981915493211,1733037981915213346,9,0.71,-0.87,0.61,9.612105,-79.37,-80.67
1733037982015494516,1733037982015223979,9,0.71,-0.87,0.61,9.718419666666668,-79.26,-80.66
1733037982117922001,1733037982117718696,9,0.71,-0.87,0.61,9.830988333333332,-79.32,-80.78
1733037982218150250,1733037982217870235,9,0.71,-0.87,0.61,9.987333333333334,-79.48,-80.44
1733037982318270763,1733037982317957878,9,0.71,-0.87,0.61,10.118663666666665,-80.17,-81.24
1733037982418364883,1733037982418172121,9,0.71,-0.87,0.61,10.256247666666665,-80.32,-81.13
1733037982518068402,1733037982517830371,9,0.71,-0.87,0.61,10.362562666666667,-79.72,-80.91
1733037982715506021,1733037982715219736,9,0.71,-0.87,0.61,10.543923000000001,-80.32,-81.15
1733037982815684592,1733037982815267801,9,0.71,-0.87,0.61,10.700268000000001,-80.39,-80.84
1733037983318092801,1733037983317859888,9,0.71,-0.87,0.61,11.394440666666668,-81.54,-82.52
1733037983416554391,1733037983416305303,9,0.71,-0.87,0.61,11.538278333333333,-81.93,-82.48
1733037983515756672,1733037983515259027,9,0.71,-0.87,0.61,11.700877333333333,-81.76,-82.41
1733037983615504645,1733037983615251779,9,0.71,-0.87,0.61,11.819699666666665,-80.42,-81.59
1733037983717612971,1733037983717523574,9,0.71,-0.87,0.61,11.907252999999999,-80.89,-81.68
1733037983817186606,1733037983817025899,9,0.71,-0.87,0.61,12.013567666666667,-80.48,-81.12
1733037983916359233,1733037983916061639,9,0.71,-0.87,0.61,12.132390000000001,-80.34,-81.48
1733037984016768513,1733037984016277790,9,0.71,-0.87,0.61,12.276227666666665,-80.28,-81.01
1733037984116694836,1733037984116445302,9,0.71,-0.87,0.61,12.395050333333336,-80.24,-80.93
1733037984216761953,1733037984216207504,9,0.71,-0.87,0.61,12.520126333333332,-80.04,-80.89
1733037984316783057,1733037984316404342,9,0.71,-0.87,0.61,12.638948666666666,-79.89,-80.66
1733037984415525201,1733037984415226221,9,0.71,-0.87,0.61,12.751517,-80.29,-81.4
1733037984515784786,1733037984515228271,9,0.71,-0.87,0.61,12.876593333333334,-79.99,-80.82
1733037984615646733,1733037984615193605,9,0.71,-0.87,0.61,12.995415666666666,-79.93,-80.79
1733037984715619430,1733037984715203285,9,0.71,-0.87,0.61,13.120492,-79.98,-81.16
1733037984815432910,1733037984815216064,9,0.71,-0.87,0.61,13.233060666666667,-79.77,-80.99
1733037984915496610,1733037984915195465,9,0.71,-0.87,0.61,13.345629333333333,-79.96,-81.07
1733037985015750169,1733037985015192985,9,0.71,-0.87,0.61,13.483213,-80.16,-81.01
1733037985115842245,1733037985115220785,9,0.71,-0.87,0.61,13.614543,-79.72,-80.53
1733037985215660328,1733037985215199470,9,0.71,-0.87,0.61,13.758380666666667,-80.23,-81.12
1733037985315703387,1733037985315218448,9,0.71,-0.87,0.61,13.877203333333334,-79.72,-80.79
1733037985415694980,1733037985415214538,9,0.71,-0.87,0.61,14.008533333333332,-79.64,-80.56
1733037985515632201,1733037985515218734,9,0.71,-0.87,0.61,14.139863333333333,-79.66,-80.65
1733037985615853362,1733037985615260362,9,0.71,-0.87,0.61,14.271192999999998,-80.09,-80.94
1733037985715553970,1733037985715209484,9,0.71,-0.87,0.61,14.377507666666666,-79.9,-80.78
1733037985815804748,1733037985815213203,9,0.71,-0.87,0.61,14.483822333333334,-79.52,-80.51
1733037985915756195,1733037985915250539,9,0.71,-0.87,0.61,14.602644666666668,-79.8,-80.6
1733037986015580897,1733037986015193462,9,0.71,-0.87,0.61,14.890320333333333,-79.77,-80.5
1733037986116249893,1733037986115295886,9,0.71,-0.87,0.61,15.021650666666666,-79.67,-80.55
1733037986215593544,1733037986215197086,9,0.71,-0.87,0.61,15.152980333333334,-80.33,-81.0
1733037986315642808,1733037986315205335,9,0.71,-0.87,0.61,15.271802333333333,-80.06,-81.11
1733037986415584602,1733037986415203809,9,0.71,-0.87,0.61,15.403132,-79.91,-80.91
1733037986515750160,1733037986515223503,9,0.71,-0.87,0.61,15.528208333333332,-79.69,-80.51
1733037986615973939,1733037986615203142,9,0.71,-0.87,0.61,15.634523333333334,-79.71,-80.94
1733037986715702286,1733037986715204954,9,0.71,-0.87,0.61,15.753346,-80.05,-80.85
1733037986815516757,1733037986815201044,9,0.71,-0.87,0.61,15.884676,-79.79,-80.79
1733037986916018996,1733037986915214538,9,0.71,-0.87,0.61,16.034766666666666,-80.4,-80.87
1733037987015609326,1733037987015236616,9,0.71,-0.87,0.61,16.166096333333332,-79.96,-80.78
1733037987115541985,1733037987115225076,9,0.71,-0.87,0.61,16.291172,-80.0,-80.93
1733037987215532665,1733037987215201854,9,0.71,-0.87,0.61,16.403740666666668,-80.03,-81.22
1733037987315603394,1733037987315224885,9,0.71,-0.87,0.61,16.528816333333335,-80.25,-80.73
1733037987415586105,1733037987415212631,9,0.71,-0.87,0.61,16.653892666666668,-80.17,-80.7
1733037987515502781,1733037987515217304,9,0.71,-0.87,0.61,16.797730333333334,-80.4,-80.66
1733037987615548833,1733037987615207195,9,0.71,-0.87,0.61,16.91029966666667,-80.29,-81.24
1733037987715506319,1733037987715233325,9,0.71,-0.87,0.61,17.029122333333333,-80.38,-81.02
1733037987815483270,1733037987815204620,9,0.71,-0.87,0.61,17.141690999999998,-80.55,-81.52
1733037987916609500,1733037987916347742,9,0.71,-0.87,0.61,17.298035666666667,-80.7,-81.65
1733037988016911496,1733037988016740083,9,0.71,-0.87,0.61,17.441873333333334,-80.73,-82.22
1733037988116586129,1733037988116400957,9,0.71,-0.87,0.61,17.585710666666667,-80.84,-81.12
1733037988217931929,1733037988217621564,9,0.71,-0.87,0.61,17.710787,-81.93,-82.97
1733037988316536761,1733037988316308021,9,0.71,-0.87,0.61,17.854624666666666,-80.88,-82.89
1733037988415550187,1733037988415242671,9,0.71,-0.87,0.61,17.97344766666667,-81.09,-82.37
1733037988515565880,1733037988515212059,9,0.71,-0.87,0.61,18.098524,-81.19,-82.42
1733037988615550558,1733037988615235567,9,0.71,-0.87,0.61,18.217345999999996,-81.61,-83.51
1733037988715477121,1733037988715213537,9,0.71,-0.87,0.61,18.361183333333333,-81.85,-82.2
1733037988815651616,1733037988815229892,9,0.71,-0.87,0.61,18.492513,-82.16,-82.32
1733037989415530718,1733037989415244102,9,0.71,-0.87,0.61,19.255478,-82.49,-83.48
1733037989615587380,1733037989615226030,9,0.71,-0.87,0.61,19.430584666666665,-83.38,-85.5
1733037989718468678,1733037989718190670,9,0.71,-0.87,0.61,19.611945666666667,-83.08,-86.23
1733037989817324504,1733037989817137956,9,0.71,-0.87,0.61,19.787052333333335,-83.88,-84.95
1733037989917454843,1733037989917201757,9,0.71,-0.87,0.61,19.918381999999998,-83.75,-85.03
1733037990017543516,1733037990017229795,9,0.71,-0.87,0.61,20.030950666666666,-84.4,-85.53
1733037990116899767,1733037990116590738,9,0.71,-0.87,0.61,20.168533999999998,-85.96,-89.0
1733037990218431069,1733037990218280792,9,0.71,-0.87,0.61,20.312371666666664,-85.99,-87.5
1733037990315580169,1733037990315221548,9,0.71,-0.87,0.61,20.42494,-87.61,-89.59
1733037990415606453,1733037990415233373,9,0.71,-0.87,0.61,20.550016333333335,-86.38,-89.81
1733037990515588422,1733037990515211582,9,0.71,-0.87,0.61,20.662584999999996,-86.39,-90.14
1733037990615834979,1733037990615295886,9,0.71,-0.87,0.61,20.806422666666666,-86.36,-91.44
1733037990715711369,1733037990715258359,9,0.71,-0.87,0.61,20.931499,-86.24,-89.68
1733037990815555046,1733037990815228462,9,0.71,-0.87,0.61,21.050321,-87.62,-91.42
1733037990915587620,1733037990915227651,9,0.71,-0.87,0.61,21.169143000000002,-87.47,-90.52
1733037991015522855,1733037991015233516,9,0.71,-0.87,0.61,21.281711666666666,-87.84,-93.92
1733037991115557250,1733037991115240335,9,0.71,-0.87,0.61,21.388026666666665,-87.63,-92.5
1733037991215606521,1733037991215223550,9,0.71,-0.87,0.61,21.500595333333333,-88.43,-94.73
1733037991315527190,1733037991315233230,9,0.71,-0.87,0.61,21.625671666666666,-88.37,-93.65
1733037991415726681,1733037991415249347,9,0.71,-0.87,0.61,21.757001666666667,-87.71,-92.72
1733037991518486895,1733037991518249511,9,0.71,-0.87,0.61,21.88833166666667,-87.29,-90.95
1733037991618302617,1733037991618081092,9,0.71,-0.87,0.61,22.063438333333334,-86.96,-88.59
1733037991718418228,1733037991718172311,9,0.71,-0.87,0.61,22.251052666666666,-88.5,-89.0
1733037991818183916,1733037991817962408,9,0.71,-0.87,0.61,22.457428333333336,-86.01,-86.51
1733037991918541311,1733037991918445825,9,0.71,-0.87,0.61,22.557489,-88.49,-89.35
1733037992018413496,1733037992018209218,9,0.71,-0.87,0.61,22.670057333333332,-87.09,-87.95
1733037992118526906,1733037992118226528,9,0.71,-0.87,0.61,22.738849666666663,-88.28,-89.46
1733037992217613130,1733037992217159271,9,0.71,-0.87,0.61,22.876433666666667,-86.92,-88.21
1733037992317709834,1733037992317457675,9,0.71,-0.87,0.61,23.007763666666666,-87.1,-88.88
1733037992416553255,1733037992416407823,9,0.71,-0.87,0.61,23.145347,-87.51,-88.0
1733037992516643045,1733037992516456127,9,0.71,-0.87,0.61,23.295438333333333,-86.8,-86.79
1733037992617183010,1733037992616918087,9,0.71,-0.87,0.61,23.401753333333332,-86.63,-87.03
1733037992716766103,1733037992716505765,9,0.71,-0.87,0.61,23.514322000000003,-87.89,-88.08
1733037992816918640,1733037992816671848,9,0.71,-0.87,0.61,23.620637000000002,-86.98,-88.52
1733037992916851566,1733037992916579723,9,0.71,-0.87,0.61,23.751966666666664,-87.32,-87.92
1733037993016696278,1733037993016416311,9,0.71,-0.87,0.61,23.877043,-86.43,-88.74
1733037993116645806,1733037993116336345,9,0.71,-0.87,0.61,23.995865,-86.85,-88.08
1733037993216981932,1733037993216596841,9,0.71,-0.87,0.61,24.13344933333333,-85.65,-86.84
1733037993316885497,1733037993316583633,9,0.71,-0.87,0.61,24.264779,-86.51,-87.26
1733037993416921705,1733037993416702747,9,0.71,-0.87,0.61,24.383601666666664,-87.54,-88.52
1733037993516814233,1733037993516503095,9,0.71,-0.87,0.61,24.50242366666667,-85.95,-86.15
1733037993616937535,1733037993616522789,9,0.71,-0.87,0.61,24.640007666666666,-85.85,-88.51
1733037993716967579,1733037993716427564,9,0.71,-0.87,0.61,24.777591,-84.39,-85.31
1733037993816862822,1733037993816457986,9,0.71,-0.87,0.61,24.915174999999994,-85.32,-87.05
1733037993947346675,1733037993947092533,9,0.71,-0.87,0.61,25.059012666666664,-84.99,-85.14
1733037994016539009,1733037994016309499,9,0.71,-0.87,0.61,25.190342666666666,-85.74,-85.66
1733037994118330622,1733037994118057012,9,0.71,-0.87,0.61,25.327926,-84.52,-85.43
1733037994218356584,1733037994218168258,9,0.71,-0.87,0.61,25.440494666666666,-85.73,-85.37
1733037994318078339,1733037994317967891,9,0.71,-0.87,0.61,25.578078666666666,-84.68,-85.09
1733037994418586334,1733037994418297529,9,0.71,-0.87,0.61,25.703155,-84.33,-84.31
1733037994515753454,1733037994515192985,9,0.71,-0.87,0.61,25.978322666666667,-83.4,-84.66
1733037994616746631,1733037994616478443,9,0.71,-0.87,0.61,26.103399,-83.61,-84.88
1733037994716622283,1733037994716527462,9,0.71,-0.87,0.61,26.234728666666665,-83.16,-84.11
1733037994820342863,1733037994820183515,9,0.71,-0.87,0.61,26.36605833333333,-83.41,-84.0
1733037994916887430,1733037994916660785,9,0.71,-0.87,0.61,26.50364233333333,-82.87,-83.54
1733037995016673398,1733037995016438961,9,0.71,-0.87,0.61,26.634972333333337,-84.63,-86.7
1733037995116560664,1733037995116317033,9,0.71,-0.87,0.61,26.791317666666668,-83.47,-83.78
1733037995217136917,1733037995216712951,9,0.71,-0.87,0.61,26.928901,-83.71,-84.03
1733037995315648452,1733037995315212249,9,0.71,-0.87,0.61,27.060231333333334,-83.07,-84.68
1733037995715594061,1733037995715217113,9,0.71,-0.87,0.61,15.384369999999999,-82.82,-82.7
1733037995817015240,1733037995816816329,9,0.71,-0.87,0.61,15.478177333333335,-82.86,-83.28
1733037995917781403,1733037995917514562,9,0.71,-0.87,0.61,27.785673666666668,-83.33,-83.35
1733037996017532623,1733037996017260789,9,0.71,-0.87,0.61,27.879480333333333,-82.64,-82.62
1733037996117021847,1733037996116714954,9,0.71,-0.87,0.61,27.998302999999996,-82.49,-82.29
1733037996216469574,1733037996216304779,9,0.71,-0.87,0.61,28.08585633333333,-82.9,-82.91
1733037996315661595,1733037996315219879,9,0.71,-0.87,0.61,28.17966366666667,-83.61,-83.12
1733037996415546151,1733037996415205717,9,0.71,-0.87,0.61,28.235947666666664,-81.87,-81.66
1733037996515613926,1733037996515206813,9,0.71,-0.87,0.61,28.292232,-82.58,-82.55
1733037996615648003,1733037996615275621,9,0.71,-0.87,0.61,28.323500999999997,-83.23,-82.97
1733037996715494875,1733037996715220689,9,0.71,-0.87,0.61,28.361023666666664,-82.73,-84.59
1733037996815604220,1733037996815217494,9,0.71,-0.87,0.61,28.386038666666668,-83.11,-85.03
1733037996915630346,1733037996915207147,9,0.71,-0.87,0.61,28.411054333333336,-83.42,-85.13
1733037997015489050,1733037997015207052,9,0.71,-0.87,0.61,28.423562,-84.92,-87.01
1733037997115486350,1733037997115198135,9,0.71,-0.87,0.61,28.43606966666667,-86.16,-87.93
1733037997215626062,1733037997215214490,9,0.71,-0.87,0.61,28.423561666666668,-86.73,-87.98
1733037997315613145,1733037997315212965,9,0.71,-0.87,0.61,28.417308333333335,-85.18,-87.28
1733037997415696377,1733037997415280580,9,0.71,-0.87,0.61,28.42356266666667,-84.89,-87.16
1733037997515814493,1733037997515234231,9,0.71,-0.87,0.61,28.436070666666666,-86.0,-87.56
1733037997615641973,1733037997615271091,9,0.71,-0.87,0.61,28.461085333333333,-84.68,-84.91
1733037997715613440,1733037997715254545,9,0.71,-0.87,0.61,28.461085333333333,-84.96,-86.01
1733037997815822633,1733037997815256357,9,0.71,-0.87,0.61,28.473593000000005,-85.27,-85.03
1733037997915578887,1733037997915214300,9,0.71,-0.87,0.61,28.46733933333333,-84.99,-84.97
1733037998015412908,1733037998015146732,9,0.71,-0.87,0.61,28.473592666666665,-85.11,-85.29
1733037998115517148,1733037998115123271,9,0.71,-0.87,0.61,28.46733833333333,-85.29,-86.96
1733037998215488243,1733037998215202331,9,0.71,-0.87,0.61,28.461084999999997,-84.25,-86.19
1733037998315804619,1733037998315243244,9,0.71,-0.87,0.61,28.461084999999997,-85.93,-86.09
1733037998415604336,1733037998415248632,9,0.71,-0.87,0.61,28.473592666666665,-84.76,-85.04
1733037998515527660,1733037998515230178,9,0.71,-0.87,0.61,28.473592666666665,-85.82,-86.02
1733037998615802528,1733037998615258455,9,0.71,-0.87,0.61,28.46733933333333,-85.15,-86.03
1733037998715756652,1733037998715209960,9,0.71,-0.87,0.61,28.448578333333334,-84.96,-86.41
1733037998815795264,1733037998815255403,9,0.71,-0.87,0.61,28.442324,-84.08,-85.89
1733037998915776460,1733037998915244817,9,0.71,-0.87,0.61,28.442324000000003,-85.83,-87.36
1733037999015514919,1733037999015160560,9,0.71,-0.87,0.61,28.43606966666667,-85.27,-87.87
1733037999115551026,1733037999115222215,9,0.71,-0.87,0.61,28.429816333333335,-86.01,-86.14
1733037999215768542,1733037999215200185,9,0.71,-0.87,0.61,28.411054333333336,-85.15,-85.85
1733037999318268011,1733037999318026304,9,0.71,-0.87,0.61,28.411054333333336,-85.3,-85.54
1733037999418210629,1733037999418029546,9,0.71,-0.87,0.61,28.398546333333332,-84.85,-85.72
1733037999518520668,1733037999518231868,9,0.71,-0.87,0.61,28.392292666666666,-84.06,-84.72
1733037999618226879,1733037999617994546,9,0.71,-0.87,0.61,28.379785666666667,-84.29,-85.31
1733037999718499535,1733037999718336105,9,0.71,-0.87,0.61,28.348516666666665,-84.09,-84.41
1733037999818473814,1733037999818321466,9,0.71,-0.87,0.61,28.310993999999997,-84.34,-87.05
1733037999918505585,1733037999918233156,9,0.71,-0.87,0.61,28.254709333333334,-84.25,-84.96
1733038000018396457,1733038000018234014,9,0.71,-0.87,0.61,28.210932666666668,-84.56,-85.9
1733038000116626359,1733038000116400241,9,0.71,-0.87,0.61,28.173409666666668,-83.88,-85.76
1733038000216782733,1733038000216564893,9,0.71,-0.87,0.61,28.160902000000004,-84.05,-86.18
1733038000316510003,1733038000316349029,9,0.71,-0.87,0.61,28.142140666666666,-84.07,-87.39
1733038000416940666,1733038000416526079,9,0.71,-0.87,0.61,28.117125666666666,-84.5,-84.9
1733038000516679397,1733038000516448736,9,0.71,-0.87,0.61,28.067095,-84.04,-86.27
1733038000617408533,1733038000617190361,9,0.71,-0.87,0.61,28.029572333333334,-83.38,-83.39
1733038000715561986,1733038000715205669,9,0.71,-0.87,0.61,27.96078,-84.93,-86.08
1733038000815684186,1733038000815207004,9,0.71,-0.87,0.61,27.885734333333332,-84.18,-85.35
1733038000916539188,1733038000916325569,9,0.71,-0.87,0.61,27.829449666666665,-86.37,-86.71
1733038001017081118,1733038001016807317,9,0.71,-0.87,0.61,27.760657999999996,-83.87,-84.48
1733038001115591630,1733038001115222454,9,0.71,-0.87,0.61,27.723135333333335,-84.34,-84.44
1733038001215855608,1733038001215238332,9,0.71,-0.87,0.61,27.635582333333332,-83.96,-85.38
1733038001315808920,1733038001315223455,9,0.71,-0.87,0.61,27.579298333333337,-83.73,-84.44
1733038001415911661,1733038001415190458,9,0.71,-0.87,0.61,27.50425233333333,-83.84,-84.18
1733038001516987695,1733038001516660690,9,0.71,-0.87,0.61,27.447967666666667,-83.93,-84.44
1733038001616758396,1733038001616464138,9,0.71,-0.87,0.61,27.385429333333335,-83.88,-84.93
1733038001717882998,1733038001717407464,9,0.71,-0.87,0.61,27.291622666666665,-84.45,-85.71
1733038001816941873,1733038001816617012,9,0.71,-0.87,0.61,27.197815333333335,-83.9,-84.46
1733038001916721842,1733038001916386842,9,0.71,-0.87,0.61,27.11026166666667,-83.7,-84.56
1733038002016548967,1733038002016246318,9,0.71,-0.87,0.61,27.047723666666666,-85.32,-85.53
1733038002116532570,1733038002116282701,9,0.71,-0.87,0.61,26.985185666666666,-84.09,-84.83
1733038002217494258,1733038002217349290,9,0.71,-0.87,0.61,26.941409000000004,-84.08,-84.39
1733038002817700732,1733038002817405939,9,0.71,-0.87,0.61,26.397327333333333,-84.51,-86.2
1733038002917265559,1733038002917133092,9,0.71,-0.87,0.61,26.32228166666667,-83.96,-85.32
1733038003017417781,1733038003017174243,9,0.71,-0.87,0.61,26.228474666666667,-83.54,-84.93
1733038003116850073,1733038003116488456,9,0.71,-0.87,0.61,26.065876333333335,-84.62,-85.45
1733038003216633655,1733038003216394901,9,0.71,-0.87,0.61,25.98457666666667,-85.33,-87.08
1733038003316625014,1733038003316357374,9,0.71,-0.87,0.61,25.897023,-84.53,-84.71
1733038003415424027,1733038003415239334,9,0.71,-0.87,0.61,25.784453999999997,-84.46,-85.12
1733038003515950288,1733038003515204906,9,0.71,-0.87,0.61,25.678139666666667,-84.83,-86.0
1733038003615656599,1733038003615249872,9,0.71,-0.87,0.61,25.565570999999995,-84.84,-86.86
1733038003716006068,1733038003715286254,9,0.71,-0.87,0.61,25.490525666666667,-84.38,-85.85
1733038003815845090,1733038003815244913,9,0.71,-0.87,0.61,25.359195333333332,-84.87,-86.85
1733038003915859318,1733038003915277004,9,0.71,-0.87,0.61,25.252881000000002,-84.94,-86.63
1733038004015771942,1733038004015214681,9,0.71,-0.87,0.61,25.134058,-85.73,-88.44
1733038004116236096,1733038004115272283,9,0.71,-0.87,0.61,25.06526633333333,-84.95,-87.18
1733038004215565399,1733038004215196609,9,0.71,-0.87,0.61,24.946443666666667,-86.26,-87.91
1733038004315827072,1733038004315266370,9,0.71,-0.87,0.61,24.821368333333336,-85.76,-87.94
1733038004415550588,1733038004415196418,9,0.71,-0.87,0.61,24.690038333333334,-86.85,-88.85
1733038004515689827,1733038004515267848,9,0.71,-0.87,0.61,24.583724,-86.23,-89.74
1733038004615618506,1733038004615236282,9,0.71,-0.87,0.61,24.477408999999998,-86.69,-88.09
1733038004715495043,1733038004715265750,9,0.71,-0.87,0.61,24.358587,-87.9,-88.98
1733038004815730812,1733038004815246105,9,0.71,-0.87,0.61,24.252272,-87.14,-88.7
1733038004915621701,1733038004915220975,9,0.71,-0.87,0.61,24.145957,-86.72,-87.43
1733038005015712074,1733038005015244245,9,0.71,-0.87,0.61,24.045895333333334,-86.93,-88.87
1733038005115569335,1733038005115220785,9,0.71,-0.87,0.61,23.92707333333333,-86.81,-89.45
1733038005215630329,1733038005215197086,9,0.71,-0.87,0.61,23.801997,-87.89,-89.87
1733038005315610019,1733038005315182447,9,0.71,-0.87,0.61,23.664413666666665,-87.33,-88.13
1733038005415614170,1733038005415211200,9,0.71,-0.87,0.61,23.551844333333335,-86.91,-88.55
1733038005515785258,1733038005515288114,9,0.71,-0.87,0.61,23.44553,-86.39,-89.02
1733038005615768404,1733038005615251541,9,0.71,-0.87,0.61,23.345468666666665,-87.3,-89.58
1733038005716542903,1733038005716348886,9,0.71,-0.87,0.61,23.195377666666662,-88.45,-90.89
1733038005817357956,1733038005817066192,9,0.71,-0.87,0.61,23.05154,-88.68,-92.62
1733038005916693798,1733038005916391134,9,0.71,-0.87,0.61,22.901448666666667,-87.93,-90.37
1733038006017571810,1733038006017186641,9,0.71,-0.87,0.61,22.813895666666667,-86.82,-89.89
1733038006116670889,1733038006116435527,9,0.71,-0.87,0.61,22.695072999999997,-87.63,-90.49
1733038006216713659,1733038006216440677,9,0.71,-0.87,0.61,22.563743333333335,-88.24,-89.89
1733038006316406441,1733038006316303730,9,0.71,-0.87,0.61,22.401143666666666,-87.74,-91.29
1733038006417330499,1733038006416954040,9,0.71,-0.87,0.61,22.276068,-88.05,-90.34
1733038006516573926,1733038006516479969,9,0.71,-0.87,0.61,22.157245333333332,-88.02,-93.22
1733038006617147324,1733038006616869449,9,0.71,-0.87,0.61,22.038423333333338,-87.53,-91.29
1733038006716450399,1733038006716352701,9,0.71,-0.87,0.61,21.913346999999998,-88.12,-90.31
1733038006816639933,1733038006816399097,9,0.71,-0.87,0.61,21.794524666666664,-87.23,-93.52
1733038006916603824,1733038006916354894,9,0.71,-0.87,0.61,21.663194666666666,-86.64,-90.01
1733038007017039639,1733038007016548395,9,0.71,-0.87,0.61,21.544372,-86.44,-90.33
1733038007116687217,1733038007116397619,9,0.71,-0.87,0.61,21.406788000000002,-86.53,-94.37
1733038007216845914,1733038007216566085,9,0.71,-0.87,0.61,21.294219666666667,-85.2,-90.11
1733038007317306913,1733038007317168712,9,0.71,-0.87,0.61,21.175397333333336,-86.27,-89.74
1733038007415713726,1733038007415186405,9,0.71,-0.87,0.61,21.07533666666667,-86.71,-89.79
1733038007515424443,1733038007515195846,9,0.71,-0.87,0.61,20.944006666666667,-86.53,-92.19
1733038007615652693,1733038007615228652,9,0.71,-0.87,0.61,20.787661333333332,-87.08,-88.93
1733038007717976317,1733038007717727184,9,0.71,-0.87,0.61,20.650077333333332,-86.11,-87.82
1733038007817438035,1733038007817298173,9,0.71,-0.87,0.61,20.53125466666667,-85.63,-86.65
1733038007917290793,1733038007917094469,9,0.71,-0.87,0.61,20.42493966666667,-85.76,-88.92
1733038008017707228,1733038008017578601,9,0.71,-0.87,0.61,20.306117333333333,-84.93,-87.9
1733038008115713762,1733038008115259408,9,0.71,-0.87,0.61,20.193548666666665,-84.53,-84.82
1733038008215696625,1733038008215223312,9,0.71,-0.87,0.61,20.074726666666667,-83.95,-86.13
1733038008315536339,1733038008315188884,9,0.71,-0.87,0.61,19.949650666666667,-83.93,-87.48
1733038008415526378,1733038008415232181,9,0.71,-0.87,0.61,19.812066666666666,-83.95,-84.26
1733038008516615674,1733038008516294717,9,0.71,-0.87,0.61,19.68699033333333,-83.74,-84.24
1733038009115659276,1733038009115250110,9,0.71,-0.87,0.61,18.961549,-82.05,-83.6
1733038009215856446,1733038009215228319,9,0.71,-0.87,0.61,18.830219333333332,-82.76,-83.72
1733038009318126052,1733038009317976713,9,0.71,-0.87,0.61,18.698888999999998,-81.3,-81.38
1733038009417348239,1733038009417219877,9,0.71,-0.87,0.61,18.555051333333335,-81.87,-83.7
1733038009517493164,1733038009517196178,9,0.71,-0.87,0.61,18.436228666666665,-81.08,-82.24
1733038009616760355,1733038009616425514,9,0.71,-0.87,0.61,18.298645333333333,-81.61,-83.41
1733038009716912453,1733038009716584205,9,0.71,-0.87,0.61,18.186077,-81.59,-83.63
1733038009816851949,1733038009816531419,9,0.71,-0.87,0.61,18.035985666666665,-81.25,-81.67
1733038009916533912,1733038009916355848,9,0.71,-0.87,0.61,17.910909333333333,-81.38,-81.31
1733038010016636568,1733038010016520261,9,0.71,-0.87,0.61,17.760817333333332,-80.71,-81.83
1733038010147651670,1733038010147244691,9,0.71,-0.87,0.61,17.641994666666665,-80.9,-81.33
1733038010216758493,1733038010216344833,9,0.71,-0.87,0.61,17.510664666666667,-80.5,-81.08
1733038010316725093,1733038010316531419,9,0.71,-0.87,0.61,17.379334999999998,-80.32,-81.15
1733038010416824564,1733038010416551589,9,0.71,-0.87,0.61,17.254259333333334,-80.49,-81.18
1733038010517276079,1733038010517027378,9,0.71,-0.87,0.61,17.116675333333333,-80.24,-81.62
1733038010616878646,1733038010616607904,9,0.71,-0.87,0.61,16.997853000000003,-80.67,-81.63
1733038010716884912,1733038010716601371,9,0.71,-0.87,0.61,16.872776666666667,-80.44,-80.82
1733038010816744319,1733038010816487312,9,0.71,-0.87,0.61,16.772716000000003,-79.98,-81.81
1733038010916835739,1733038010916539430,9,0.71,-0.87,0.61,16.653893333333333,-80.61,-81.21
1733038011017097216,1733038011016823053,9,0.71,-0.87,0.61,16.535070666666666,-79.9,-80.66
1733038011116808628,1733038011116572618,9,0.71,-0.87,0.61,16.403740666666668,-79.79,-80.85
1733038011216813711,1733038011216460466,9,0.71,-0.87,0.61,16.297426333333334,-80.26,-81.09
1733038011316838353,1733038011316668748,9,0.71,-0.87,0.61,16.178604333333332,-79.69,-80.6
1733038011416666559,1733038011416427612,9,0.71,-0.87,0.61,16.053528333333336,-79.8,-80.98
1733038011517142428,1733038011516882658,9,0.71,-0.87,0.61,15.909690666666668,-79.81,-81.14
1733038011616675411,1733038011616341352,9,0.71,-0.87,0.61,15.784614666666668,-79.65,-80.7
1733038011716799238,1733038011716479063,9,0.71,-0.87,0.61,15.565731666666666,-79.57,-80.94
1733038011816466859,1733038011816370725,9,0.71,-0.87,0.61,15.446909,-79.28,-80.59
1733038011916995112,1733038011916667461,9,0.71,-0.87,0.61,15.309325333333334,-79.7,-81.13
1733038012016804376,1733038012016503572,9,0.71,-0.87,0.61,15.177995000000001,-79.44,-80.7
1733038012116718931,1733038012116472244,9,0.71,-0.87,0.61,15.065426666666667,-79.47,-81.45
1733038012216787665,1733038012216285705,9,0.71,-0.87,0.61,14.984127,-79.22,-81.31
1733038012316649154,1733038012316396951,9,0.71,-0.87,0.61,14.884066333333331,-79.33,-80.64
1733038012416618300,1733038012416288137,9,0.71,-0.87,0.61,14.777751666666665,-79.59,-80.77
1733038012517552994,1733038012517428159,9,0.71,-0.87,0.61,14.658929,-79.63,-80.7
1733038012617420886,1733038012617210626,9,0.71,-0.87,0.61,14.546360333333332,-79.7,-80.89
1733038012717859040,1733038012717624664,9,0.71,-0.87,0.61,14.415030333333334,-79.81,-81.19
1733038012818021144,1733038012817853927,9,0.71,-0.87,0.61,14.283700666666666,-80.13,-80.84
1733038012918307223,1733038012918094873,9,0.71,-0.87,0.61,14.183639666666666,-79.98,-80.97
1733038013017857391,1733038013017676830,9,0.71,-0.87,0.61,14.096086333333332,-80.09,-81.12
1733038013117653717,1733038013117415904,9,0.71,-0.87,0.61,14.021040666666666,-79.8,-80.91
1733038013216778414,1733038013216465711,9,0.71,-0.87,0.61,13.945994999999998,-80.03,-80.72
1733038013317018047,1733038013316441774,9,0.71,-0.87,0.61,13.877203,-79.9,-80.87
1733038013416735508,1733038013416429042,9,0.71,-0.87,0.61,13.83968,-79.85,-81.04
1733038013516998008,1733038013516685724,9,0.71,-0.87,0.61,13.764634333333333,-80.02,-80.78
1733038013616753048,1733038013616377830,9,0.71,-0.87,0.61,13.702096333333335,-79.93,-80.66
1733038013716690481,1733038013716509580,9,0.71,-0.87,0.61,13.627050666666667,-79.84,-80.69
1733038013815519231,1733038013815219640,9,0.71,-0.87,0.61,13.570766333333333,-79.99,-80.85
1733038013916817682,1733038013916498661,9,0.71,-0.87,0.61,13.514482,-80.51,-81.36
1733038014015654952,1733038014015286684,9,0.71,-0.87,0.61,13.445689999999999,-80.33,-81.04
1733038014116414683,1733038014116189241,9,0.71,-0.87,0.61,13.389405666666667,-80.34,-80.92
1733038014217398463,1733038014217254400,9,0.71,-0.87,0.61,13.339375333333335,-80.36,-80.86
1733038014317334969,1733038014317198991,9,0.71,-0.87,0.61,13.295598666666665,-80.94,-81.49
1733038014416830308,1733038014416524887,9,0.71,-0.87,0.61,13.264329666666667,-80.35,-81.09
1733038014515579824,1733038014515213251,9,0.71,-0.87,0.61,13.220552666666668,-80.97,-81.62
1733038014615669006,1733038014615279912,9,0.71,-0.87,0.61,13.189284,-80.53,-81.26
1733038014715696284,1733038014715260267,9,0.71,-0.87,0.61,13.151761333333333,-81.04,-81.49
1733038014817034676,1733038014816724300,9,0.71,-0.87,0.61,13.151761333333333,-80.57,-81.95
1733038015215503777,1733038015215202569,9,0.71,-0.87,0.61,13.057954,-81.15,-82.55
1733038015317578003,1733038015317405223,9,0.71,-0.87,0.61,13.032938999999999,-81.31,-82.65
1733038015417635520,1733038015417479276,9,0.71,-0.87,0.61,13.014177666666667,-81.57,-81.28
1733038015517567610,1733038015517417669,9,0.71,-0.87,0.61,12.976654666666667,-81.58,-82.58
1733038015616607117,1733038015616359710,9,0.71,-0.87,0.61,12.976654666666667,-81.74,-83.35
1733038015716648011,1733038015716418504,9,0.71,-0.87,0.61,12.970400666666668,-81.87,-82.2
1733038015815596682,1733038015815229415,9,0.71,-0.87,0.61,12.976654333333334,-82.48,-82.36
1733038015915486013,1733038015915209531,9,0.71,-0.87,0.61,12.945385333333334,-82.14,-82.63
1733038016015611457,1733038016015239238,9,0.71,-0.87,0.61,12.926623999999999,-83.63,-83.25
1733038016115582746,1733038016115258693,9,0.71,-0.87,0.61,12.920370333333333,-82.35,-82.77
1733038016218676602,1733038016218544244,9,0.71,-0.87,0.61,12.914116333333332,-83.1,-83.57
1733038016318414612,1733038016318233013,9,0.71,-0.87,0.61,12.882847333333336,-82.87,-83.44
1733038016418281259,1733038016418101310,9,0.71,-0.87,0.61,12.851578333333334,-83.26,-83.68
1733038016518190013,1733038016518056154,9,0.71,-0.87,0.61,12.839070666666666,-82.4,-83.18
1733038016618276952,1733038016618134975,9,0.71,-0.87,0.61,12.820309333333334,-82.96,-83.29
1733038016718477976,1733038016718215703,9,0.71,-0.87,0.61,12.807801666666668,-82.55,-84.45
1733038016818526268,1733038016818307638,9,0.71,-0.87,0.61,12.795294,-82.63,-82.5
1733038016918357270,1733038016918169021,9,0.71,-0.87,0.61,12.789040333333332,-83.58,-83.99
1733038017018176255,1733038017018051147,9,0.71,-0.87,0.61,12.782786666666667,-83.14,-83.12
1733038017118791938,1733038017118505239,9,0.71,-0.87,0.61,12.757771666666669,-82.92,-84.09
1733038017218224423,1733038017217903375,9,0.71,-0.87,0.61,12.726502333333334,-82.19,-82.65
1733038017317881963,1733038017317716836,9,0.71,-0.87,0.61,12.713994333333332,-81.72,-82.31
1733038017417911840,1733038017417659282,9,0.71,-0.87,0.61,12.695232666666667,-80.79,-81.22
1733038017517838531,1733038017517700195,9,0.71,-0.87,0.61,12.676471333333334,-80.12,-81.36
1733038017617147794,1733038017617069005,9,0.71,-0.87,0.61,12.607679666666668,-81.17,-81.65
1733038017717360813,1733038017717147827,9,0.71,-0.87,0.61,12.582664333333334,-81.35,-82.33
1733038017817316392,1733038017817174434,9,0.71,-0.87,0.61,12.538887666666668,-81.92,-81.63
1733038017917369737,1733038017917185068,9,0.71,-0.87,0.61,12.532634000000002,-80.48,-82.46
1733038018017937710,1733038018017660856,9,0.71,-0.87,0.61,12.507619,-80.89,-81.51
1733038018116957807,1733038018116711854,9,0.71,-0.87,0.61,12.507619,-81.04,-81.48
1733038018216680742,1733038018216476440,9,0.71,-0.87,0.61,12.507619,-81.09,-81.71
1733038018317123250,1733038018316274881,9,0.71,-0.87,0.61,12.501365,-80.73,-81.38
1733038018416769452,1733038018416529893,9,0.71,-0.87,0.61,12.501365,-80.58,-81.2
1733038018516640910,1733038018516498804,9,0.71,-0.87,0.61,12.482603666666668,-80.38,-81.0
1733038018616840024,1733038018616591453,9,0.71,-0.87,0.61,12.488857666666666,-81.24,-81.64
1733038018716727171,1733038018716431856,9,0.71,-0.87,0.61,12.488857666666668,-80.6,-80.85
1733038018816872133,1733038018816603899,9,0.71,-0.87,0.61,12.488857666666666,-80.99,-81.42
1733038018916651025,1733038018916454553,9,0.71,-0.87,0.61,12.451334666666668,-80.54,-81.38
1733038019016550361,1733038019016389369,9,0.71,-0.87,0.61,12.413811666666668,-80.77,-81.13
1733038019116757963,1733038019116364002,9,0.71,-0.87,0.61,12.401303666666665,-80.92,-81.24
1733038019216702903,1733038019216342449,9,0.71,-0.87,0.61,12.420065333333334,-80.91,-81.05
1733038019316668309,1733038019316431522,9,0.71,-0.87,0.61,12.438826999999998,-80.44,-80.91
1733038019416476527,1733038019416262626,9,0.71,-0.87,0.61,12.451335,-80.41,-81.14
1733038019516884046,1733038019516289234,9,0.71,-0.87,0.61,12.445081000000002,-80.69,-81.08
1733038019617456360,1733038019616531610,9,0.71,-0.87,0.61,12.457588333333334,-80.69,-81.64
1733038019716671480,1733038019716561555,9,0.71,-0.87,0.61,12.457588333333334,-80.56,-80.81
1733038019816486540,1733038019816277265,9,0.71,-0.87,0.61,12.470095666666667,-80.74,-81.89
1733038019917100611,1733038019916649818,9,0.71,-0.87,0.61,12.463842333333334,-80.78,-80.99
1733038020016402568,1733038020016121625,9,0.71,-0.87,0.61,12.457588333333334,-80.71,-80.93
1733038020148270157,1733038020148066997,9,0.71,-0.87,0.61,12.426319333333334,-80.46,-80.75
1733038020218209467,1733038020217988252,9,0.71,-0.87,0.61,12.345019666666666,-80.58,-80.75
1733038020318364566,1733038020318251609,9,0.71,-0.87,0.61,12.307497,-80.59,-81.35
1733038020419331326,1733038020419203519,9,0.71,-0.87,0.61,12.301243,-81.05,-81.18
1733038020518603444,1733038020518411874,9,0.71,-0.87,0.61,12.276227666666665,-81.04,-81.16
1733038020615680676,1733038020615215301,9,0.71,-0.87,0.61,12.238704666666669,-80.91,-82.01
1733038020716132267,1733038020715197324,9,0.71,-0.87,0.61,12.169913000000001,-81.13,-81.59
1733038020816589006,1733038020816403150,9,0.71,-0.87,0.61,12.132390333333333,-80.95,-81.28
1733038020916709877,1733038020916610002,9,0.71,-0.87,0.61,12.094867333333333,-81.05,-80.95
1733038021517991650,1733038021517588376,9,0.71,-0.87,0.61,11.813445999999999,-80.67,-81.68
1733038021616699036,1733038021616437435,9,0.71,-0.87,0.61,11.750908,-80.99,-81.6
1733038021716631487,1733038021716391563,9,0.71,-0.87,0.61,11.700877333333333,-80.78,-81.81
1733038021815509064,1733038021815283775,9,0.71,-0.87,0.61,11.625831333333332,-81.01,-82.19
1733038021917288739,1733038021917095422,9,0.71,-0.87,0.61,11.519516666666666,-80.95,-81.16
1733038022017844734,1733038022017650127,9,0.71,-0.87,0.61,11.425709666666668,-80.96,-81.04
1733038022117733011,1733038022117378234,9,0.71,-0.87,0.61,11.338156666666668,-81.76,-82.18
1733038022217431687,1733038022217178344,9,0.71,-0.87,0.61,11.263110666666668,-82.08,-82.07
1733038022317528956,1733038022317233085,9,0.71,-0.87,0.61,11.194319,-81.44,-81.13
1733038022417353689,1733038022417127132,9,0.71,-0.87,0.61,11.106765666666666,-81.58,-81.36
1733038022517426835,1733038022517098426,9,0.71,-0.87,0.61,11.019212333333334,-82.31,-82.53
1733038022617766813,1733038022617488622,9,0.71,-0.87,0.61,10.912897666666666,-81.79,-81.66
1733038022717797742,1733038022717588186,9,0.71,-0.87,0.61,10.831598,-81.94,-83.37
1733038022817134265,1733038022817036628,9,0.71,-0.87,0.61,10.744045,-82.41,-82.11
1733038022917470990,1733038022917373180,9,0.71,-0.87,0.61,10.662745000000001,-82.62,-82.86
1733038023017608900,1733038023017480850,9,0.71,-0.87,0.61,10.587699333333335,-82.4,-81.97
1733038023117830797,1733038023117465257,9,0.71,-0.87,0.61,10.506399333333333,-83.25,-85.19
1733038023217402465,1733038023217248678,9,0.71,-0.87,0.61,10.412592666666667,-82.21,-82.72
1733038023318330439,1733038023317557096,9,0.71,-0.87,0.61,10.312532,-81.85,-81.67
1733038023417341578,1733038023417197465,9,0.71,-0.87,0.61,10.231232666666665,-81.4,-81.72
1733038023516867712,1733038023516619920,9,0.71,-0.87,0.61,10.137425333333333,-81.6,-82.03
1733038023616479971,1733038023616384983,9,0.71,-0.87,0.61,10.037364333333334,-81.07,-81.18
1733038023717876199,1733038023717452049,9,0.71,-0.87,0.61,9.906034333333332,-80.98,-81.39
1733038023815506744,1733038023815228700,9,0.71,-0.87,0.61,9.793465666666668,-80.72,-80.93
1733038023915617806,1733038023915178775,9,0.71,-0.87,0.61,9.668389333333334,-80.71,-81.26
1733038024015633701,1733038024015186786,9,0.71,-0.87,0.61,9.549566999999998,-80.57,-81.09
1733038024115851386,1733038024115281581,9,0.71,-0.87,0.61,9.443252333333334,-80.11,-80.67
1733038024215680091,1733038024215216398,9,0.71,-0.87,0.61,9.336937666666666,-80.04,-81.32
1733038024315685502,1733038024315251827,9,0.71,-0.87,0.61,9.236876666666667,-80.0,-81.3
1733038024415698459,1733038024415210485,9,0.71,-0.87,0.61,9.118054333333333,-79.85,-80.83
1733038024515543836,1733038024515200853,9,0.71,-0.87,0.61,9.011739666666665,-79.9,-81.2
1733038024615680741,1733038024615201711,9,0.71,-0.87,0.61,8.917932666666665,-79.97,-81.05
1733038024715665286,1733038024715192079,9,0.71,-0.87,0.61,8.824125333333333,-79.6,-80.51
1733038024815766716,1733038024815198421,9,0.71,-0.87,0.61,8.705303,-79.72,-80.42
1733038024915565038,1733038024915199995,9,0.71,-0.87,0.61,8.586480666666667,-79.94,-80.83
1733038025317004643,1733038025316611528,9,0.71,-0.87,0.61,8.129952,-80.81,-81.56
1733038025418631580,1733038025418240070,9,0.71,-0.87,0.61,8.042398666666665,-84.75,-86.9
1733038025517570508,1733038025517409086,9,0.71,-0.87,0.61,7.923576,-80.36,-81.42
1733038025617772520,1733038025617592811,9,0.71,-0.87,0.61,7.642154666666666,-80.54,-80.78
1733038025715676623,1733038025715229272,9,0.71,-0.87,0.61,7.542094,-81.66,-81.89
1733038025815572413,1733038025815208435,9,0.71,-0.87,0.61,7.4357793333333335,-81.94,-81.67
1733038025915908300,1733038025915220260,9,0.71,-0.87,0.61,7.310702999999999,-81.21,-81.67
1733038026017612735,1733038026017459869,9,0.71,-0.87,0.61,7.179372666666667,-80.57,-81.0
1733038026118200142,1733038026117308378,9,0.71,-0.87,0.61,7.060550333333333,-80.51,-81.54
1733038026217665544,1733038026217493772,9,0.71,-0.87,0.61,6.9479820000000005,-79.92,-80.55
1733038026317646084,1733038026317488908,9,0.71,-0.87,0.61,6.829159999999999,-79.76,-80.63
1733038026416521572,1733038026416278362,9,0.71,-0.87,0.61,6.710337666666667,-79.63,-80.85
1733038026516700324,1733038026516437053,9,0.71,-0.87,0.61,6.5852613333333325,-79.68,-80.55
1733038026617348951,1733038026617123842,9,0.71,-0.87,0.61,6.453931333333333,-79.65,-80.8
1733038026718154068,1733038026717979669,9,0.71,-0.87,0.61,6.316347333333333,-80.05,-81.12
1733038026818041328,1733038026817814350,9,0.71,-0.87,0.61,6.203778666666667,-79.74,-80.92
1733038026917869352,1733038026917796373,9,0.71,-0.87,0.61,6.084956000000001,-80.11,-80.57
1733038027018121402,1733038027018003940,9,0.71,-0.87,0.61,5.953626,-80.45,-80.68
1733038027117484805,1733038027117225170,9,0.71,-0.87,0.61,5.822296000000001,-81.19,-81.08
1733038027217366319,1733038027217179059,9,0.71,-0.87,0.61,5.7034736666666666,-80.96,-81.42
1733038027317832719,1733038027317549467,9,0.71,-0.87,0.61,5.603412666666667,-80.13,-81.01
1733038027417574066,1733038027417322397,9,0.71,-0.87,0.61,5.509605666666666,-79.55,-80.75
1733038027517606293,1733038027517335414,9,0.71,-0.87,0.61,5.428306333333334,-79.0,-80.59
1733038027617849277,1733038027617701053,9,0.71,-0.87,0.61,5.309484,-79.15,-81.09
1733038027718194751,1733038027717948675,9,0.71,-0.87,0.61,5.159392666666666,-79.01,-80.97
1733038027817790027,1733038027817727804,9,0.71,-0.87,0.61,5.015555,-78.91,-80.49
1733038027918547985,1733038027918310642,9,0.71,-0.87,0.61,4.890479,-79.03,-80.75
1733038028018538405,1733038028018275737,9,0.71,-0.87,0.61,4.790418,-79.53,-82.04
1733038028118121159,1733038028117965936,9,0.71,-0.87,0.61,4.659088,-79.34,-82.22
1733038028218026306,1733038028217840671,9,0.71,-0.87,0.61,4.546519333333333,-79.23,-82.31
1733038028318225133,1733038028318035364,9,0.71,-0.87,0.61,4.440204666666667,-78.79,-80.9
1733038028417747862,1733038028417602539,9,0.71,-0.87,0.61,4.340143666666667,-78.73,-80.87
1733038028518341386,1733038028517983913,9,0.71,-0.87,0.61,4.221321333333333,-78.68,-80.56
1733038028617953903,1733038028617744922,9,0.71,-0.87,0.61,4.0712296666666665,-79.24,-80.74
1733038028718084849,1733038028717881202,9,0.71,-0.87,0.61,3.939899666666667,-79.38,-81.22
1733038028817855010,1733038028817631721,9,0.71,-0.87,0.61,3.821077333333333,-79.16,-80.72
1733038028918408698,1733038028918338775,9,0.71,-0.87,0.61,3.7210163333333335,-78.8,-80.45
1733038029018103271,1733038029017902374,9,0.71,-0.87,0.61,3.6209553333333333,-78.93,-80.6
1733038029118237876,1733038029118001937,9,0.71,-0.87,0.61,3.5396556666666665,-79.04,-80.86
1733038029218205896,1733038029217983484,9,0.71,-0.87,0.61,3.439595,-78.74,-80.71
1733038029318603157,1733038029318426370,9,0.71,-0.87,0.61,3.3270266666666664,-78.89,-80.66
1733038029418163103,1733038029417880773,9,0.71,-0.87,0.61,3.245727,-78.69,-80.47
1733038029518485488,1733038029518190145,9,0.71,-0.87,0.61,3.1644273333333337,-78.98,-81.0
1733038029618216823,1733038029617982625,9,0.71,-0.87,0.61,3.1269043333333335,-79.23,-80.91
1733038029718121517,1733038029717906951,9,0.71,-0.87,0.61,3.045605,-78.64,-80.58
1733038029818346334,1733038029818019151,9,0.71,-0.87,0.61,3.0205896666666665,-78.67,-80.59
1733038029918068588,1733038029917780160,9,0.71,-0.87,0.61,2.9643053333333333,-79.11,-80.84
1733038030017937234,1733038030017718076,9,0.71,-0.87,0.61,2.9517976666666663,-78.65,-80.6
1733038030148899388,1733038030148729324,9,0.71,-0.87,0.61,2.8955136666666665,-79.04,-81.03
1733038030218342528,1733038030218101263,9,0.71,-0.87,0.61,2.8767523333333336,-78.67,-80.36
1733038030318024181,1733038030317842721,9,0.71,-0.87,0.61,2.8329756666666666,-78.76,-80.5
1733038030418862804,1733038030418553113,9,0.71,-0.87,0.61,2.801706333333333,-78.64,-80.53
1733038030518389082,1733038030518131017,9,0.71,-0.87,0.61,2.757929666666667,-78.83,-80.58
1733038031017491928,1733038031017280340,9,0.71,-0.87,0.61,2.7141533333333334,-78.82,-80.67
1733038031117627846,1733038031117377758,9,0.71,-0.87,0.61,2.7454223333333334,-78.75,-80.64
1733038031217871233,1733038031217602729,9,0.71,-0.87,0.61,2.7766913333333334,-78.59,-80.46
1733038031316732619,1733038031316450595,9,0.71,-0.87,0.61,2.8267216666666664,-78.84,-80.83
1733038031418483769,1733038031418236970,9,0.71,-0.87,0.61,2.883006,-78.96,-80.84
1733038031518176482,1733038031517988681,9,0.71,-0.87,0.61,2.914275,-78.61,-80.89
1733038032115493236,1733038032115218639,9,0.71,-0.87,0.61,3.176935,-79.1,-80.82
1733038032215626704,1733038032215235233,9,0.71,-0.87,0.61,3.276996,-78.94,-80.68
1733038032315513323,1733038032315237998,9,0.71,-0.87,0.61,3.3457876666666664,-78.7,-80.79
1733038032415640961,1733038032415288209,9,0.71,-0.87,0.61,3.4395949999999993,-78.51,-80.64
1733038032515610206,1733038032515274047,9,0.71,-0.87,0.61,3.489625333333333,-79.28,-83.09
1733038032617117312,1733038032616787672,9,0.71,-0.87,0.61,3.5584173333333333,-78.95,-81.88
1733038032716664493,1733038032716571569,9,0.71,-0.87,0.61,3.6147016666666665,-79.09,-80.72
1733038032816580474,1733038032816431522,9,0.71,-0.87,0.61,3.6647323333333333,-78.83,-80.7
1733038032916731337,1733038032916439771,9,0.71,-0.87,0.61,3.7147626666666667,-79.37,-80.87
1733038033018085096,1733038033017945766,9,0.71,-0.87,0.61,3.7960620000000005,-78.67,-80.63
1733038033116616466,1733038033116368055,9,0.71,-0.87,0.61,3.8898689999999996,-78.87,-80.83
1733038033215479521,1733038033215231895,9,0.71,-0.87,0.61,4.027453,-78.84,-80.97
1733038033315676761,1733038033315195560,9,0.71,-0.87,0.61,4.133768,-79.01,-81.49
1733038033418971834,1733038033418701648,9,0.71,-0.87,0.61,4.221321333333333,-80.25,-86.75
1733038033515611547,1733038033515186071,9,0.71,-0.87,0.61,4.308874666666667,-80.4,-82.61
1733038033615788296,1733038033615218877,9,0.71,-0.87,0.61,4.421443,-82.02,-83.01
1733038034318607378,1733038034318406581,9,0.71,-0.87,0.61,5.328245333333333,-80.48,-81.44
1733038034418505767,1733038034418355703,9,0.71,-0.87,0.61,5.340753,-82.46,-87.99
1733038034516851733,1733038034516621351,9,0.71,-0.87,0.61,5.353261,-83.04,-86.64
1733038034615657232,1733038034615249395,9,0.71,-0.87,0.61,5.3219916666666665,-82.24,-83.59
1733038034715731974,1733038034715195417,9,0.71,-0.87,0.61,5.522113333333333,-83.01,-84.47
1733038034815771664,1733038034815203428,9,0.71,-0.87,0.61,5.703473666666667,-82.17,-84.15
1733038034915641151,1733038034915199279,9,0.71,-0.87,0.61,5.834803666666666,-80.99,-81.43
1733038035015744808,1733038035015199899,9,0.71,-0.87,0.61,5.947372333333334,-81.11,-81.46
1733038035115686456,1733038035115231752,9,0.71,-0.87,0.61,6.041179333333333,-81.06,-81.44
1733038035215440218,1733038035215173959,9,0.71,-0.87,0.61,6.228794,-81.09,-81.41
1733038035315758579,1733038035315243482,9,0.71,-0.87,0.61,6.328855,-81.06,-81.99
1733038035415763570,1733038035415255546,9,0.71,-0.87,0.61,6.472692666666667,-80.99,-81.5
1733038035515513169,1733038035515212774,9,0.71,-0.87,0.61,6.5852613333333325,-81.14,-83.14
1733038035615779376,1733038035615253210,9,0.71,-0.87,0.61,6.691576,-82.8,-85.31
1733038035715532187,1733038035715198755,9,0.71,-0.87,0.61,6.766621666666666,-83.23,-86.02
1733038035815654382,1733038035815203428,9,0.71,-0.87,0.61,6.8604286666666665,-82.77,-86.69
1733038035915802821,1733038035915239334,9,0.71,-0.87,0.61,6.979251333333333,-82.16,-83.99
1733038036016675957,1733038036016465902,9,0.71,-0.87,0.61,7.123089,-82.6,-84.01
1733038036117748770,1733038036117522954,9,0.71,-0.87,0.61,7.279434333333334,-82.5,-82.7
1733038036217882191,1733038036217617750,9,0.71,-0.87,0.61,7.423271666666667,-81.24,-81.26
1733038036317330141,1733038036317211627,9,0.71,-0.87,0.61,7.5733630000000005,-80.99,-81.07
1733038036417714707,1733038036417526245,9,0.71,-0.87,0.61,7.679677666666667,-80.93,-81.86
1733038036517216512,1733038036517089843,9,0.71,-0.87,0.61,7.811007666666666,-80.96,-82.65
1733038036617284448,1733038036617210626,9,0.71,-0.87,0.61,7.917322333333334,-81.19,-81.87
1733038036717589501,1733038036717367649,9,0.71,-0.87,0.61,8.06116,-81.96,-82.23
1733038036817510002,1733038036816371202,9,0.71,-0.87,0.61,8.173729,-82.74,-83.72
1733038036916725572,1733038036916235923,9,0.71,-0.87,0.61,8.311313,-83.27,-83.44
1733038037017617682,1733038037016404390,9,0.71,-0.87,0.61,8.430135666666667,-83.36,-84.59
1733038037115571383,1733038037115208864,9,0.71,-0.87,0.61,8.567719333333335,-82.58,-82.92
1733038037216702442,1733038037216457128,9,0.71,-0.87,0.61,8.699049333333333,-83.54,-85.02
1733038037316483068,1733038037316316366,9,0.71,-0.87,0.61,8.830379,-83.67,-84.24
1733038037416565003,1733038037416328430,9,0.71,-0.87,0.61,8.961709,-84.08,-85.42
1733038037517585709,1733038037517358541,9,0.71,-0.87,0.61,9.086784999999999,-84.04,-86.3
1733038037618342941,1733038037618220329,9,0.71,-0.87,0.61,9.211861333333333,-84.68,-84.71
1733038038217710608,1733038038217611789,9,0.71,-0.87,0.61,10.031110333333332,-86.48,-88.02
