%time,field.header.seq,field.header.stamp,field.header.frame_id,field.status.status,field.status.service,field.latitude,field.longitude,field.altitude,field.position_covariance0,field.position_covariance1,field.position_covariance2,field.position_covariance3,field.position_covariance4,field.position_covariance5,field.position_covariance6,field.position_covariance7,field.position_covariance8,field.position_covariance_type
1733037964798432574,22548,1733037964749961765,gps,2,0,37.555214899999996,127.0451851,49.908,0.00019600000000000002,0.0,0.0,0.0,0.00019600000000000002,0.0,0.0,0.0,0.00028900000000000003,2
1733037964922365571,22549,1733037964874961764,gps,2,0,37.555214899999996,127.04518499999999,49.905,0.00019600000000000002,0.0,0.0,0.0,0.00019600000000000002,0.0,0.0,0.0,0.00028900000000000003,2
1733037965051361236,22550,1733037964999961764,gps,2,0,37.555214899999996,127.0451851,49.908,0.00019600000000000002,0.0,0.0,0.0,0.00019600000000000002,0.0,0.0,0.0,0.00028900000000000003,2
1733037965173501672,22551,1733037965124961763,gps,2,0,37.555214899999996,127.04518499999999,49.905,0.00019600000000000002,0.0,0.0,0.0,0.00019600000000000002,0.0,0.0,0.0,0.00028900000000000003,2
1733037965301410055,22552,1733037965249961762,gps,2,0,37.555214899999996,127.0451851,49.910000000000004,0.00019600000000000002,0.0,0.0,0.0,0.00019600000000000002,0.0,0.0,0.0,0.00028900000000000003,2
1733037965422207965,22553,1733037965374961761,gps,2,0,37.555215,127.04518499999999,49.891,0.00019600000000000002,0.0,0.0,0.0,0.00019600000000000002,0.0,0.0,0.0,0.00028900000000000003,2
1733037965549687192,22554,1733037965499961760,gps,2,0,37.555215,127.0451849,49.877,0.00019600000000000002,0.0,0.0,0.0,0.00019600000000000002,0.0,0.0,0.0,0.00028900000000000003,2
1733037965674652479,22555,1733037965624961760,gps,2,0,37.555214899999996,127.0451849,49.879,0.00019600000000000002,0.0,0.0,0.0,0.00019600000000000002,0.0,0.0,0.0,0.00028900000000000003,2
1733037965798738546,22556,1733037965749961759,gps,2,0,37.555215,127.0451849,49.871,0.00019600000000000002,0.0,0.0,0.0,0.00019600000000000002,0.0,0.0,0.0,0.00028900000000000003,2
1733037965925090711,22557,1733037965874961758,gps,2,0,37.555215,127.0451849,49.865,0.00019600000000000002,0.0,0.0,0.0,0.00019600000000000002,0.0,0.0,0.0,0.00032399999999999996,2
1733037966055568538,22558,1733037965999961758,gps,2,0,37.5552151,127.0451849,49.875,0.00019600000000000002,0.0,0.0,0.0,0.00019600000000000002,0.0,0.0,0.0,0.00032399999999999996,2
1733037966176453192,22559,1733037966124961757,gps,2,0,37.555215,127.0451849,49.874,0.00019600000000000002,0.0,0.0,0.0,0.00019600000000000002,0.0,0.0,0.0,0.00032399999999999996,2
1733037966300347679,22560,1733037966249961756,gps,2,0,37.555215,127.0451849,49.886,0.00019600000000000002,0.0,0.0,0.0,0.00019600000000000002,0.0,0.0,0.0,0.00032399999999999996,2
1733037966435214035,22561,1733037966374961755,gps,2,0,37.555215,127.04518499999999,49.892,0.00019600000000000002,0.0,0.0,0.0,0.00019600000000000002,0.0,0.0,0.0,0.00032399999999999996,2
1733037966548365731,22562,1733037966499961754,gps,2,0,37.5552151,127.0451849,49.9,0.00019600000000000002,0.0,0.0,0.0,0.00019600000000000002,0.0,0.0,0.0,0.00032399999999999996,2
1733037966674568915,22563,1733037966624961754,gps,2,0,37.555214899999996,127.04518499999999,49.910000000000004,0.00019600000000000002,0.0,0.0,0.0,0.00019600000000000002,0.0,0.0,0.0,0.00032399999999999996,2
1733037966797937614,22564,1733037966749961753,gps,2,0,37.555215,127.0451849,49.906,0.00019600000000000002,0.0,0.0,0.0,0.00019600000000000002,0.0,0.0,0.0,0.00032399999999999996,2
1733037966922690794,22565,1733037966874961752,gps,2,0,37.555215,127.04518499999999,49.922000000000004,0.00019600000000000002,0.0,0.0,0.0,0.00019600000000000002,0.0,0.0,0.0,0.00032399999999999996,2
1733037967055158932,22566,1733037966999961752,gps,2,0,37.5552151,127.04518499999999,49.907000000000004,0.00019600000000000002,0.0,0.0,0.0,0.00019600000000000002,0.0,0.0,0.0,0.00032399999999999996,2
1733037967174449981,22567,1733037967124961751,gps,2,0,37.555215,127.0451851,49.925000000000004,0.00019600000000000002,0.0,0.0,0.0,0.00019600000000000002,0.0,0.0,0.0,0.000361,2
1733037967305156207,22568,1733037967249961750,gps,2,0,37.555215,127.04518499999999,49.907000000000004,0.00019600000000000002,0.0,0.0,0.0,0.00019600000000000002,0.0,0.0,0.0,0.00032399999999999996,2
1733037967424278134,22569,1733037967374961749,gps,2,0,37.5552151,127.04518499999999,49.897,0.00019600000000000002,0.0,0.0,0.0,0.00019600000000000002,0.0,0.0,0.0,0.00028900000000000003,2
1733037967549143175,22570,1733037967499961748,gps,2,0,37.555214899999996,127.0451851,49.906,0.00019600000000000002,0.0,0.0,0.0,0.00019600000000000002,0.0,0.0,0.0,0.00028900000000000003,2
1733037967676227940,22571,1733037967624961748,gps,2,0,37.555215,127.0451849,49.883,0.00019600000000000002,0.0,0.0,0.0,0.00019600000000000002,0.0,0.0,0.0,0.00028900000000000003,2
1733037967799490529,22572,1733037967749961747,gps,2,0,37.555215,127.04518499999999,49.885,0.00019600000000000002,0.0,0.0,0.0,0.00019600000000000002,0.0,0.0,0.0,0.00028900000000000003,2
1733037967923567883,22573,1733037967874961746,gps,2,0,37.555214899999996,127.0451849,49.887,0.00019600000000000002,0.0,0.0,0.0,0.00019600000000000002,0.0,0.0,0.0,0.00032399999999999996,2
1733037968052004697,22574,1733037967999961746,gps,2,0,37.555214899999996,127.0451851,49.889,0.00019600000000000002,0.0,0.0,0.0,0.00019600000000000002,0.0,0.0,0.0,0.00032399999999999996,2
1733037968170271230,22575,1733037968124961745,gps,2,0,37.555214899999996,127.04518499999999,49.882,0.00019600000000000002,0.0,0.0,0.0,0.00019600000000000002,0.0,0.0,0.0,0.000361,2
1733037968300223905,22576,1733037968249961744,gps,2,0,37.5552148,127.04518499999999,49.897,0.00019600000000000002,0.0,0.0,0.0,0.00019600000000000002,0.0,0.0,0.0,0.000361,2
1733037968431717080,22577,1733037968374961743,gps,2,0,37.555214899999996,127.04518499999999,49.892,0.00019600000000000002,0.0,0.0,0.0,0.00019600000000000002,0.0,0.0,0.0,0.00032399999999999996,2
1733037968551303467,22578,1733037968499961742,gps,2,0,37.555214899999996,127.04518499999999,49.916000000000004,0.00019600000000000002,0.0,0.0,0.0,0.00019600000000000002,0.0,0.0,0.0,0.000361,2
1733037968676712958,22579,1733037968624961741,gps,2,0,37.555214899999996,127.0451851,49.911,0.00019600000000000002,0.0,0.0,0.0,0.00019600000000000002,0.0,0.0,0.0,0.00032399999999999996,2
1733037968799411947,22580,1733037968749961741,gps,2,0,37.555214899999996,127.0451851,49.906,0.00019600000000000002,0.0,0.0,0.0,0.00019600000000000002,0.0,0.0,0.0,0.00032399999999999996,2
1733037968923926618,22581,1733037968874961740,gps,2,0,37.555214899999996,127.0451851,49.915,0.00019600000000000002,0.0,0.0,0.0,0.00019600000000000002,0.0,0.0,0.0,0.00032399999999999996,2
1733037969049288648,22582,1733037968999961740,gps,2,0,37.555214899999996,127.0451851,49.914,0.00019600000000000002,0.0,0.0,0.0,0.00019600000000000002,0.0,0.0,0.0,0.00032399999999999996,2
1733037969175418413,22583,1733037969124961738,gps,2,0,37.555215,127.04518499999999,49.9,0.00019600000000000002,0.0,0.0,0.0,0.00019600000000000002,0.0,0.0,0.0,0.00032399999999999996,2
1733037969300497145,22584,1733037969249961738,gps,2,0,37.555214899999996,127.0451851,49.903,0.00019600000000000002,0.0,0.0,0.0,0.00019600000000000002,0.0,0.0,0.0,0.00032399999999999996,2
1733037969429240808,22585,1733037969374961737,gps,2,0,37.555214899999996,127.04518499999999,49.905,0.00019600000000000002,0.0,0.0,0.0,0.00019600000000000002,0.0,0.0,0.0,0.00032399999999999996,2
1733037969549445259,22586,1733037969499961736,gps,2,0,37.555215,127.04518499999999,49.899,0.00019600000000000002,0.0,0.0,0.0,0.00019600000000000002,0.0,0.0,0.0,0.00032399999999999996,2
1733037969674559283,22587,1733037969624961735,gps,2,0,37.555215,127.0451851,49.914,0.00019600000000000002,0.0,0.0,0.0,0.00019600000000000002,0.0,0.0,0.0,0.00032399999999999996,2
1733037969798676271,22588,1733037969749961735,gps,2,0,37.555215,127.0451851,49.911,0.00019600000000000002,0.0,0.0,0.0,0.00019600000000000002,0.0,0.0,0.0,0.00032399999999999996,2
1733037969920301842,22589,1733037969874961734,gps,2,0,37.555214899999996,127.0451851,49.93,0.00019600000000000002,0.0,0.0,0.0,0.00019600000000000002,0.0,0.0,0.0,0.00032399999999999996,2
1733037970052328675,22590,1733037969999961734,gps,2,0,37.555214899999996,127.04518499999999,49.911,0.00019600000000000002,0.0,0.0,0.0,0.00019600000000000002,0.0,0.0,0.0,0.00032399999999999996,2
1733037970176205027,22591,1733037970124961732,gps,2,0,37.555215,127.04518499999999,49.903,0.00019600000000000002,0.0,0.0,0.0,0.00019600000000000002,0.0,0.0,0.0,0.00032399999999999996,2
1733037970307192448,22592,1733037970249961732,gps,2,0,37.555215,127.04518499999999,49.896,0.00019600000000000002,0.0,0.0,0.0,0.00019600000000000002,0.0,0.0,0.0,0.00032399999999999996,2
1733037970424932420,22593,1733037970374961731,gps,2,0,37.555214899999996,127.04518499999999,49.904,0.00019600000000000002,0.0,0.0,0.0,0.00019600000000000002,0.0,0.0,0.0,0.000361,2
1733037970549460264,22594,1733037970499961730,gps,2,0,37.555215,127.04518499999999,49.910000000000004,0.00019600000000000002,0.0,0.0,0.0,0.00019600000000000002,0.0,0.0,0.0,0.000361,2
1733037970678447962,22595,1733037970624961729,gps,2,0,37.555214899999996,127.0451851,49.933,0.00019600000000000002,0.0,0.0,0.0,0.00019600000000000002,0.0,0.0,0.0,0.000361,2
1733037970799471448,22596,1733037970749961728,gps,2,0,37.555214899999996,127.0451851,49.926,0.00019600000000000002,0.0,0.0,0.0,0.00019600000000000002,0.0,0.0,0.0,0.000361,2
1733037970924677403,22597,1733037970874961728,gps,2,0,37.555214899999996,127.0451851,49.93,0.00019600000000000002,0.0,0.0,0.0,0.00019600000000000002,0.0,0.0,0.0,0.000361,2
1733037971053521768,22598,1733037970999961728,gps,2,0,37.555214899999996,127.0451851,49.936,0.00019600000000000002,0.0,0.0,0.0,0.00019600000000000002,0.0,0.0,0.0,0.000361,2
1733037971175001391,22599,1733037971124961726,gps,2,0,37.555214899999996,127.0451851,49.929,0.00019600000000000002,0.0,0.0,0.0,0.00019600000000000002,0.0,0.0,0.0,0.000361,2
1733037971301327560,22600,1733037971249961725,gps,2,0,37.555214899999996,127.0451851,49.917,0.00019600000000000002,0.0,0.0,0.0,0.00019600000000000002,0.0,0.0,0.0,0.000361,2
1733037971424989608,22601,1733037971374961725,gps,2,0,37.555214899999996,127.0451851,49.926,0.00019600000000000002,0.0,0.0,0.0,0.00019600000000000002,0.0,0.0,0.0,0.000361,2
1733037971549184783,22602,1733037971499961724,gps,2,0,37.555214899999996,127.0451851,49.931000000000004,0.00019600000000000002,0.0,0.0,0.0,0.00019600000000000002,0.0,0.0,0.0,0.000361,2
1733037971674395635,22603,1733037971624961723,gps,2,0,37.5552148,127.0451851,49.924,0.00019600000000000002,0.0,0.0,0.0,0.00019600000000000002,0.0,0.0,0.0,0.000361,2
1733037971795406554,22604,1733037971749961722,gps,2,0,37.5552148,127.0451851,49.924,0.00019600000000000002,0.0,0.0,0.0,0.00019600000000000002,0.0,0.0,0.0,0.0004,2
1733037971922494676,22605,1733037971874961722,gps,2,0,37.555214899999996,127.0451851,49.92,0.00019600000000000002,0.0,0.0,0.0,0.00019600000000000002,0.0,0.0,0.0,0.000361,2
1733037972052551391,22606,1733037971999961722,gps,2,0,37.5552148,127.04518499999999,49.914,0.00019600000000000002,0.0,0.0,0.0,0.00019600000000000002,0.0,0.0,0.0,0.000361,2
1733037972175623966,22607,1733037972124961720,gps,2,0,37.555214899999996,127.04518499999999,49.910000000000004,0.00019600000000000002,0.0,0.0,0.0,0.00019600000000000002,0.0,0.0,0.0,0.0004,2
1733037972301492861,22608,1733037972249961719,gps,2,0,37.555214899999996,127.0451851,49.921,0.00019600000000000002,0.0,0.0,0.0,0.00019600000000000002,0.0,0.0,0.0,0.0004,2
1733037972430609349,22609,1733037972374961719,gps,2,0,37.5552148,127.0451851,49.924,0.00019600000000000002,0.0,0.0,0.0,0.00019600000000000002,0.0,0.0,0.0,0.0004,2
1733037972548643769,22610,1733037972499961718,gps,2,0,37.5552148,127.04518519999999,49.933,0.00019600000000000002,0.0,0.0,0.0,0.00019600000000000002,0.0,0.0,0.0,0.00044100000000000004,2
1733037972670625066,22611,1733037972624961717,gps,2,0,37.5552148,127.04518519999999,49.934,0.00019600000000000002,0.0,0.0,0.0,0.00019600000000000002,0.0,0.0,0.0,0.00044100000000000004,2
1733037972797368882,22612,1733037972749961716,gps,2,0,37.5552148,127.0451854,49.914,0.00019600000000000002,0.0,0.0,0.0,0.00019600000000000002,0.0,0.0,0.0,0.00044100000000000004,2
1733037972924102049,22613,1733037972874961715,gps,2,0,37.5552147,127.04518569999999,49.911,0.00019600000000000002,0.0,0.0,0.0,0.00019600000000000002,0.0,0.0,0.0,0.00044100000000000004,2
1733037973052438070,22614,1733037972999961716,gps,2,0,37.5552146,127.04518619999999,49.903,0.00019600000000000002,0.0,0.0,0.0,0.00019600000000000002,0.0,0.0,0.0,0.00044100000000000004,2
1733037973175905509,22615,1733037973124961714,gps,2,0,37.5552144,127.04518669999999,49.927,0.00019600000000000002,0.0,0.0,0.0,0.00019600000000000002,0.0,0.0,0.0,0.00044100000000000004,2
1733037973305649105,22616,1733037973249961713,gps,2,0,37.5552142,127.0451872,49.934,0.00019600000000000002,0.0,0.0,0.0,0.00019600000000000002,0.0,0.0,0.0,0.00044100000000000004,2
1733037973424863795,22617,1733037973374961712,gps,2,0,37.5552141,127.0451878,49.924,0.00019600000000000002,0.0,0.0,0.0,0.00019600000000000002,0.0,0.0,0.0,0.00044100000000000004,2
1733037973545459843,22618,1733037973499961711,gps,2,0,37.5552139,127.0451885,49.928000000000004,0.00019600000000000002,0.0,0.0,0.0,0.00019600000000000002,0.0,0.0,0.0,0.0004,2
1733037973674504872,22619,1733037973624961711,gps,2,0,37.555213699999996,127.04518909999999,49.935,0.00019600000000000002,0.0,0.0,0.0,0.00019600000000000002,0.0,0.0,0.0,0.00048399999999999995,2
1733037973797949088,22620,1733037973749961710,gps,2,0,37.5552135,127.0451899,49.935,0.00019600000000000002,0.0,0.0,0.0,0.00019600000000000002,0.0,0.0,0.0,0.00048399999999999995,2
1733037973923482129,22621,1733037973874961709,gps,2,0,37.5552134,127.04519069999999,49.934,0.00019600000000000002,0.0,0.0,0.0,0.00019600000000000002,0.0,0.0,0.0,0.000529,2
1733037974053791748,22622,1733037973999961709,gps,2,0,37.555213099999996,127.04519149999999,49.929,0.00019600000000000002,0.0,0.0,0.0,0.00019600000000000002,0.0,0.0,0.0,0.000529,2
1733037974175207311,22623,1733037974124961707,gps,2,0,37.5552128,127.0451925,49.945,0.00019600000000000002,0.0,0.0,0.0,0.00019600000000000002,0.0,0.0,0.0,0.00048399999999999995,2
1733037974300778083,22624,1733037974249961707,gps,2,0,37.5552126,127.04519339999999,49.944,0.00019600000000000002,0.0,0.0,0.0,0.00019600000000000002,0.0,0.0,0.0,0.000529,2
1733037974422072581,22625,1733037974374961706,gps,2,0,37.5552123,127.0451944,49.962,0.00019600000000000002,0.0,0.0,0.0,0.00019600000000000002,0.0,0.0,0.0,0.000529,2
1733037974549968342,22626,1733037974499961705,gps,2,0,37.555211899999996,127.0451956,49.956,0.00019600000000000002,0.0,0.0,0.0,0.00019600000000000002,0.0,0.0,0.0,0.000576,2
1733037974675440543,22627,1733037974624961704,gps,2,0,37.5552117,127.04519649999999,49.93,0.00019600000000000002,0.0,0.0,0.0,0.00019600000000000002,0.0,0.0,0.0,0.000576,2
1733037974797853231,22628,1733037974749961703,gps,2,0,37.5552114,127.0451976,49.937,0.00019600000000000002,0.0,0.0,0.0,0.00019600000000000002,0.0,0.0,0.0,0.000576,2
1733037974921769085,22629,1733037974874961703,gps,2,0,37.5552111,127.0451987,49.94,0.00019600000000000002,0.0,0.0,0.0,0.00019600000000000002,0.0,0.0,0.0,0.000576,2
1733037975052562583,22630,1733037974999961703,gps,2,0,37.555210699999996,127.0451999,49.944,0.00019600000000000002,0.0,0.0,0.0,0.00019600000000000002,0.0,0.0,0.0,0.000576,2
1733037975174230664,22631,1733037975124961701,gps,2,0,37.5552104,127.0452011,49.931000000000004,0.00019600000000000002,0.0,0.0,0.0,0.00019600000000000002,0.0,0.0,0.0,0.000576,2
1733037975299341868,22632,1733037975249961700,gps,2,0,37.555209999999995,127.0452024,49.937,0.00019600000000000002,0.0,0.0,0.0,0.00019600000000000002,0.0,0.0,0.0,0.000576,2
1733037975429388814,22633,1733037975374961699,gps,2,0,37.5552097,127.0452036,49.932,0.00019600000000000002,0.0,0.0,0.0,0.00019600000000000002,0.0,0.0,0.0,0.000529,2
1733037975548011218,22634,1733037975499961699,gps,2,0,37.5552092,127.04520489999999,49.954,0.00019600000000000002,0.0,0.0,0.0,0.00019600000000000002,0.0,0.0,0.0,0.00048399999999999995,2
1733037975674276783,22635,1733037975624961698,gps,2,0,37.555208799999996,127.04520629999999,49.945,0.00019600000000000002,0.0,0.0,0.0,0.00019600000000000002,0.0,0.0,0.0,0.00048399999999999995,2
1733037975797347314,22636,1733037975749961697,gps,2,0,37.5552085,127.0452076,49.934,0.00019600000000000002,0.0,0.0,0.0,0.00019600000000000002,0.0,0.0,0.0,0.00048399999999999995,2
1733037975921987146,22637,1733037975874961696,gps,2,0,37.555208,127.045209,49.94,0.00019600000000000002,0.0,0.0,0.0,0.00019600000000000002,0.0,0.0,0.0,0.00048399999999999995,2
1733037976051724429,22638,1733037975999961696,gps,2,0,37.5552077,127.04521039999999,49.939,0.00019600000000000002,0.0,0.0,0.0,0.00019600000000000002,0.0,0.0,0.0,0.00048399999999999995,2
1733037976174978362,22639,1733037976124961695,gps,2,0,37.5552073,127.04521179999999,49.93,0.00019600000000000002,0.0,0.0,0.0,0.00019600000000000002,0.0,0.0,0.0,0.00048399999999999995,2
1733037976297454050,22640,1733037976249961694,gps,2,0,37.5552069,127.0452133,49.919000000000004,0.00019600000000000002,0.0,0.0,0.0,0.00019600000000000002,0.0,0.0,0.0,0.00048399999999999995,2
1733037976424638102,22641,1733037976374961693,gps,2,0,37.5552065,127.04521469999999,49.922000000000004,0.00019600000000000002,0.0,0.0,0.0,0.00019600000000000002,0.0,0.0,0.0,0.00048399999999999995,2
1733037976548533343,22642,1733037976499961692,gps,2,0,37.5552061,127.0452164,49.921,0.00019600000000000002,0.0,0.0,0.0,0.00019600000000000002,0.0,0.0,0.0,0.00048399999999999995,2
1733037976675180418,22643,1733037976624961691,gps,2,0,37.555205699999995,127.0452179,49.926,0.00019600000000000002,0.0,0.0,0.0,0.00019600000000000002,0.0,0.0,0.0,0.000529,2
1733037976799994024,22644,1733037976749961690,gps,2,0,37.555205199999996,127.0452193,49.914,0.00019600000000000002,0.0,0.0,0.0,0.00019600000000000002,0.0,0.0,0.0,0.000529,2
1733037976924816052,22645,1733037976874961690,gps,2,0,37.5552048,127.04522089999999,49.93,0.00019600000000000002,0.0,0.0,0.0,0.00019600000000000002,0.0,0.0,0.0,0.000529,2
1733037977055404962,22646,1733037976999961690,gps,2,0,37.5552043,127.04522259999999,49.928000000000004,0.00019600000000000002,0.0,0.0,0.0,0.00019600000000000002,0.0,0.0,0.0,0.00048399999999999995,2
1733037977171491867,22647,1733037977124961688,gps,2,0,37.555203899999995,127.04522419999999,49.944,0.00019600000000000002,0.0,0.0,0.0,0.00019600000000000002,0.0,0.0,0.0,0.00048399999999999995,2
1733037977301967450,22648,1733037977249961687,gps,2,0,37.555203399999996,127.0452258,49.938,0.00019600000000000002,0.0,0.0,0.0,0.00019600000000000002,0.0,0.0,0.0,0.00048399999999999995,2
1733037977425538741,22649,1733037977374961686,gps,2,0,37.5552029,127.04522739999999,49.939,0.00019600000000000002,0.0,0.0,0.0,0.00019600000000000002,0.0,0.0,0.0,0.00044100000000000004,2
1733037977549580702,22650,1733037977499961685,gps,2,0,37.5552026,127.04522899999999,49.914,0.00019600000000000002,0.0,0.0,0.0,0.00019600000000000002,0.0,0.0,0.0,0.0004,2
1733037977674763544,22651,1733037977624961685,gps,2,0,37.5552023,127.04523069999999,49.897,0.00019600000000000002,0.0,0.0,0.0,0.00019600000000000002,0.0,0.0,0.0,0.0004,2
1733037977798477946,22652,1733037977749961684,gps,2,0,37.5552017,127.0452323,49.912,0.00019600000000000002,0.0,0.0,0.0,0.00019600000000000002,0.0,0.0,0.0,0.0004,2
1733037977923787215,22653,1733037977874961683,gps,2,0,37.5552012,127.04523409999999,49.937,0.00019600000000000002,0.0,0.0,0.0,0.00019600000000000002,0.0,0.0,0.0,0.0004,2
1733037978049418991,22654,1733037977999961683,gps,2,0,37.5552007,127.0452359,49.944,0.00019600000000000002,0.0,0.0,0.0,0.00019600000000000002,0.0,0.0,0.0,0.0004,2
1733037978176235781,22655,1733037978124961681,gps,2,0,37.555200299999996,127.0452375,49.932,0.00019600000000000002,0.0,0.0,0.0,0.00019600000000000002,0.0,0.0,0.0,0.0004,2
1733037978301754594,22656,1733037978249961680,gps,2,0,37.5551998,127.04523929999999,49.938,0.00019600000000000002,0.0,0.0,0.0,0.00019600000000000002,0.0,0.0,0.0,0.0004,2
1733037978430637972,22657,1733037978374961679,gps,2,0,37.5551993,127.04524099999999,49.951,0.00019600000000000002,0.0,0.0,0.0,0.00019600000000000002,0.0,0.0,0.0,0.000361,2
1733037978548233247,22658,1733037978499961679,gps,2,0,37.5551988,127.0452428,49.952,0.00019600000000000002,0.0,0.0,0.0,0.00019600000000000002,0.0,0.0,0.0,0.000361,2
1733037978674474421,22659,1733037978624961678,gps,2,0,37.5551982,127.04524459999999,49.963,0.00019600000000000002,0.0,0.0,0.0,0.00019600000000000002,0.0,0.0,0.0,0.000361,2
1733037978798558378,22660,1733037978749961677,gps,2,0,37.555197799999995,127.04524629999999,49.966,0.00019600000000000002,0.0,0.0,0.0,0.00019600000000000002,0.0,0.0,0.0,0.000361,2
1733037978920984572,22661,1733037978874961676,gps,2,0,37.555197299999996,127.0452481,49.953,0.00019600000000000002,0.0,0.0,0.0,0.00019600000000000002,0.0,0.0,0.0,0.0004,2
1733037979053723941,22662,1733037978999961676,gps,2,0,37.5551968,127.04524989999999,49.949,0.00019600000000000002,0.0,0.0,0.0,0.00019600000000000002,0.0,0.0,0.0,0.0004,2
1733037979177454930,22663,1733037979124961675,gps,2,0,37.5551963,127.0452516,49.961,0.00019600000000000002,0.0,0.0,0.0,0.00019600000000000002,0.0,0.0,0.0,0.0004,2
1733037979308401063,22664,1733037979249961674,gps,2,0,37.5551959,127.04525339999999,49.965,0.00019600000000000002,0.0,0.0,0.0,0.00019600000000000002,0.0,0.0,0.0,0.00044100000000000004,2
1733037979424943392,22665,1733037979374961673,gps,2,0,37.555195399999995,127.04525509999999,49.964,0.00019600000000000002,0.0,0.0,0.0,0.00019600000000000002,0.0,0.0,0.0,0.00044100000000000004,2
1733037979552055538,22666,1733037979499961672,gps,2,0,37.555194799999995,127.0452569,49.961,0.00019600000000000002,0.0,0.0,0.0,0.00019600000000000002,0.0,0.0,0.0,0.00048399999999999995,2
1733037979678566244,22667,1733037979624961671,gps,2,0,37.5551944,127.0452586,49.955,0.00019600000000000002,0.0,0.0,0.0,0.00019600000000000002,0.0,0.0,0.0,0.00048399999999999995,2
1733037979800653260,22668,1733037979749961670,gps,2,0,37.5551939,127.0452603,49.959,0.00019600000000000002,0.0,0.0,0.0,0.00019600000000000002,0.0,0.0,0.0,0.00048399999999999995,2
1733037979926491096,22669,1733037979874961670,gps,2,0,37.5551933,127.04526209999999,49.967,0.00019600000000000002,0.0,0.0,0.0,0.00019600000000000002,0.0,0.0,0.0,0.00048399999999999995,2
1733037980057080214,22670,1733037979999961670,gps,2,0,37.555192999999996,127.0452639,49.961,0.00019600000000000002,0.0,0.0,0.0,0.00019600000000000002,0.0,0.0,0.0,0.00048399999999999995,2
1733037980179390807,22671,1733037980124961668,gps,2,0,37.555192399999996,127.0452656,49.973,0.00019600000000000002,0.0,0.0,0.0,0.00019600000000000002,0.0,0.0,0.0,0.00048399999999999995,2
1733037980304188206,22672,1733037980249961667,gps,2,0,37.5551919,127.0452674,49.980000000000004,0.00019600000000000002,0.0,0.0,0.0,0.00019600000000000002,0.0,0.0,0.0,0.00048399999999999995,2
1733037980431420900,22673,1733037980374961666,gps,2,0,37.5551915,127.0452691,49.969,0.00019600000000000002,0.0,0.0,0.0,0.00019600000000000002,0.0,0.0,0.0,0.00048399999999999995,2
1733037980554140673,22674,1733037980499961666,gps,2,0,37.5551911,127.04527089999999,49.947,0.00019600000000000002,0.0,0.0,0.0,0.00019600000000000002,0.0,0.0,0.0,0.00048399999999999995,2
1733037980679728146,22675,1733037980624961665,gps,2,0,37.555190599999996,127.04527259999999,49.949,0.00019600000000000002,0.0,0.0,0.0,0.00019600000000000002,0.0,0.0,0.0,0.000529,2
1733037980801120567,22676,1733037980749961664,gps,2,0,37.555189999999996,127.04527449999999,49.964,0.00019600000000000002,0.0,0.0,0.0,0.00019600000000000002,0.0,0.0,0.0,0.000529,2
1733037980927042193,22677,1733037980874961663,gps,2,0,37.5551896,127.04527619999999,49.961,0.00019600000000000002,0.0,0.0,0.0,0.00019600000000000002,0.0,0.0,0.0,0.000529,2
1733037981057177354,22678,1733037980999961663,gps,2,0,37.5551891,127.04527789999999,49.945,0.000225,0.0,0.0,0.0,0.000225,0.0,0.0,0.0,0.000576,2
1733037981179240110,22679,1733037981124961662,gps,2,0,37.5551886,127.0452796,49.951,0.00019600000000000002,0.0,0.0,0.0,0.00019600000000000002,0.0,0.0,0.0,0.000529,2
1733037981302813664,22680,1733037981249961661,gps,2,0,37.555188099999995,127.0452814,49.954,0.00019600000000000002,0.0,0.0,0.0,0.00019600000000000002,0.0,0.0,0.0,0.000529,2
1733037981433143480,22681,1733037981374961660,gps,2,0,37.5551877,127.04528309999999,49.949,0.00019600000000000002,0.0,0.0,0.0,0.00019600000000000002,0.0,0.0,0.0,0.00048399999999999995,2
1733037981551716168,22682,1733037981499961659,gps,2,0,37.5551872,127.0452849,49.958,0.00019600000000000002,0.0,0.0,0.0,0.00019600000000000002,0.0,0.0,0.0,0.00048399999999999995,2
1733037981673053345,22683,1733037981624961658,gps,2,0,37.5551868,127.0452866,49.948,0.00019600000000000002,0.0,0.0,0.0,0.00019600000000000002,0.0,0.0,0.0,0.000529,2
1733037981800561824,22684,1733037981749961658,gps,2,0,37.555186299999995,127.0452883,49.945,0.00019600000000000002,0.0,0.0,0.0,0.00019600000000000002,0.0,0.0,0.0,0.000529,2
1733037981925474642,22685,1733037981874961657,gps,2,0,37.5551858,127.04529,49.953,0.00019600000000000002,0.0,0.0,0.0,0.00019600000000000002,0.0,0.0,0.0,0.000529,2
1733037982056302207,22686,1733037981999961657,gps,2,0,37.5551853,127.0452919,49.966,0.00019600000000000002,0.0,0.0,0.0,0.00019600000000000002,0.0,0.0,0.0,0.000529,2
1733037982176638729,22687,1733037982124961655,gps,2,0,37.5551848,127.04529369999999,49.967,0.00019600000000000002,0.0,0.0,0.0,0.00019600000000000002,0.0,0.0,0.0,0.000529,2
1733037982302171200,22688,1733037982249961654,gps,2,0,37.5551843,127.0452955,49.964,0.00019600000000000002,0.0,0.0,0.0,0.00019600000000000002,0.0,0.0,0.0,0.000576,2
1733037982425882960,22689,1733037982374961653,gps,2,0,37.5551838,127.0452972,49.979,0.00019600000000000002,0.0,0.0,0.0,0.00019600000000000002,0.0,0.0,0.0,0.000576,2
1733037982547428541,22690,1733037982499961652,gps,2,0,37.555183299999996,127.0452991,49.978,0.00019600000000000002,0.0,0.0,0.0,0.00019600000000000002,0.0,0.0,0.0,0.000529,2
1733037982676743033,22691,1733037982624961652,gps,2,0,37.5551828,127.0453007,49.97,0.00019600000000000002,0.0,0.0,0.0,0.00019600000000000002,0.0,0.0,0.0,0.000529,2
1733037982800629599,22692,1733037982749961651,gps,2,0,37.5551824,127.04530249999999,49.967,0.00019600000000000002,0.0,0.0,0.0,0.00019600000000000002,0.0,0.0,0.0,0.000529,2
1733037982925298066,22693,1733037982874961650,gps,2,0,37.555181999999995,127.04530419999999,49.972,0.00019600000000000002,0.0,0.0,0.0,0.00019600000000000002,0.0,0.0,0.0,0.000529,2
1733037983053523918,22694,1733037982999961650,gps,2,0,37.555181399999995,127.045306,49.973,0.00019600000000000002,0.0,0.0,0.0,0.00019600000000000002,0.0,0.0,0.0,0.000529,2
1733037983177046905,22695,1733037983124961648,gps,2,0,37.555180899999996,127.04530779999999,49.97,0.00019600000000000002,0.0,0.0,0.0,0.00019600000000000002,0.0,0.0,0.0,0.00048399999999999995,2
1733037983303269793,22696,1733037983249961648,gps,2,0,37.5551806,127.0453096,49.944,0.00019600000000000002,0.0,0.0,0.0,0.00019600000000000002,0.0,0.0,0.0,0.000529,2
1733037983424453186,22697,1733037983374961647,gps,2,0,37.5551801,127.0453113,49.935,0.00019600000000000002,0.0,0.0,0.0,0.00019600000000000002,0.0,0.0,0.0,0.000576,2
1733037983553317931,22698,1733037983499961646,gps,2,0,37.555179599999995,127.0453131,49.918,0.00019600000000000002,0.0,0.0,0.0,0.00019600000000000002,0.0,0.0,0.0,0.000529,2
1733037983677009902,22699,1733037983624961645,gps,2,0,37.5551791,127.0453148,49.932,0.00019600000000000002,0.0,0.0,0.0,0.00019600000000000002,0.0,0.0,0.0,0.000576,2
1733037983801379065,22700,1733037983749961644,gps,2,0,37.5551787,127.0453165,49.939,0.00019600000000000002,0.0,0.0,0.0,0.00019600000000000002,0.0,0.0,0.0,0.000576,2
1733037983925100683,22701,1733037983874961643,gps,2,0,37.5551781,127.04531829999999,49.953,0.00019600000000000002,0.0,0.0,0.0,0.00019600000000000002,0.0,0.0,0.0,0.0006250000000000001,2
1733037984055581645,22702,1733037983999961644,gps,2,0,37.5551777,127.0453201,49.932,0.00019600000000000002,0.0,0.0,0.0,0.00019600000000000002,0.0,0.0,0.0,0.0006250000000000001,2
1733037984176283022,22703,1733037984124961642,gps,2,0,37.5551773,127.04532169999999,49.933,0.00019600000000000002,0.0,0.0,0.0,0.00019600000000000002,0.0,0.0,0.0,0.0006250000000000001,2
1733037984301320640,22704,1733037984249961641,gps,2,0,37.5551767,127.0453235,49.931000000000004,0.00019600000000000002,0.0,0.0,0.0,0.00019600000000000002,0.0,0.0,0.0,0.0006250000000000001,2
1733037984431865566,22705,1733037984374961640,gps,2,0,37.5551762,127.04532529999999,49.939,0.00019600000000000002,0.0,0.0,0.0,0.00019600000000000002,0.0,0.0,0.0,0.0006250000000000001,2
1733037984549947730,22706,1733037984499961639,gps,2,0,37.5551757,127.045327,49.95,0.00019600000000000002,0.0,0.0,0.0,0.00019600000000000002,0.0,0.0,0.0,0.000576,2
1733037984676288240,22707,1733037984624961638,gps,2,0,37.5551752,127.0453288,49.951,0.00019600000000000002,0.0,0.0,0.0,0.00019600000000000002,0.0,0.0,0.0,0.000576,2
1733037984799759363,22708,1733037984749961638,gps,2,0,37.5551746,127.0453306,49.966,0.00019600000000000002,0.0,0.0,0.0,0.00019600000000000002,0.0,0.0,0.0,0.000576,2
1733037984925038651,22709,1733037984874961637,gps,2,0,37.555174199999996,127.04533239999999,49.928000000000004,0.00019600000000000002,0.0,0.0,0.0,0.00019600000000000002,0.0,0.0,0.0,0.000576,2
1733037985054582708,22710,1733037984999961637,gps,2,0,37.555173599999996,127.04533389999999,49.943,0.00019600000000000002,0.0,0.0,0.0,0.00019600000000000002,0.0,0.0,0.0,0.000576,2
1733037985176205643,22711,1733037985124961635,gps,2,0,37.5551731,127.04533579999999,49.929,0.00019600000000000002,0.0,0.0,0.0,0.00019600000000000002,0.0,0.0,0.0,0.000576,2
1733037985299615638,22712,1733037985249961634,gps,2,0,37.5551725,127.04533749999999,49.936,0.00019600000000000002,0.0,0.0,0.0,0.00019600000000000002,0.0,0.0,0.0,0.000576,2
1733037985425282509,22713,1733037985374961634,gps,2,0,37.555172,127.0453393,49.951,0.00019600000000000002,0.0,0.0,0.0,0.00019600000000000002,0.0,0.0,0.0,0.000576,2
1733037985550609116,22714,1733037985499961633,gps,2,0,37.5551715,127.045341,49.947,0.00019600000000000002,0.0,0.0,0.0,0.00019600000000000002,0.0,0.0,0.0,0.000576,2
1733037985677564209,22715,1733037985624961632,gps,2,0,37.555171099999995,127.0453426,49.954,0.00019600000000000002,0.0,0.0,0.0,0.00019600000000000002,0.0,0.0,0.0,0.000576,2
1733037985800886908,22716,1733037985749961631,gps,2,0,37.5551704,127.04534459999999,49.958,0.00019600000000000002,0.0,0.0,0.0,0.00019600000000000002,0.0,0.0,0.0,0.000576,2
1733037985924628863,22717,1733037985874961630,gps,2,0,37.55517,127.04534629999999,49.962,0.00019600000000000002,0.0,0.0,0.0,0.00019600000000000002,0.0,0.0,0.0,0.000576,2
1733037986055285230,22718,1733037985999961630,gps,2,0,37.5551694,127.04534799999999,49.971000000000004,0.00019600000000000002,0.0,0.0,0.0,0.00019600000000000002,0.0,0.0,0.0,0.000529,2
1733037986173520544,22719,1733037986124961629,gps,2,0,37.5551689,127.04534969999999,49.948,0.00019600000000000002,0.0,0.0,0.0,0.00019600000000000002,0.0,0.0,0.0,0.000576,2
1733037986303532449,22720,1733037986249961628,gps,2,0,37.5551685,127.0453514,49.931000000000004,0.00019600000000000002,0.0,0.0,0.0,0.00019600000000000002,0.0,0.0,0.0,0.000576,2
1733037986427241289,22721,1733037986374961627,gps,2,0,37.555167999999995,127.0453531,49.917,0.000225,0.0,0.0,0.0,0.000225,0.0,0.0,0.0,0.000529,2
1733037986552028300,22722,1733037986499961626,gps,2,0,37.5551676,127.045355,49.917,0.000225,0.0,0.0,0.0,0.000225,0.0,0.0,0.0,0.000529,2
1733037986676518308,22723,1733037986624961625,gps,2,0,37.5551671,127.0453565,49.908,0.000225,0.0,0.0,0.0,0.000225,0.0,0.0,0.0,0.000529,2
1733037986800667618,22724,1733037986749961625,gps,2,0,37.5551665,127.0453584,49.92,0.000225,0.0,0.0,0.0,0.000225,0.0,0.0,0.0,0.0006250000000000001,2
1733037986926455439,22725,1733037986874961624,gps,2,0,37.5551661,127.04536019999999,49.926,0.000225,0.0,0.0,0.0,0.000225,0.0,0.0,0.0,0.0006250000000000001,2
1733037987052485714,22726,1733037986999961624,gps,2,0,37.555165699999996,127.0453618,49.914,0.000225,0.0,0.0,0.0,0.000225,0.0,0.0,0.0,0.0006250000000000001,2
1733037987176975831,22727,1733037987124961622,gps,2,0,37.5551653,127.04536359999999,49.909,0.000225,0.0,0.0,0.0,0.000225,0.0,0.0,0.0,0.0006250000000000001,2
1733037987302886452,22728,1733037987249961621,gps,2,0,37.5551648,127.04536549999999,49.922000000000004,0.000225,0.0,0.0,0.0,0.000225,0.0,0.0,0.0,0.0006250000000000001,2
1733037987425860404,22729,1733037987374961621,gps,2,0,37.555164399999995,127.0453673,49.922000000000004,0.000225,0.0,0.0,0.0,0.000225,0.0,0.0,0.0,0.000576,2
1733037987550131350,22730,1733037987499961620,gps,2,0,37.555164,127.045369,49.913000000000004,0.000225,0.0,0.0,0.0,0.000225,0.0,0.0,0.0,0.000576,2
1733037987676028655,22731,1733037987624961619,gps,2,0,37.5551634,127.0453708,49.921,0.000225,0.0,0.0,0.0,0.000225,0.0,0.0,0.0,0.0006250000000000001,2
1733037987799600158,22732,1733037987749961618,gps,2,0,37.5551628,127.0453726,49.928000000000004,0.000225,0.0,0.0,0.0,0.000225,0.0,0.0,0.0,0.0006250000000000001,2
1733037987922213458,22733,1733037987874961617,gps,2,0,37.555162599999996,127.04537429999999,49.923,0.000225,0.0,0.0,0.0,0.000225,0.0,0.0,0.0,0.0006250000000000001,2
1733037988055317021,22734,1733037987999961617,gps,2,0,37.555161999999996,127.04537619999999,49.937,0.000225,0.0,0.0,0.0,0.000225,0.0,0.0,0.0,0.000576,2
1733037988175928836,22735,1733037988124961616,gps,2,0,37.5551615,127.04537789999999,49.922000000000004,0.000225,0.0,0.0,0.0,0.000225,0.0,0.0,0.0,0.0006250000000000001,2
1733037988302906374,22736,1733037988249961615,gps,2,0,37.5551611,127.0453797,49.917,0.000225,0.0,0.0,0.0,0.000225,0.0,0.0,0.0,0.000676,2
1733037988425479077,22737,1733037988374961614,gps,2,0,37.5551607,127.0453814,49.921,0.000225,0.0,0.0,0.0,0.000225,0.0,0.0,0.0,0.0006250000000000001,2
1733037988550636568,22738,1733037988499961613,gps,2,0,37.5551603,127.0453831,49.919000000000004,0.000225,0.0,0.0,0.0,0.000225,0.0,0.0,0.0,0.0006250000000000001,2
1733037988676706517,22739,1733037988624961612,gps,2,0,37.5551597,127.04538489999999,49.924,0.000225,0.0,0.0,0.0,0.000225,0.0,0.0,0.0,0.0006250000000000001,2
1733037988799545952,22740,1733037988749961612,gps,2,0,37.5551593,127.0453866,49.902,0.000225,0.0,0.0,0.0,0.000225,0.0,0.0,0.0,0.0006250000000000001,2
1733037988924080085,22741,1733037988874961611,gps,2,0,37.5551588,127.0453884,49.919000000000004,0.000256,0.0,0.0,0.0,0.000256,0.0,0.0,0.0,0.0006250000000000001,2
1733037989053669487,22742,1733037988999961611,gps,2,0,37.555158399999996,127.04539009999999,49.923,0.000256,0.0,0.0,0.0,0.000256,0.0,0.0,0.0,0.0006250000000000001,2
1733037989175855341,22743,1733037989124961609,gps,2,0,37.555158,127.0453919,49.907000000000004,0.000256,0.0,0.0,0.0,0.000256,0.0,0.0,0.0,0.0006250000000000001,2
1733037989303376973,22744,1733037989249961608,gps,2,0,37.5551574,127.04539369999999,49.898,0.000256,0.0,0.0,0.0,0.000256,0.0,0.0,0.0,0.0006250000000000001,2
1733037989427168460,22745,1733037989374961607,gps,2,0,37.5551569,127.0453955,49.905,0.000256,0.0,0.0,0.0,0.000256,0.0,0.0,0.0,0.0006250000000000001,2
1733037989551934632,22746,1733037989499961607,gps,2,0,37.5551563,127.04539709999999,49.903,0.000256,0.0,0.0,0.0,0.000256,0.0,0.0,0.0,0.0006250000000000001,2
1733037989677100979,22747,1733037989624961606,gps,2,0,37.5551558,127.0453989,49.914,0.000256,0.0,0.0,0.0,0.000256,0.0,0.0,0.0,0.0006250000000000001,2
1733037989799095482,22748,1733037989749961605,gps,2,0,37.5551554,127.04540069999999,49.917,0.000256,0.0,0.0,0.0,0.000256,0.0,0.0,0.0,0.0006250000000000001,2
1733037989925183142,22749,1733037989874961604,gps,2,0,37.5551548,127.0454024,49.909,0.000256,0.0,0.0,0.0,0.000256,0.0,0.0,0.0,0.000676,2
1733037990054693247,22750,1733037989999961604,gps,2,0,37.5551543,127.0454041,49.912,0.000256,0.0,0.0,0.0,0.000256,0.0,0.0,0.0,0.000676,2
1733037990175452022,22751,1733037990124961602,gps,2,0,37.5551538,127.045406,49.925000000000004,0.000256,0.0,0.0,0.0,0.000256,0.0,0.0,0.0,0.000676,2
1733037990300508313,22752,1733037990249961602,gps,2,0,37.5551533,127.04540779999999,49.917,0.000256,0.0,0.0,0.0,0.000256,0.0,0.0,0.0,0.000676,2
1733037990424380414,22753,1733037990374961601,gps,2,0,37.5551527,127.04540929999999,49.924,0.000256,0.0,0.0,0.0,0.000256,0.0,0.0,0.0,0.0006250000000000001,2
1733037990550510111,22754,1733037990499961600,gps,2,0,37.5551521,127.0454111,49.933,0.000256,0.0,0.0,0.0,0.000256,0.0,0.0,0.0,0.0006250000000000001,2
1733037990670539466,22755,1733037990624961599,gps,2,0,37.555151699999996,127.04541289999999,49.908,0.000256,0.0,0.0,0.0,0.000256,0.0,0.0,0.0,0.0006250000000000001,2
1733037990798452730,22756,1733037990749961598,gps,2,0,37.5551512,127.0454146,49.903,0.000256,0.0,0.0,0.0,0.000256,0.0,0.0,0.0,0.000576,2
1733037990924442294,22757,1733037990874961598,gps,2,0,37.5551506,127.0454163,49.901,0.000225,0.0,0.0,0.0,0.000225,0.0,0.0,0.0,0.000576,2
1733037991053896324,22758,1733037990999961598,gps,2,0,37.5551502,127.045418,49.911,0.000256,0.0,0.0,0.0,0.000256,0.0,0.0,0.0,0.0006250000000000001,2
1733037991174006063,22759,1733037991124961596,gps,2,0,37.5551496,127.04541979999999,49.92,0.000256,0.0,0.0,0.0,0.000256,0.0,0.0,0.0,0.0006250000000000001,2
1733037991299970817,22760,1733037991249961595,gps,2,0,37.5551491,127.0454214,49.906,0.000256,0.0,0.0,0.0,0.000256,0.0,0.0,0.0,0.0006250000000000001,2
1733037991423306929,22761,1733037991374961594,gps,2,0,37.555148599999995,127.04542319999999,49.905,0.000256,0.0,0.0,0.0,0.000256,0.0,0.0,0.0,0.0006250000000000001,2
1733037991544493424,22762,1733037991499961594,gps,2,0,37.5551482,127.045425,49.916000000000004,0.000256,0.0,0.0,0.0,0.000256,0.0,0.0,0.0,0.0006250000000000001,2
1733037991674377952,22763,1733037991624961593,gps,2,0,37.5551478,127.0454271,49.906,0.000256,0.0,0.0,0.0,0.000256,0.0,0.0,0.0,0.0006250000000000001,2
1733037991798310927,22764,1733037991749961592,gps,2,0,37.5551472,127.04542889999999,49.913000000000004,0.000256,0.0,0.0,0.0,0.000256,0.0,0.0,0.0,0.0006250000000000001,2
1733037991923108800,22765,1733037991874961591,gps,2,0,37.555146799999996,127.0454305,49.924,0.000256,0.0,0.0,0.0,0.000256,0.0,0.0,0.0,0.0006250000000000001,2
1733037992052058704,22766,1733037991999961591,gps,2,0,37.5551465,127.0454321,49.907000000000004,0.000225,0.0,0.0,0.0,0.000225,0.0,0.0,0.0,0.000576,2
1733037992175647657,22767,1733037992124961590,gps,2,0,37.5551461,127.045434,49.9,0.000225,0.0,0.0,0.0,0.000225,0.0,0.0,0.0,0.000576,2
1733037992300726589,22768,1733037992249961589,gps,2,0,37.5551457,127.04543559999999,49.895,0.000225,0.0,0.0,0.0,0.000225,0.0,0.0,0.0,0.000576,2
1733037992421863731,22769,1733037992374961588,gps,2,0,37.5551453,127.04543729999999,49.905,0.000225,0.0,0.0,0.0,0.000225,0.0,0.0,0.0,0.000576,2
1733037992549121410,22770,1733037992499961587,gps,2,0,37.555144899999995,127.0454388,49.908,0.000225,0.0,0.0,0.0,0.000225,0.0,0.0,0.0,0.000529,2
1733037992674932234,22771,1733037992624961587,gps,2,0,37.5551445,127.0454405,49.903,0.000225,0.0,0.0,0.0,0.000225,0.0,0.0,0.0,0.000529,2
1733037992797681710,22772,1733037992749961586,gps,2,0,37.5551439,127.0454424,49.905,0.000225,0.0,0.0,0.0,0.000225,0.0,0.0,0.0,0.000529,2
1733037992922448928,22773,1733037992874961585,gps,2,0,37.5551435,127.04544419999999,49.901,0.000225,0.0,0.0,0.0,0.000225,0.0,0.0,0.0,0.000576,2
1733037993051849420,22774,1733037992999961585,gps,2,0,37.555143,127.0454458,49.908,0.000225,0.0,0.0,0.0,0.000225,0.0,0.0,0.0,0.000576,2
1733037993174476937,22775,1733037993124961583,gps,2,0,37.555142499999995,127.04544759999999,49.914,0.000225,0.0,0.0,0.0,0.000225,0.0,0.0,0.0,0.000576,2
1733037993299659993,22776,1733037993249961583,gps,2,0,37.555141899999995,127.0454492,49.913000000000004,0.000225,0.0,0.0,0.0,0.000225,0.0,0.0,0.0,0.000576,2
1733037993424494111,22777,1733037993374961582,gps,2,0,37.5551414,127.045451,49.911,0.000225,0.0,0.0,0.0,0.000225,0.0,0.0,0.0,0.000529,2
1733037993548945448,22778,1733037993499961581,gps,2,0,37.5551409,127.0454527,49.913000000000004,0.000225,0.0,0.0,0.0,0.000225,0.0,0.0,0.0,0.000529,2
1733037993673992794,22779,1733037993624961580,gps,2,0,37.5551404,127.0454544,49.908,0.000225,0.0,0.0,0.0,0.000225,0.0,0.0,0.0,0.000529,2
1733037993797678218,22780,1733037993749961580,gps,2,0,37.5551399,127.0454561,49.909,0.000225,0.0,0.0,0.0,0.000225,0.0,0.0,0.0,0.00048399999999999995,2
1733037993924222471,22781,1733037993874961579,gps,2,0,37.5551392,127.04545789999999,49.927,0.00019600000000000002,0.0,0.0,0.0,0.00019600000000000002,0.0,0.0,0.0,0.00044100000000000004,2
1733037994054309310,22782,1733037993999961579,gps,2,0,37.5551386,127.0454597,49.935,0.000225,0.0,0.0,0.0,0.000225,0.0,0.0,0.0,0.00044100000000000004,2
1733037994175188787,22783,1733037994124961577,gps,2,0,37.555138,127.04546149999999,49.921,0.000225,0.0,0.0,0.0,0.000225,0.0,0.0,0.0,0.00044100000000000004,2
1733037994296564032,22784,1733037994249961576,gps,2,0,37.5551375,127.0454632,49.904,0.000225,0.0,0.0,0.0,0.000225,0.0,0.0,0.0,0.00048399999999999995,2
1733037994423332379,22785,1733037994374961576,gps,2,0,37.555136999999995,127.04546479999999,49.911,0.000225,0.0,0.0,0.0,0.000225,0.0,0.0,0.0,0.00044100000000000004,2
1733037994547850569,22786,1733037994499961575,gps,2,0,37.5551363,127.0454666,49.894,0.000225,0.0,0.0,0.0,0.000225,0.0,0.0,0.0,0.0004,2
1733037994673433621,22787,1733037994624961574,gps,2,0,37.5551357,127.0454685,49.902,0.000225,0.0,0.0,0.0,0.000225,0.0,0.0,0.0,0.0004,2
1733037994798154335,22788,1733037994749961573,gps,2,0,37.555135299999996,127.0454702,49.909,0.000225,0.0,0.0,0.0,0.000225,0.0,0.0,0.0,0.0004,2
1733037994923141026,22789,1733037994874961573,gps,2,0,37.555134699999996,127.0454721,49.911,0.000225,0.0,0.0,0.0,0.000225,0.0,0.0,0.0,0.00044100000000000004,2
1733037995051504646,22790,1733037994999961573,gps,2,0,37.5551342,127.045474,49.922000000000004,0.000225,0.0,0.0,0.0,0.000225,0.0,0.0,0.0,0.0004,2
1733037995168741876,22791,1733037995124961571,gps,2,0,37.5551337,127.04547579999999,49.938,0.000225,0.0,0.0,0.0,0.000225,0.0,0.0,0.0,0.00044100000000000004,2
1733037995297422991,22792,1733037995249961570,gps,2,0,37.5551332,127.04547769999999,49.936,0.000225,0.0,0.0,0.0,0.000225,0.0,0.0,0.0,0.00044100000000000004,2
1733037995423463365,22793,1733037995374961570,gps,2,0,37.5551327,127.0454796,49.93,0.000225,0.0,0.0,0.0,0.000225,0.0,0.0,0.0,0.00044100000000000004,2
1733037995547349280,22794,1733037995499961569,gps,2,0,37.5551323,127.0454814,49.92,0.000225,0.0,0.0,0.0,0.000225,0.0,0.0,0.0,0.00044100000000000004,2
1733037995672019576,22795,1733037995624961568,gps,2,0,37.5551319,127.04548299999999,49.916000000000004,0.000225,0.0,0.0,0.0,0.000225,0.0,0.0,0.0,0.00044100000000000004,2
1733037995794595523,22796,1733037995749961567,gps,2,0,37.5551315,127.0454845,49.928000000000004,0.000225,0.0,0.0,0.0,0.000225,0.0,0.0,0.0,0.00044100000000000004,2
1733037995919823669,22797,1733037995874961567,gps,2,0,37.5551312,127.04548589999999,49.926,0.000225,0.0,0.0,0.0,0.000225,0.0,0.0,0.0,0.00044100000000000004,2
1733037996045679749,22798,1733037995999961567,gps,2,0,37.5551308,127.04548709999999,49.911,0.000225,0.0,0.0,0.0,0.000225,0.0,0.0,0.0,0.00048399999999999995,2
1733037996172223377,22799,1733037996124961565,gps,2,0,37.555130399999996,127.0454882,49.932,0.000225,0.0,0.0,0.0,0.000225,0.0,0.0,0.0,0.00044100000000000004,2
1733037996297298102,22800,1733037996249961564,gps,2,0,37.5551303,127.0454891,49.899,0.000225,0.0,0.0,0.0,0.000225,0.0,0.0,0.0,0.00048399999999999995,2
1733037996427497298,22801,1733037996374961564,gps,2,0,37.5551301,127.0454898,49.901,0.000225,0.0,0.0,0.0,0.000225,0.0,0.0,0.0,0.000529,2
1733037996546174945,22802,1733037996499961563,gps,2,0,37.555129799999996,127.0454906,49.935,0.000225,0.0,0.0,0.0,0.000225,0.0,0.0,0.0,0.000529,2
1733037996671240210,22803,1733037996624961562,gps,2,0,37.555129699999995,127.04549109999999,49.936,0.000225,0.0,0.0,0.0,0.000225,0.0,0.0,0.0,0.000529,2
1733037996795301394,22804,1733037996749961561,gps,2,0,37.555129699999995,127.0454917,49.938,0.000225,0.0,0.0,0.0,0.000225,0.0,0.0,0.0,0.000529,2
1733037996918291711,22805,1733037996874961560,gps,2,0,37.5551294,127.0454922,49.945,0.000225,0.0,0.0,0.0,0.000225,0.0,0.0,0.0,0.000529,2
1733037997051095246,22806,1733037996999961560,gps,2,0,37.555129099999995,127.04549279999999,49.964,0.000225,0.0,0.0,0.0,0.000225,0.0,0.0,0.0,0.000529,2
1733037997172396384,22807,1733037997124961559,gps,2,0,37.5551289,127.04549329999999,49.977000000000004,0.000225,0.0,0.0,0.0,0.000225,0.0,0.0,0.0,0.000529,2
1733037997303938932,22808,1733037997249961558,gps,2,0,37.555129,127.0454936,49.985,0.000256,0.0,0.0,0.0,0.000256,0.0,0.0,0.0,0.0006250000000000001,2
1733037997421940657,22809,1733037997374961557,gps,2,0,37.5551289,127.04549399999999,49.961,0.000225,0.0,0.0,0.0,0.000225,0.0,0.0,0.0,0.000576,2
1733037997548234172,22810,1733037997499961556,gps,2,0,37.555129,127.04549429999999,49.945,0.000225,0.0,0.0,0.0,0.000225,0.0,0.0,0.0,0.000529,2
1733037997677027795,22811,1733037997624961555,gps,2,0,37.555129,127.0454944,49.93,0.000225,0.0,0.0,0.0,0.000225,0.0,0.0,0.0,0.000529,2
1733037997798147775,22812,1733037997749961555,gps,2,0,37.555129099999995,127.0454946,49.921,0.000225,0.0,0.0,0.0,0.000225,0.0,0.0,0.0,0.000576,2
1733037997922006900,22813,1733037997874961554,gps,2,0,37.555129199999996,127.0454949,49.924,0.000225,0.0,0.0,0.0,0.000225,0.0,0.0,0.0,0.000576,2
1733037998051518272,22814,1733037997999961554,gps,2,0,37.555129199999996,127.0454951,49.936,0.000225,0.0,0.0,0.0,0.000225,0.0,0.0,0.0,0.000576,2
1733037998172417773,22815,1733037998124961552,gps,2,0,37.5551293,127.0454953,49.94,0.000225,0.0,0.0,0.0,0.000225,0.0,0.0,0.0,0.000576,2
1733037998298101747,22816,1733037998249961551,gps,2,0,37.5551293,127.0454951,49.947,0.000225,0.0,0.0,0.0,0.000225,0.0,0.0,0.0,0.000576,2
1733037998423394062,22817,1733037998374961551,gps,2,0,37.5551293,127.0454951,49.921,0.00019600000000000002,0.0,0.0,0.0,0.00019600000000000002,0.0,0.0,0.0,0.00044100000000000004,2
1733037998548058888,22818,1733037998499961550,gps,2,0,37.555129199999996,127.0454951,49.92,0.00019600000000000002,0.0,0.0,0.0,0.00019600000000000002,0.0,0.0,0.0,0.00044100000000000004,2
1733037998673293805,22819,1733037998624961549,gps,2,0,37.555129199999996,127.0454951,49.922000000000004,0.00019600000000000002,0.0,0.0,0.0,0.00019600000000000002,0.0,0.0,0.0,0.00044100000000000004,2
1733037998796096475,22820,1733037998749961548,gps,2,0,37.555129099999995,127.04549499999999,49.914,0.00019600000000000002,0.0,0.0,0.0,0.00019600000000000002,0.0,0.0,0.0,0.00044100000000000004,2
1733037998922198120,22821,1733037998874961548,gps,2,0,37.555129,127.0454949,49.939,0.00019600000000000002,0.0,0.0,0.0,0.00019600000000000002,0.0,0.0,0.0,0.0004,2
1733037999051770648,22822,1733037998999961548,gps,2,0,37.5551288,127.04549469999999,49.929,0.00019600000000000002,0.0,0.0,0.0,0.00019600000000000002,0.0,0.0,0.0,0.00044100000000000004,2
1733037999175499947,22823,1733037999124961546,gps,2,0,37.555128499999995,127.04549429999999,49.926,0.00019600000000000002,0.0,0.0,0.0,0.00019600000000000002,0.0,0.0,0.0,0.0004,2
1733037999301414133,22824,1733037999249961545,gps,2,0,37.5551281,127.0454942,49.929,0.00019600000000000002,0.0,0.0,0.0,0.00019600000000000002,0.0,0.0,0.0,0.00044100000000000004,2
1733037999426157477,22825,1733037999374961544,gps,2,0,37.555127899999995,127.0454942,49.949,0.00019600000000000002,0.0,0.0,0.0,0.00019600000000000002,0.0,0.0,0.0,0.00032399999999999996,2
1733037999549193197,22826,1733037999499961544,gps,2,0,37.5551276,127.0454936,49.948,0.00019600000000000002,0.0,0.0,0.0,0.00019600000000000002,0.0,0.0,0.0,0.00032399999999999996,2
1733037999672108748,22827,1733037999624961543,gps,2,0,37.555127299999995,127.04549279999999,49.945,0.00019600000000000002,0.0,0.0,0.0,0.00019600000000000002,0.0,0.0,0.0,0.00028900000000000003,2
1733037999798073749,22828,1733037999749961542,gps,2,0,37.5551269,127.0454922,49.953,0.00019600000000000002,0.0,0.0,0.0,0.00019600000000000002,0.0,0.0,0.0,0.00028900000000000003,2
1733037999923416310,22829,1733037999874961541,gps,2,0,37.5551265,127.0454915,49.952,0.00019600000000000002,0.0,0.0,0.0,0.00019600000000000002,0.0,0.0,0.0,0.00028900000000000003,2
1733038000053330750,22830,1733037999999961541,gps,2,0,37.5551262,127.0454908,49.94,0.00019600000000000002,0.0,0.0,0.0,0.00019600000000000002,0.0,0.0,0.0,0.00028900000000000003,2
1733038000174074174,22831,1733038000124961539,gps,2,0,37.5551259,127.04548989999999,49.946,0.00019600000000000002,0.0,0.0,0.0,0.00019600000000000002,0.0,0.0,0.0,0.00028900000000000003,2
1733038000300724672,22832,1733038000249961539,gps,2,0,37.555125499999995,127.0454891,49.944,0.00019600000000000002,0.0,0.0,0.0,0.00019600000000000002,0.0,0.0,0.0,0.000256,2
1733038000423044151,22833,1733038000374961538,gps,2,0,37.5551253,127.0454882,49.938,0.00019600000000000002,0.0,0.0,0.0,0.00019600000000000002,0.0,0.0,0.0,0.00028900000000000003,2
1733038000544608227,22834,1733038000499961537,gps,2,0,37.5551251,127.0454872,49.93,0.00019600000000000002,0.0,0.0,0.0,0.00019600000000000002,0.0,0.0,0.0,0.00032399999999999996,2
1733038000673664635,22835,1733038000624961536,gps,2,0,37.555124899999996,127.04548609999999,49.908,0.00019600000000000002,0.0,0.0,0.0,0.00019600000000000002,0.0,0.0,0.0,0.0004,2
1733038000798183780,22836,1733038000749961535,gps,2,0,37.5551247,127.045485,49.909,0.00019600000000000002,0.0,0.0,0.0,0.00019600000000000002,0.0,0.0,0.0,0.0004,2
1733038000921983432,22837,1733038000874961535,gps,2,0,37.5551244,127.0454838,49.917,0.00019600000000000002,0.0,0.0,0.0,0.00019600000000000002,0.0,0.0,0.0,0.0004,2
1733038001051093946,22838,1733038000999961535,gps,2,0,37.5551241,127.0454826,49.915,0.00019600000000000002,0.0,0.0,0.0,0.00019600000000000002,0.0,0.0,0.0,0.00032399999999999996,2
1733038001173442161,22839,1733038001124961533,gps,2,0,37.555124,127.04548129999999,49.916000000000004,0.00019600000000000002,0.0,0.0,0.0,0.00019600000000000002,0.0,0.0,0.0,0.00044100000000000004,2
1733038001298942693,22840,1733038001249961532,gps,2,0,37.5551236,127.04548,49.922000000000004,0.00019600000000000002,0.0,0.0,0.0,0.00019600000000000002,0.0,0.0,0.0,0.00044100000000000004,2
1733038001421503553,22841,1733038001374961531,gps,2,0,37.5551234,127.04547869999999,49.931000000000004,0.00019600000000000002,0.0,0.0,0.0,0.00019600000000000002,0.0,0.0,0.0,0.0004,2
1733038001547104678,22842,1733038001499961531,gps,2,0,37.5551232,127.0454774,49.92,0.00019600000000000002,0.0,0.0,0.0,0.00019600000000000002,0.0,0.0,0.0,0.00044100000000000004,2
1733038001672055544,22843,1733038001624961530,gps,2,0,37.5551229,127.045476,49.903,0.00019600000000000002,0.0,0.0,0.0,0.00019600000000000002,0.0,0.0,0.0,0.00044100000000000004,2
1733038001796300500,22844,1733038001749961529,gps,2,0,37.5551226,127.0454747,49.919000000000004,0.00019600000000000002,0.0,0.0,0.0,0.00019600000000000002,0.0,0.0,0.0,0.0004,2
1733038001920183043,22845,1733038001874961528,gps,2,0,37.5551223,127.0454731,49.923,0.00019600000000000002,0.0,0.0,0.0,0.00019600000000000002,0.0,0.0,0.0,0.0004,2
1733038002050042313,22846,1733038001999961528,gps,2,0,37.5551222,127.0454717,49.916000000000004,0.000225,0.0,0.0,0.0,0.000225,0.0,0.0,0.0,0.00048399999999999995,2
1733038002173294239,22847,1733038002124961526,gps,2,0,37.555122,127.04547029999999,49.916000000000004,0.000225,0.0,0.0,0.0,0.000225,0.0,0.0,0.0,0.00048399999999999995,2
1733038002297836864,22848,1733038002249961526,gps,2,0,37.555121799999995,127.045469,49.9,0.00019600000000000002,0.0,0.0,0.0,0.00019600000000000002,0.0,0.0,0.0,0.00044100000000000004,2
1733038002422421617,22849,1733038002374961525,gps,2,0,37.5551216,127.0454675,49.884,0.00019600000000000002,0.0,0.0,0.0,0.00019600000000000002,0.0,0.0,0.0,0.00048399999999999995,2
1733038002547033561,22850,1733038002499961524,gps,2,0,37.5551214,127.04546579999999,49.893,0.00019600000000000002,0.0,0.0,0.0,0.00019600000000000002,0.0,0.0,0.0,0.00044100000000000004,2
1733038002672264112,22851,1733038002624961523,gps,2,0,37.555121199999995,127.04546409999999,49.896,0.00019600000000000002,0.0,0.0,0.0,0.00019600000000000002,0.0,0.0,0.0,0.00048399999999999995,2
1733038002796148461,22852,1733038002749961522,gps,2,0,37.555121,127.0454625,49.88,0.000225,0.0,0.0,0.0,0.000225,0.0,0.0,0.0,0.000529,2
1733038002921266153,22853,1733038002874961522,gps,2,0,37.5551208,127.0454609,49.896,0.00019600000000000002,0.0,0.0,0.0,0.00019600000000000002,0.0,0.0,0.0,0.00044100000000000004,2
1733038003051111142,22854,1733038002999961522,gps,2,0,37.555120699999996,127.0454592,49.901,0.00019600000000000002,0.0,0.0,0.0,0.00019600000000000002,0.0,0.0,0.0,0.00044100000000000004,2
1733038003171904404,22855,1733038003124961520,gps,2,0,37.5551204,127.04545759999999,49.88,0.000225,0.0,0.0,0.0,0.000225,0.0,0.0,0.0,0.000576,2
1733038003296332827,22856,1733038003249961519,gps,2,0,37.555120099999996,127.0454559,49.865,0.000256,0.0,0.0,0.0,0.000256,0.0,0.0,0.0,0.000576,2
1733038003422270210,22857,1733038003374961518,gps,2,0,37.5551198,127.04545429999999,49.914,0.00019600000000000002,0.0,0.0,0.0,0.00019600000000000002,0.0,0.0,0.0,0.000576,2
1733038003546534062,22858,1733038003499961517,gps,2,0,37.5551197,127.04545259999999,49.929,0.000225,0.0,0.0,0.0,0.000225,0.0,0.0,0.0,0.0006250000000000001,2
1733038003672375948,22859,1733038003624961516,gps,2,0,37.555119499999996,127.0454508,49.937,0.00019600000000000002,0.0,0.0,0.0,0.00019600000000000002,0.0,0.0,0.0,0.000529,2
1733038003797639345,22860,1733038003749961516,gps,2,0,37.555119399999995,127.0454491,49.951,0.00019600000000000002,0.0,0.0,0.0,0.00019600000000000002,0.0,0.0,0.0,0.00044100000000000004,2
1733038003921167048,22861,1733038003874961515,gps,2,0,37.5551192,127.0454472,49.946,0.00019600000000000002,0.0,0.0,0.0,0.00019600000000000002,0.0,0.0,0.0,0.00044100000000000004,2
1733038004050279034,22862,1733038003999961515,gps,2,0,37.5551191,127.04544539999999,49.954,0.00019600000000000002,0.0,0.0,0.0,0.00019600000000000002,0.0,0.0,0.0,0.00044100000000000004,2
1733038004167812011,22863,1733038004124961513,gps,2,0,37.5551192,127.04544369999999,49.958,0.00019600000000000002,0.0,0.0,0.0,0.00019600000000000002,0.0,0.0,0.0,0.00044100000000000004,2
1733038004297964010,22864,1733038004249961512,gps,2,0,37.5551193,127.045442,49.951,0.000225,0.0,0.0,0.0,0.000225,0.0,0.0,0.0,0.00048399999999999995,2
1733038004423369772,22865,1733038004374961511,gps,2,0,37.5551193,127.04544,49.959,0.00019600000000000002,0.0,0.0,0.0,0.00019600000000000002,0.0,0.0,0.0,0.00044100000000000004,2
1733038004547317486,22866,1733038004499961510,gps,2,0,37.555119499999996,127.04543819999999,49.945,0.000225,0.0,0.0,0.0,0.000225,0.0,0.0,0.0,0.00044100000000000004,2
1733038004671533208,22867,1733038004624961510,gps,2,0,37.555119499999996,127.0454365,49.925000000000004,0.000256,0.0,0.0,0.0,0.000256,0.0,0.0,0.0,0.00044100000000000004,2
1733038004796168254,22868,1733038004749961509,gps,2,0,37.5551196,127.0454346,49.93,0.000225,0.0,0.0,0.0,0.000225,0.0,0.0,0.0,0.00044100000000000004,2
1733038004919969477,22869,1733038004874961508,gps,2,0,37.5551198,127.0454326,49.935,0.000225,0.0,0.0,0.0,0.000225,0.0,0.0,0.0,0.00048399999999999995,2
1733038005046004295,22870,1733038004999961508,gps,2,0,37.5551199,127.04543079999999,49.928000000000004,0.000256,0.0,0.0,0.0,0.000256,0.0,0.0,0.0,0.000529,2
1733038005171922282,22871,1733038005124961506,gps,2,0,37.555120099999996,127.045429,49.926,0.00028900000000000003,0.0,0.0,0.0,0.00028900000000000003,0.0,0.0,0.0,0.000576,2
1733038005297512242,22872,1733038005249961505,gps,2,0,37.5551204,127.04542699999999,49.914,0.00028900000000000003,0.0,0.0,0.0,0.00028900000000000003,0.0,0.0,0.0,0.0006250000000000001,2
1733038005428277506,22873,1733038005374961505,gps,2,0,37.5551204,127.0454252,49.893,0.000256,0.0,0.0,0.0,0.000256,0.0,0.0,0.0,0.0006250000000000001,2
1733038005545469753,22874,1733038005499961504,gps,2,0,37.5551209,127.0454235,49.907000000000004,0.000225,0.0,0.0,0.0,0.000225,0.0,0.0,0.0,0.000529,2
1733038005672702574,22875,1733038005624961503,gps,2,0,37.5551211,127.04542169999999,49.895,0.00019600000000000002,0.0,0.0,0.0,0.00019600000000000002,0.0,0.0,0.0,0.0004,2
1733038005794792126,22876,1733038005749961502,gps,2,0,37.555121199999995,127.04541959999999,49.889,0.00019600000000000002,0.0,0.0,0.0,0.00019600000000000002,0.0,0.0,0.0,0.000361,2
1733038005918680182,22877,1733038005874961501,gps,2,0,37.5551215,127.0454178,49.888,0.00019600000000000002,0.0,0.0,0.0,0.00019600000000000002,0.0,0.0,0.0,0.000361,2
1733038006050498258,22878,1733038005999961501,gps,2,0,37.555121799999995,127.0454159,49.888,0.00019600000000000002,0.0,0.0,0.0,0.00019600000000000002,0.0,0.0,0.0,0.000361,2
1733038006172469310,22879,1733038006124961500,gps,2,0,37.5551222,127.0454139,49.9,0.00019600000000000002,0.0,0.0,0.0,0.00019600000000000002,0.0,0.0,0.0,0.000361,2
1733038006298194263,22880,1733038006249961499,gps,2,0,37.555122499999996,127.045412,49.897,0.00019600000000000002,0.0,0.0,0.0,0.00019600000000000002,0.0,0.0,0.0,0.000361,2
1733038006421918974,22881,1733038006374961498,gps,2,0,37.5551228,127.04540999999999,49.892,0.000225,0.0,0.0,0.0,0.000225,0.0,0.0,0.0,0.00044100000000000004,2
1733038006548897931,22882,1733038006499961497,gps,2,0,37.555123,127.0454082,49.897,0.000225,0.0,0.0,0.0,0.000225,0.0,0.0,0.0,0.000529,2
1733038006674267967,22883,1733038006624961496,gps,2,0,37.5551234,127.0454063,49.910000000000004,0.000225,0.0,0.0,0.0,0.000225,0.0,0.0,0.0,0.00048399999999999995,2
1733038006798400655,22884,1733038006749961496,gps,2,0,37.555123699999996,127.0454043,49.922000000000004,0.000225,0.0,0.0,0.0,0.000225,0.0,0.0,0.0,0.000529,2
1733038006923061745,22885,1733038006874961495,gps,2,0,37.5551241,127.0454022,49.923,0.00028900000000000003,0.0,0.0,0.0,0.00028900000000000003,0.0,0.0,0.0,0.000576,2
1733038007052011350,22886,1733038006999961495,gps,2,0,37.555124299999996,127.04540039999999,49.898,0.00028900000000000003,0.0,0.0,0.0,0.00028900000000000003,0.0,0.0,0.0,0.000576,2
1733038007174399790,22887,1733038007124961493,gps,2,0,37.5551247,127.0453984,49.896,0.000256,0.0,0.0,0.0,0.000256,0.0,0.0,0.0,0.000576,2
1733038007306310546,22888,1733038007249961492,gps,2,0,37.555125,127.04539659999999,49.899,0.000256,0.0,0.0,0.0,0.000256,0.0,0.0,0.0,0.000529,2
1733038007424856540,22889,1733038007374961491,gps,2,0,37.5551253,127.04539469999999,49.892,0.000256,0.0,0.0,0.0,0.000256,0.0,0.0,0.0,0.000576,2
1733038007549304964,22890,1733038007499961490,gps,2,0,37.5551257,127.0453926,49.891,0.000256,0.0,0.0,0.0,0.000256,0.0,0.0,0.0,0.000576,2
1733038007672575586,22891,1733038007624961490,gps,2,0,37.555126099999995,127.04539059999999,49.895,0.000256,0.0,0.0,0.0,0.000256,0.0,0.0,0.0,0.000576,2
1733038007795445703,22892,1733038007749961489,gps,2,0,37.5551264,127.0453886,49.913000000000004,0.000256,0.0,0.0,0.0,0.000256,0.0,0.0,0.0,0.000529,2
1733038007921904890,22893,1733038007874961488,gps,2,0,37.5551265,127.0453867,49.907000000000004,0.000256,0.0,0.0,0.0,0.000256,0.0,0.0,0.0,0.000576,2
1733038008051153493,22894,1733038007999961488,gps,2,0,37.555127,127.0453847,49.886,0.000256,0.0,0.0,0.0,0.000256,0.0,0.0,0.0,0.000576,2
1733038008173509849,22895,1733038008124961486,gps,2,0,37.555127299999995,127.04538269999999,49.924,0.00028900000000000003,0.0,0.0,0.0,0.00028900000000000003,0.0,0.0,0.0,0.000576,2
1733038008299836901,22896,1733038008249961485,gps,2,0,37.555127899999995,127.04538059999999,49.910000000000004,0.00028900000000000003,0.0,0.0,0.0,0.00028900000000000003,0.0,0.0,0.0,0.000576,2
1733038008431206927,22897,1733038008374961485,gps,2,0,37.5551281,127.04537859999999,49.904,0.00032399999999999996,0.0,0.0,0.0,0.00032399999999999996,0.0,0.0,0.0,0.000529,2
1733038008548172348,22898,1733038008499961484,gps,2,0,37.555128599999996,127.0453766,49.936,0.00032399999999999996,0.0,0.0,0.0,0.00032399999999999996,0.0,0.0,0.0,0.000529,2
1733038008669692226,22899,1733038008624961483,gps,2,0,37.5551288,127.0453747,49.929,0.00032399999999999996,0.0,0.0,0.0,0.00032399999999999996,0.0,0.0,0.0,0.000529,2
