%time,field.stamp,field.id,field.x,field.y,field.z,field.distanceFromTag,field.rssi,field.rssi_fp
1730017526477475042,1730017526477153539,9,-1.79,0.87,0.5,5.459575,-78.5,-80.47
1730017526577574117,1730017526577269554,9,-1.79,0.87,0.5,5.465828999999999,-78.67,-81.12
1730017526677871983,1730017526677534580,9,-1.79,0.87,0.5,5.453321333333334,-78.57,-80.45
1730017526777880316,1730017526777682065,9,-1.79,0.87,0.5,5.447067666666666,-78.5,-80.42
1730017526876495093,1730017526876076459,9,-1.79,0.87,0.5,5.447067666666666,-78.67,-80.45
1730017526976569311,1730017526976082324,9,-1.79,0.87,0.5,5.447067666666666,-78.94,-81.19
1730017527076616627,1730017527076090574,9,-1.79,0.87,0.5,5.4595753333333334,-79.03,-81.51
1730017527176528760,1730017527176069259,9,-1.79,0.87,0.5,5.465829,-79.07,-81.4
1730017527276389309,1730017527276065587,9,-1.79,0.87,0.5,5.490844333333334,-78.97,-81.65
1730017527376610877,1730017527376171350,9,-1.79,0.87,0.5,5.484590333333333,-79.16,-81.06
1730017527476571554,1730017527476092338,9,-1.79,0.87,0.5,5.478336666666666,-78.75,-81.38
1730017527576645540,1730017527576097011,9,-1.79,0.87,0.5,5.465829,-78.73,-80.89
1730017527676526266,1730017527676066637,9,-1.79,0.87,0.5,5.465829,-78.69,-80.57
1730017527776708755,1730017527776106834,9,-1.79,0.87,0.5,5.447067333333333,-78.37,-80.68
1730017527876520296,1730017527876075029,9,-1.79,0.87,0.5,5.447067333333333,-78.61,-80.39
1730017527976596652,1730017527976088523,9,-1.79,0.87,0.5,5.440813666666666,-79.17,-81.17
1730017528076546355,1730017528076092004,9,-1.79,0.87,0.5,5.4595753333333334,-79.24,-80.9
1730017528176575477,1730017528176063776,9,-1.79,0.87,0.5,5.4595753333333334,-78.64,-80.54
1730017528279130904,1730017528278979301,9,-1.79,0.87,0.5,5.478336666666667,-78.76,-80.92
1730017528379015559,1730017528378812789,9,-1.79,0.87,0.5,5.465828999999999,-78.82,-81.09
1730017528479449924,1730017528479228019,9,-1.79,0.87,0.5,5.478336666666667,-78.6,-80.72
1730017528579901823,1730017528579501628,9,-1.79,0.87,0.5,5.4595753333333334,-78.61,-80.71
1730017528679360416,1730017528679116010,9,-1.79,0.87,0.5,5.465829,-79.24,-81.17
1730017528779544951,1730017528779229164,9,-1.79,0.87,0.5,5.4595753333333334,-78.89,-80.69
1730017528879522805,1730017528879199743,9,-1.79,0.87,0.5,5.484590666666667,-79.2,-81.35
1730017528976469938,1730017528976072788,9,-1.79,0.87,0.5,5.490844666666667,-78.58,-80.96
1730017529076515181,1730017529076058387,9,-1.79,0.87,0.5,5.478337,-78.71,-80.56
1730017529176572795,1730017529176072359,9,-1.79,0.87,0.5,5.453321666666667,-78.91,-81.03
1730017529278985823,1730017529278832912,9,-1.79,0.87,0.5,5.43456,-79.27,-80.9
1730017529379542396,1730017529379380226,9,-1.79,0.87,0.5,5.440813666666667,-78.97,-80.97
1730017529479339194,1730017529479223251,9,-1.79,0.87,0.5,5.447067333333333,-78.99,-81.1
1730017529576402739,1730017529576074600,9,-1.79,0.87,0.5,5.472082666666666,-78.72,-80.96
1730017529676297081,1730017529676101446,9,-1.79,0.87,0.5,5.4908443333333325,-78.59,-80.83
1730017529777471151,1730017529776063919,9,-1.79,0.87,0.5,5.490844333333334,-78.54,-80.53
1730017529877600536,1730017529877287387,9,-1.79,0.87,0.5,5.497098333333334,-78.68,-81.23
1730017529976599367,1730017529976299762,9,-1.79,0.87,0.5,5.490844333333334,-78.85,-81.22
1730017530077990756,1730017530077678680,9,-1.79,0.87,0.5,5.490844333333334,-78.73,-80.82
1730017530177959175,1730017530177748680,9,-1.79,0.87,0.5,5.472082666666666,-79.05,-80.61
1730017530278608068,1730017530278381109,9,-1.79,0.87,0.5,5.459575,-78.45,-80.48
1730017530377870287,1730017530377678155,9,-1.79,0.87,0.5,5.459575,-78.71,-80.77
1730017530476552818,1730017530476042747,9,-1.79,0.87,0.5,5.453321333333332,-78.4,-80.63
1730017530578015473,1730017530577511072,9,-1.79,0.87,0.5,5.4595753333333334,-78.59,-80.47
1730017530677698237,1730017530677403211,9,-1.79,0.87,0.5,5.453321666666667,-78.82,-80.64
1730017530778634695,1730017530778476715,9,-1.79,0.87,0.5,5.453321666666667,-78.78,-80.77
1730017531276607877,1730017531276069641,9,-1.79,0.87,0.5,5.459575,-78.77,-80.49
1730017531376446384,1730017531376075506,9,-1.79,0.87,0.5,5.459575,-78.97,-80.97
1730017531476345969,1730017531476073503,9,-1.79,0.87,0.5,5.472082666666666,-78.83,-81.59
1730017531578886420,1730017531578680753,9,-1.79,0.87,0.5,5.478336666666666,-79.05,-80.54
1730017531678282843,1730017531678190708,9,-1.79,0.87,0.5,5.484590666666667,-78.7,-80.94
1730017531779113817,1730017531778903961,9,-1.79,0.87,0.5,5.484590666666667,-78.67,-80.46
1730017531879325351,1730017531878988504,9,-1.79,0.87,0.5,5.465829,-78.88,-80.87
1730017531978391197,1730017531978209018,9,-1.79,0.87,0.5,5.453321333333332,-79.03,-80.91
1730017532078980322,1730017532078774690,9,-1.79,0.87,0.5,5.43456,-78.91,-80.48
1730017532178702132,1730017532178485870,9,-1.79,0.87,0.5,5.447067666666666,-78.69,-80.39
1730017532278787370,1730017532278607606,9,-1.79,0.87,0.5,5.447067666666666,-79.19,-80.99
1730017532378382137,1730017532378301858,9,-1.79,0.87,0.5,5.453321333333334,-78.6,-80.38
1730017532478322217,1730017532478145122,9,-1.79,0.87,0.5,5.465829,-78.97,-80.51
1730017532578299783,1730017532578069210,9,-1.79,0.87,0.5,5.459575,-78.96,-80.67
1730017532679034365,1730017532678635120,9,-1.79,0.87,0.5,5.472082666666666,-79.08,-80.47
1730017532779091667,1730017532778939723,9,-1.79,0.87,0.5,5.472082666666666,-78.81,-81.1
1730017532879096324,1730017532878925085,9,-1.79,0.87,0.5,5.484590333333333,-78.8,-80.7
1730017532979545095,1730017532979387044,9,-1.79,0.87,0.5,5.465828999999999,-79.03,-80.85
1730017533079149254,1730017533078986644,9,-1.79,0.87,0.5,5.447067666666666,-78.57,-80.51
1730017533179779995,1730017533179489850,9,-1.79,0.87,0.5,5.440814,-78.85,-80.78
1730017533279542786,1730017533279369115,9,-1.79,0.87,0.5,5.4595753333333334,-78.87,-80.39
1730017533378925516,1730017533378697156,9,-1.79,0.87,0.5,5.465829,-79.32,-80.63
1730017533479284316,1730017533479079961,9,-1.79,0.87,0.5,5.459575,-78.46,-80.44
1730017533579111783,1730017533578892707,9,-1.79,0.87,0.5,5.447067333333333,-79.05,-80.89
1730017533679235265,1730017533679027318,9,-1.79,0.87,0.5,5.447067333333333,-78.75,-80.37
1730017533779720988,1730017533779499053,9,-1.79,0.87,0.5,5.453321333333332,-79.3,-80.9
1730017533878806317,1730017533878587722,9,-1.79,0.87,0.5,5.4595753333333334,-78.88,-80.9
1730017533979223309,1730017533979135513,9,-1.79,0.87,0.5,5.4595753333333334,-79.08,-81.08
1730017534080136519,1730017534079819917,9,-1.79,0.87,0.5,5.453321333333334,-78.69,-80.67
1730017534179567996,1730017534179331541,9,-1.79,0.87,0.5,5.453321333333332,-78.64,-80.52
1730017534279159414,1730017534279010057,9,-1.79,0.87,0.5,5.447067666666666,-78.77,-80.53
1730017534379421272,1730017534379169940,9,-1.79,0.87,0.5,5.4720830000000005,-79.01,-81.0
1730017534479904903,1730017534479684114,9,-1.79,0.87,0.5,5.4595753333333334,-78.82,-80.76
1730017534976465739,1730017534976099729,9,-1.79,0.87,0.5,5.528366999999999,-79.17,-80.69
1730017535079858259,1730017535079550981,9,-1.79,0.87,0.5,5.5346210000000005,-79.35,-80.65
1730017535179593966,1730017535179178237,9,-1.79,0.87,0.5,5.5533823333333325,-79.42,-80.6
1730017535276606134,1730017535276104688,9,-1.79,0.87,0.5,5.578397666666667,-79.3,-80.82
1730017535377623129,1730017535377457857,9,-1.79,0.87,0.5,5.603412666666667,-79.12,-80.79
1730017535477519793,1730017535477265834,9,-1.79,0.87,0.5,5.609666666666667,-79.13,-80.85
1730017535577564066,1730017535577352523,9,-1.79,0.87,0.5,5.628428,-78.78,-80.59
1730017535677920671,1730017535677686929,9,-1.79,0.87,0.5,5.653443333333333,-79.1,-81.03
1730017535778615825,1730017535778454780,9,-1.79,0.87,0.5,5.684712333333334,-79.32,-80.41
1730017535877872520,1730017535877604722,9,-1.79,0.87,0.5,5.684712333333334,-79.46,-80.5
1730017535976630723,1730017535976105451,9,-1.79,0.87,0.5,5.709727666666667,-79.51,-80.87
1730017536077559773,1730017536077283382,9,-1.79,0.87,0.5,5.747250333333334,-79.13,-80.85
1730017536177958590,1730017536177517890,9,-1.79,0.87,0.5,5.797281000000001,-78.83,-80.63
1730017536279842365,1730017536279708147,9,-1.79,0.87,0.5,5.834803666666667,-79.1,-80.93
1730017536379255626,1730017536379082441,9,-1.79,0.87,0.5,5.903595666666667,-79.76,-80.69
1730017536480087989,1730017536479799747,9,-1.79,0.87,0.5,5.972387666666666,-79.83,-81.32
1730017536579443065,1730017536579214572,9,-1.79,0.87,0.5,6.034926,-80.41,-81.15
1730017536682940470,1730017536682602405,9,-1.79,0.87,0.5,6.059941333333334,-79.94,-81.27
1730017536780736929,1730017536780433654,9,-1.79,0.87,0.5,6.084956333333333,-82.94,-85.89
1730017536880155417,1730017536880002260,9,-1.79,0.87,0.5,6.134986666666667,-81.28,-83.51
1730017536979317722,1730017536979159355,9,-1.79,0.87,0.5,6.172509333333333,-85.85,-92.25
1730017537079723781,1730017537079457521,9,-1.79,0.87,0.5,6.216286,-82.53,-85.19
1730017537179258108,1730017537179054737,9,-1.79,0.87,0.5,6.203778333333333,-80.06,-80.73
1730017537279314630,1730017537279224157,9,-1.79,0.87,0.5,6.203778333333333,-79.59,-80.88
1730017537379253043,1730017537379070520,9,-1.79,0.87,0.5,6.2225399999999995,-79.95,-80.96
1730017537479756216,1730017537479542016,9,-1.79,0.87,0.5,6.335108666666667,-83.43,-84.4
1730017537579173860,1730017537578874111,9,-1.79,0.87,0.5,6.3601236666666665,-80.46,-81.17
1730017537680124652,1730017537679883718,9,-1.79,0.87,0.5,6.378885,-79.39,-80.84
1730017537779698328,1730017537779547691,9,-1.79,0.87,0.5,6.4164080000000006,-80.29,-80.78
1730017537879318163,1730017537879110336,9,-1.79,0.87,0.5,6.460184666666667,-80.18,-80.56
1730017537979301870,1730017537979130268,9,-1.79,0.87,0.5,6.541484333333333,-79.77,-80.85
1730017538079061151,1730017538078813552,9,-1.79,0.87,0.5,6.61653,-81.22,-81.69
1730017538176650984,1730017538176079273,9,-1.79,0.87,0.5,6.672814333333334,-80.19,-80.92
1730017538278057396,1730017538277698993,9,-1.79,0.87,0.5,6.722844666666667,-81.6,-82.04
1730017538377581688,1730017538377321481,9,-1.79,0.87,0.5,6.74786,-80.13,-80.9
1730017538477564032,1730017538477291107,9,-1.79,0.87,0.5,6.7666216666666665,-79.41,-80.7
1730017538577542028,1730017538577293634,9,-1.79,0.87,0.5,6.760368,-79.38,-80.7
1730017538677504631,1730017538677284955,9,-1.79,0.87,0.5,6.810398333333333,-79.26,-80.9
1730017538777792038,1730017538777597427,9,-1.79,0.87,0.5,6.885444,-79.03,-80.62
1730017538877547882,1730017538877358675,9,-1.79,0.87,0.5,6.9667433333333335,-79.06,-80.82
1730017538976318477,1730017538976111888,9,-1.79,0.87,0.5,7.035535333333333,-78.92,-80.74
1730017539076443592,1730017539076066732,9,-1.79,0.87,0.5,7.091819666666666,-79.0,-80.45
1730017539176466746,1730017539176063537,9,-1.79,0.87,0.5,7.160611666666667,-78.85,-80.83
1730017539276485064,1730017539276086568,9,-1.79,0.87,0.5,7.229403666666667,-79.19,-80.9
1730017539376407624,1730017539376091480,9,-1.79,0.87,0.5,7.304449333333333,-78.52,-80.41
1730017539476442679,1730017539476081371,9,-1.79,0.87,0.5,7.379495000000001,-79.18,-80.52
1730017539576485185,1730017539576081514,9,-1.79,0.87,0.5,7.4482870000000005,-79.63,-80.86
1730017539676493498,1730017539676096439,9,-1.79,0.87,0.5,7.53584,-79.08,-80.39
1730017539776637201,1730017539776093006,9,-1.79,0.87,0.5,7.6108856666666655,-79.24,-80.8
1730017539876359767,1730017539876075267,9,-1.79,0.87,0.5,7.685931,-79.08,-80.47
1730017539976380477,1730017539976086616,9,-1.79,0.87,0.5,7.7609770000000005,-79.21,-80.75
1730017540076435631,1730017540076122999,9,-1.79,0.87,0.5,7.8360226666666675,-78.76,-80.87
1730017540176370606,1730017540176078557,9,-1.79,0.87,0.5,7.923576333333334,-79.06,-80.95
1730017540777708329,1730017540777453899,9,-1.79,0.87,0.5,8.386359,-79.33,-80.97
1730017540877524500,1730017540877341985,9,-1.79,0.87,0.5,8.486419666666666,-79.58,-80.92
1730017541077757208,1730017541077397108,9,-1.79,0.87,0.5,8.605241999999999,-79.74,-80.87
1730017541178827543,1730017541178670406,9,-1.79,0.87,0.5,8.724064,-79.95,-80.64
1730017541277705360,1730017541277405500,9,-1.79,0.87,0.5,8.836632666666668,-79.38,-80.82
1730017541377519926,1730017541377395868,9,-1.79,0.87,0.5,8.917932333333333,-79.68,-80.73
1730017541476564701,1730017541476069211,9,-1.79,0.87,0.5,8.999232000000001,-79.32,-80.74
1730017541576607501,1730017541576055526,9,-1.79,0.87,0.5,9.068024,-80.42,-80.94
1730017541678383385,1730017541678158760,9,-1.79,0.87,0.5,9.161831,-80.1,-81.01
1730017541778700414,1730017541778471946,9,-1.79,0.87,0.5,9.230622666666667,-80.62,-80.93
1730017541878784229,1730017541878460168,9,-1.79,0.87,0.5,9.318176,-79.98,-81.07
1730017541978835350,1730017541978500366,9,-1.79,0.87,0.5,9.411983333333334,-79.65,-81.03
1730017542078485146,1730017542078245878,9,-1.79,0.87,0.5,9.530806,-80.2,-80.89
1730017542178361694,1730017542178087234,9,-1.79,0.87,0.5,9.630867,-79.83,-81.52
1730017542278895418,1730017542278581142,9,-1.79,0.87,0.5,9.724674,-80.87,-80.95
1730017542378543275,1730017542378288745,9,-1.79,0.87,0.5,9.812227333333334,-79.43,-80.98
1730017542478596477,1730017542478354215,9,-1.79,0.87,0.5,9.918542,-79.76,-81.3
1730017542578678144,1730017542578444480,9,-1.79,0.87,0.5,10.031110333333332,-79.6,-81.22
1730017542679371299,1730017542679131031,9,-1.79,0.87,0.5,10.118663666666665,-79.69,-80.86
1730017542780078071,1730017542779674768,9,-1.79,0.87,0.5,10.206216999999999,-79.84,-80.64
1730017542879226419,1730017542879078388,9,-1.79,0.87,0.5,10.275008999999999,-79.99,-80.68
1730017542979529520,1730017542979271411,9,-1.79,0.87,0.5,10.362562333333335,-79.66,-80.68
1730017543079346621,1730017543079110145,9,-1.79,0.87,0.5,10.437607999999999,-79.0,-80.34
1730017543179010545,1730017543178886651,9,-1.79,0.87,0.5,10.556430666666666,-81.18,-81.01
1730017543280729191,1730017543280475854,9,-1.79,0.87,0.5,10.656491333333333,-79.69,-81.09
1730017543378513810,1730017543378310441,9,-1.79,0.87,0.5,10.750298333333333,-79.41,-80.88
1730017543477484260,1730017543477264404,9,-1.79,0.87,0.5,10.819090000000001,-79.87,-80.92
1730017543578278869,1730017543578109025,9,-1.79,0.87,0.5,10.900389666666667,-79.26,-80.98
1730017543676599040,1730017543676100015,9,-1.79,0.87,0.5,11.000451,-79.2,-80.43
1730017543776495179,1730017543776094913,9,-1.79,0.87,0.5,11.100512,-79.06,-80.59
1730017543878658019,1730017543878515481,9,-1.79,0.87,0.5,11.213080666666665,-80.0,-80.94
1730017543979808467,1730017543979523658,9,-1.79,0.87,0.5,11.313141333333334,-78.99,-80.55
1730017544078986438,1730017544078813791,9,-1.79,0.87,0.5,11.413201999999998,-79.31,-80.84
1730017544178729449,1730017544178475856,9,-1.79,0.87,0.5,11.488247666666666,-79.47,-80.64
1730017544278207344,1730017544278129339,9,-1.79,0.87,0.5,11.594562333333334,-79.47,-80.57
1730017544377397920,1730017544377245664,9,-1.79,0.87,0.5,11.688369666666667,-79.55,-80.66
1730017544477503180,1730017544477292776,9,-1.79,0.87,0.5,11.807192,-79.27,-80.92
1730017544607823887,1730017544607499361,9,-1.79,0.87,0.5,11.907252999999999,-79.04,-80.72
1730017544677699485,1730017544677402257,9,-1.79,0.87,0.5,11.994806333333331,-79.19,-80.71
1730017544777700925,1730017544777440547,9,-1.79,0.87,0.5,12.088613666666667,-79.02,-80.36
1730017544877370997,1730017544877277851,9,-1.79,0.87,0.5,12.182421,-78.98,-80.52
1730017544977936665,1730017544977469444,9,-1.79,0.87,0.5,12.301243333333334,-79.24,-80.77
1730017545077618500,1730017545077399492,9,-1.79,0.87,0.5,12.413811666666668,-80.53,-81.36
1730017545177465877,1730017545177226781,9,-1.79,0.87,0.5,12.520126333333332,-79.63,-80.37
1730017545277593323,1730017545277257919,9,-1.79,0.87,0.5,12.607679666666668,-79.77,-80.99
1730017545377751487,1730017545377479791,9,-1.79,0.87,0.5,12.676471333333334,-79.17,-80.65
1730017545477936905,1730017545477628231,9,-1.79,0.87,0.5,12.776532000000001,-79.57,-80.8
1730017545577529021,1730017545577255725,9,-1.79,0.87,0.5,12.882846666666666,-79.64,-80.59
1730017545677560603,1730017545677384853,9,-1.79,0.87,0.5,13.007923,-79.78,-80.71
1730017545777597394,1730017545777302026,9,-1.79,0.87,0.5,13.126745333333332,-79.33,-80.78
1730017545877674949,1730017545877333641,9,-1.79,0.87,0.5,13.233060333333334,-79.53,-80.77
1730017545977731602,1730017545977441310,9,-1.79,0.87,0.5,13.439436333333333,-80.05,-80.93
1730017546077487536,1730017546077237606,9,-1.79,0.87,0.5,13.545751000000001,-79.98,-80.89
1730017546476638977,1730017546476127147,9,-1.79,0.87,0.5,13.983517666666666,-79.85,-80.71
1730017546577003635,1730017546576073169,9,-1.79,0.87,0.5,14.083578666666668,-80.0,-81.22
1730017546677477339,1730017546677266597,9,-1.79,0.87,0.5,14.177385999999998,-79.57,-80.8
1730017546777408639,1730017546777160882,9,-1.79,0.87,0.5,14.289954666666667,-81.4,-81.92
1730017546876702897,1730017546876040697,9,-1.79,0.87,0.5,14.377508,-79.86,-80.83
1730017546976634809,1730017546976045370,9,-1.79,0.87,0.5,14.490076333333334,-80.27,-81.05
1730017547078967890,1730017547078833818,9,-1.79,0.87,0.5,14.577629666666667,-80.11,-81.03
1730017547179172242,1730017547178922653,9,-1.79,0.87,0.5,14.683944666666667,-80.37,-81.06
1730017547278110473,1730017547277988910,9,-1.79,0.87,0.5,14.784005666666665,-80.76,-81.22
1730017547378869438,1730017547378674268,9,-1.79,0.87,0.5,14.902828,-80.3,-80.74
1730017547479173906,1730017547478893041,9,-1.79,0.87,0.5,15.027904,-80.3,-80.94
1730017547578891603,1730017547578655481,9,-1.79,0.87,0.5,15.140472333333333,-81.06,-83.03
1730017547678796171,1730017547678555727,9,-1.79,0.87,0.5,15.240533,-80.41,-81.9
1730017547778213664,1730017547778038740,9,-1.79,0.87,0.5,15.328086333333333,-80.72,-81.57
1730017547878771201,1730017547878531694,9,-1.79,0.87,0.5,15.434401333333334,-80.35,-81.04
1730017547978727828,1730017547978559494,9,-1.79,0.87,0.5,15.553224,-80.69,-81.22
1730017548077436957,1730017548077184677,9,-1.79,0.87,0.5,15.665792333333334,-80.89,-81.03
1730017548176292313,1730017548176047325,9,-1.79,0.87,0.5,15.765853,-81.69,-82.9
1730017548276341767,1730017548276048183,9,-1.79,0.87,0.5,15.85966,-80.71,-81.77
1730017548376388869,1730017548376046180,9,-1.79,0.87,0.5,15.965974333333333,-81.16,-81.25
1730017548476285679,1730017548476102828,9,-1.79,0.87,0.5,16.066035333333332,-81.06,-81.66
1730017548576605934,1730017548576122999,9,-1.79,0.87,0.5,16.172349999999998,-81.4,-81.71
1730017548676761566,1730017548676093578,9,-1.79,0.87,0.5,16.278665,-81.47,-81.38
1730017548779228976,1730017548778968572,9,-1.79,0.87,0.5,16.391233333333332,-81.41,-82.94
1730017548877601871,1730017548877241373,9,-1.79,0.87,0.5,16.503802,-81.39,-81.43
1730017548976496665,1730017548976063489,9,-1.79,0.87,0.5,16.603863,-81.37,-81.8
1730017549077754917,1730017549077373743,9,-1.79,0.87,0.5,16.71643166666667,-81.25,-81.45
1730017549177593925,1730017549177263259,9,-1.79,0.87,0.5,16.828999999999997,-82.25,-82.35
1730017549277461308,1730017549277166128,9,-1.79,0.87,0.5,16.947822666666667,-82.16,-82.49
1730017549377393336,1730017549377122402,9,-1.79,0.87,0.5,17.054137666666666,-82.05,-83.54
1730017549478186172,1730017549477451801,9,-1.79,0.87,0.5,17.15419866666667,-82.09,-81.9
1730017549577460553,1730017549577140331,9,-1.79,0.87,0.5,17.260513,-81.91,-82.93
1730017549678890470,1730017549678694725,9,-1.79,0.87,0.5,17.379335,-82.34,-82.04
1730017549778752407,1730017549778668642,9,-1.79,0.87,0.5,17.498157000000003,-83.17,-83.51
1730017549878843109,1730017549878624439,9,-1.79,0.87,0.5,17.610725333333335,-83.11,-82.72
1730017549978677550,1730017549978594064,9,-1.79,0.87,0.5,17.717040333333333,-83.19,-84.71
1730017550078955744,1730017550078833103,9,-1.79,0.87,0.5,17.829609,-83.71,-83.54
1730017550178802210,1730017550178692579,9,-1.79,0.87,0.5,17.942177666666666,-84.64,-84.96
1730017550279047337,1730017550278738975,9,-1.79,0.87,0.5,18.054746333333334,-84.82,-86.34
1730017550378795849,1730017550378655672,9,-1.79,0.87,0.5,18.1423,-85.72,-85.96
1730017550478907680,1730017550478755235,9,-1.79,0.87,0.5,18.242361333333335,-85.31,-84.9
1730017550578795095,1730017550578547000,9,-1.79,0.87,0.5,18.336168333333333,-86.41,-86.09
1730017550678917023,1730017550678649663,9,-1.79,0.87,0.5,18.46124466666667,-85.59,-85.59
1730017550779023702,1730017550778733730,9,-1.79,0.87,0.5,18.573813333333334,-86.52,-87.95
1730017550878730538,1730017550878560066,9,-1.79,0.87,0.5,18.698888999999998,-85.52,-86.01
1730017550978782914,1730017550978575944,9,-1.79,0.87,0.5,18.811457333333333,-85.94,-86.74
1730017551079338658,1730017551079202651,9,-1.79,0.87,0.5,18.92402566666667,-86.67,-87.64
1730017551178950040,1730017551178740501,9,-1.79,0.87,0.5,19.042848666666668,-85.65,-86.91
1730017551278931324,1730017551278628349,9,-1.79,0.87,0.5,19.16167066666667,-85.29,-85.95
1730017551378967275,1730017551378824472,9,-1.79,0.87,0.5,19.286747000000002,-86.01,-86.13
1730017551479004777,1730017551478850364,9,-1.79,0.87,0.5,19.380554,-86.6,-87.48
1730017551578983527,1730017551578784227,9,-1.79,0.87,0.5,19.48061566666667,-85.51,-85.75
1730017551678852599,1730017551678663969,9,-1.79,0.87,0.5,19.599438,-86.71,-87.66
1730017551778939208,1730017551778719425,9,-1.79,0.87,0.5,19.737021666666667,-85.86,-86.07
1730017551877626343,1730017551877297639,9,-1.79,0.87,0.5,19.84959,-86.83,-88.59
1730017551976520445,1730017551976121425,9,-1.79,0.87,0.5,19.949650666666667,-86.21,-87.91
1730017552076597048,1730017552076076269,9,-1.79,0.87,0.5,20.049712,-91.29,-91.36
1730017552176549562,1730017552176073789,9,-1.79,0.87,0.5,20.181042,-85.93,-87.85
1730017552277525149,1730017552277235984,9,-1.79,0.87,0.5,20.274849333333332,-85.68,-87.42
1730017552377360003,1730017552377173900,9,-1.79,0.87,0.5,20.381163666666666,-86.02,-86.47
1730017552577695794,1730017552577466964,9,-1.79,0.87,0.5,20.493732333333334,-85.88,-88.21
1730017552677875249,1730017552677407264,9,-1.79,0.87,0.5,20.625062,-86.89,-90.3
1730017552777469078,1730017552777305841,9,-1.79,0.87,0.5,20.762646,-86.19,-88.28
1730017552877430390,1730017552877193689,9,-1.79,0.87,0.5,20.868960333333334,-86.62,-87.66
1730017552977434461,1730017552977176666,9,-1.79,0.87,0.5,20.981529000000002,-88.32,-89.56
1730017553077521481,1730017553077288389,9,-1.79,0.87,0.5,21.075336333333336,-86.44,-88.72
1730017553178718274,1730017553178549051,9,-1.79,0.87,0.5,21.17539766666667,-86.22,-87.45
1730017553278909218,1730017553278661489,9,-1.79,0.87,0.5,21.262951333333334,-85.65,-87.06
1730017553378886430,1730017553378696680,9,-1.79,0.87,0.5,21.350504333333333,-85.68,-85.85
1730017553479153952,1730017553478971958,9,-1.79,0.87,0.5,21.456818666666667,-84.15,-84.23
1730017553579126616,1730017553578938484,9,-1.79,0.87,0.5,21.581895000000003,-83.91,-84.14
1730017553678804862,1730017553678716659,9,-1.79,0.87,0.5,21.706971333333332,-83.28,-83.26
1730017553778743603,1730017553777950286,9,-1.79,0.87,0.5,21.813286333333334,-86.53,-86.81
1730017553877875204,1730017553877103805,9,-1.79,0.87,0.5,21.907093333333336,-83.45,-85.55
1730017553977536559,1730017553977261543,9,-1.79,0.87,0.5,22.007154,-82.54,-84.08
1730017554078381063,1730017554078063726,9,-1.79,0.87,0.5,22.094707666666665,-83.47,-84.97
1730017554178884317,1730017554178757429,9,-1.79,0.87,0.5,22.194768666666665,-82.47,-82.52
1730017554278648995,1730017554278357505,9,-1.79,0.87,0.5,22.288576000000003,-83.02,-84.48
1730017554376649935,1730017554376130342,9,-1.79,0.87,0.5,22.40114433333333,-82.52,-84.73
1730017554476455889,1730017554476059913,9,-1.79,0.87,0.5,22.507458666666665,-82.27,-84.49
1730017554577390815,1730017554577108621,9,-1.79,0.87,0.5,22.601265666666666,-81.63,-81.59
1730017554678307107,1730017554678081512,9,-1.79,0.87,0.5,22.695072333333332,-82.5,-82.89
1730017554778100083,1730017554777882575,9,-1.79,0.87,0.5,22.801387333333334,-82.55,-84.53
1730017554878020952,1730017554877842426,9,-1.79,0.87,0.5,22.901448333333335,-82.03,-81.97
1730017554978436205,1730017554978205680,9,-1.79,0.87,0.5,23.001509666666664,-81.75,-81.68
1730017555078688120,1730017555078470230,9,-1.79,0.87,0.5,23.076555333333335,-83.76,-83.24
1730017555178258847,1730017555178100585,9,-1.79,0.87,0.5,23.157854666666665,-83.17,-84.46
1730017555278322494,1730017555278101682,9,-1.79,0.87,0.5,23.201631000000003,-81.04,-81.0
1730017555376228846,1730017555376036882,9,-1.79,0.87,0.5,23.239153666666667,-81.83,-81.52
1730017555476576530,1730017555476067304,9,-1.79,0.87,0.5,23.226646666666667,-81.31,-81.41
1730017555576263785,1730017555576048374,9,-1.79,0.87,0.5,23.23915433333333,-83.56,-85.54
1730017555676641239,1730017555676050662,9,-1.79,0.87,0.5,23.226646666666667,-81.55,-81.75
1730017555776570845,1730017555776052713,9,-1.79,0.87,0.5,23.25166133333333,-82.3,-83.85
1730017555876633228,1730017555876125335,9,-1.79,0.87,0.5,23.270422666666665,-81.67,-81.45
1730017555976542797,1730017555976063728,9,-1.79,0.87,0.5,23.314199333333335,-81.83,-81.99
1730017556076592167,1730017556076089143,9,-1.79,0.87,0.5,23.35172266666667,-81.56,-82.29
1730017556176730724,1730017556176047325,9,-1.79,0.87,0.5,23.395499666666666,-81.72,-83.38
1730017556276777847,1730017556276072263,9,-1.79,0.87,0.5,23.439276666666668,-82.38,-82.29
1730017556376406291,1730017556376056909,9,-1.79,0.87,0.5,23.526829666666668,-82.0,-83.76
1730017556476530902,1730017556476078748,9,-1.79,0.87,0.5,23.583113666666666,-82.44,-82.22
1730017556576332299,1730017556576060056,9,-1.79,0.87,0.5,23.645651666666666,-82.62,-82.27
1730017556676878302,1730017556676088571,9,-1.79,0.87,0.5,23.701935666666667,-81.94,-82.06
1730017556776627432,1730017556776080846,9,-1.79,0.87,0.5,23.751966666666664,-81.23,-81.64
1730017556876484597,1730017556876078128,9,-1.79,0.87,0.5,23.814504666666664,-82.2,-81.95
1730017556976665423,1730017556976076602,9,-1.79,0.87,0.5,23.883297,-81.75,-82.92
1730017557076456425,1730017557076057434,9,-1.79,0.87,0.5,23.97085,-82.47,-83.75
1730017557176436265,1730017557176073312,9,-1.79,0.87,0.5,24.052149666666665,-82.49,-84.43
1730017557276556798,1730017557276074647,9,-1.79,0.87,0.5,24.108433666666667,-82.51,-82.48
1730017557376286614,1730017557376065492,9,-1.79,0.87,0.5,24.133449,-81.85,-82.3
1730017557476670058,1730017557476131439,9,-1.79,0.87,0.5,24.15221033333333,-82.9,-82.89
1730017557576453060,1730017557576078414,9,-1.79,0.87,0.5,24.183479333333334,-84.22,-85.87
1730017557676436917,1730017557676058292,9,-1.79,0.87,0.5,24.183479333333334,-84.73,-85.46
1730017557776513028,1730017557776060819,9,-1.79,0.87,0.5,24.183479333333327,-85.18,-85.64
1730017557876549404,1730017557876067638,9,-1.79,0.87,0.5,24.170971666666663,-84.45,-84.49
1730017557976455359,1730017557976061344,9,-1.79,0.87,0.5,24.177225333333336,-86.45,-88.87
1730017558076469523,1730017558076052188,9,-1.79,0.87,0.5,24.177225333333336,-84.09,-84.14
1730017558176310747,1730017558176051855,9,-1.79,0.87,0.5,24.170971666666663,-83.96,-85.64
1730017558276517545,1730017558276146888,9,-1.79,0.87,0.5,24.177225333333336,-83.29,-83.61
1730017558376347637,1730017558376069068,9,-1.79,0.87,0.5,24.170971666666663,-84.75,-85.11
1730017558476436423,1730017558476067543,9,-1.79,0.87,0.5,24.158464,-83.78,-83.29
1730017558576340065,1730017558576066493,9,-1.79,0.87,0.5,24.139702666666665,-85.94,-87.69
1730017558676411822,1730017558676058053,9,-1.79,0.87,0.5,24.114687333333336,-84.84,-85.72
1730017558776393691,1730017558776048898,9,-1.79,0.87,0.5,24.102179666666668,-84.36,-85.65
1730017558876345209,1730017558876063823,9,-1.79,0.87,0.5,24.089671999999997,-84.52,-85.67
1730017558976405870,1730017558976060867,9,-1.79,0.87,0.5,24.08341833333333,-86.51,-87.5
1730017559076438853,1730017559076071739,9,-1.79,0.87,0.5,24.070911,-83.32,-83.35
1730017559176452256,1730017559176076889,9,-1.79,0.87,0.5,24.052149666666665,-83.36,-84.34
1730017559376511782,1730017559376097440,9,-1.79,0.87,0.5,24.045896,-82.7,-84.83
1730017559476485401,1730017559476074934,9,-1.79,0.87,0.5,24.039642,-84.43,-84.28
1730017560177321455,1730017560177165985,9,-1.79,0.87,0.5,23.88329733333333,-83.06,-83.29
1730017560276316251,1730017560276051282,9,-1.79,0.87,0.5,23.83952066666667,-82.67,-82.9
1730017560376438973,1730017560376048088,9,-1.79,0.87,0.5,23.801997333333333,-83.09,-84.27
1730017560477754600,1730017560477625846,9,-1.79,0.87,0.5,23.770728000000002,-83.88,-86.59
1730017560577689743,1730017560577130794,9,-1.79,0.87,0.5,23.733205333333334,-87.25,-87.04
1730017560680011227,1730017560679733514,9,-1.79,0.87,0.5,23.701936333333336,-83.05,-83.08
1730017560778496857,1730017560778283596,9,-1.79,0.87,0.5,23.639398333333332,-84.0,-84.94
1730017560877324509,1730017560877115726,9,-1.79,0.87,0.5,23.564352333333332,-84.15,-86.11
1730017560976509240,1730017560976094722,9,-1.79,0.87,0.5,23.495560666666666,-86.14,-88.49
1730017561079073068,1730017561078550100,9,-1.79,0.87,0.5,23.445530333333334,-84.5,-86.69
1730017561177996574,1730017561177832126,9,-1.79,0.87,0.5,23.401753333333335,-84.6,-88.45
1730017561278376992,1730017561278091192,9,-1.79,0.87,0.5,23.34546933333333,-84.24,-85.09
1730017561377874029,1730017561377751111,9,-1.79,0.87,0.5,23.295439,-87.14,-88.93
1730017561478715351,1730017561478489875,9,-1.79,0.87,0.5,23.232901,-84.95,-86.95
1730017561578388775,1730017561578150510,9,-1.79,0.87,0.5,23.170362666666666,-85.52,-86.91
1730017561678375961,1730017561678184032,9,-1.79,0.87,0.5,23.089063,-84.61,-86.71
1730017561778523160,1730017561778295993,9,-1.79,0.87,0.5,23.01401766666667,-85.18,-85.75
1730017561878361367,1730017561878251791,9,-1.79,0.87,0.5,22.957733333333334,-84.46,-85.2
1730017561978254315,1730017561978007078,9,-1.79,0.87,0.5,22.901448666666667,-83.67,-84.22
1730017562078454847,1730017562078179836,9,-1.79,0.87,0.5,22.86392533333333,-85.37,-86.22
1730017562178136504,1730017562177939891,9,-1.79,0.87,0.5,22.795133333333336,-83.18,-85.85
1730017562278564467,1730017562278362274,9,-1.79,0.87,0.5,22.726341666666666,-84.35,-85.15
1730017562378253566,1730017562378067255,9,-1.79,0.87,0.5,22.645042333333333,-84.09,-84.49
1730017562478030580,1730017562477853298,9,-1.79,0.87,0.5,22.582504333333333,-82.99,-85.81
1730017562578120250,1730017562577866315,9,-1.79,0.87,0.5,22.526219666666666,-85.22,-84.89
1730017562709025587,1730017562708594322,9,-1.79,0.87,0.5,22.444920333333332,-83.35,-86.0
1730017562778044459,1730017562777867317,9,-1.79,0.87,0.5,22.363621,-84.27,-87.63
1730017562878016275,1730017562877860784,9,-1.79,0.87,0.5,22.269814666666665,-82.44,-84.63
1730017562977426690,1730017562977111339,9,-1.79,0.87,0.5,22.194768666666665,-83.37,-85.02
1730017563078022825,1730017563077668905,9,-1.79,0.87,0.5,22.113469,-82.6,-85.82
1730017563177647094,1730017563177213191,9,-1.79,0.87,0.5,22.05093066666667,-84.88,-85.46
1730017563277384352,1730017563277125835,9,-1.79,0.87,0.5,21.95712333333333,-82.77,-83.76
1730017563378666893,1730017563378414630,9,-1.79,0.87,0.5,21.888330999999997,-85.37,-88.32
1730017563478150187,1730017563477982997,9,-1.79,0.87,0.5,21.825793,-84.52,-87.62
1730017563578495754,1730017563577990293,9,-1.79,0.87,0.5,21.775762666666665,-83.83,-84.75
1730017563678149066,1730017563677943229,9,-1.79,0.87,0.5,21.706971,-85.06,-86.87
1730017563777886050,1730017563777750730,9,-1.79,0.87,0.5,21.61941733333333,-84.64,-85.51
1730017563878904809,1730017563878690004,9,-1.79,0.87,0.5,21.544372,-84.36,-85.52
1730017563977587602,1730017563977399826,9,-1.79,0.87,0.5,21.469326000000006,-85.19,-85.55
1730017564077475530,1730017564077373027,9,-1.79,0.87,0.5,21.388026333333332,-85.79,-87.71
1730017564177435952,1730017564177209615,9,-1.79,0.87,0.5,21.319233999999998,-85.52,-87.6
1730017564277427412,1730017564277344465,9,-1.79,0.87,0.5,21.237934666666668,-86.1,-87.13
1730017564377574214,1730017564377314329,9,-1.79,0.87,0.5,21.175396666666668,-86.12,-90.06
1730017564477183329,1730017564476959943,9,-1.79,0.87,0.5,21.100351333333332,-91.75,-92.43
1730017564577256171,1730017564576939344,9,-1.79,0.87,0.5,21.031559666666666,-86.72,-87.33
1730017564677583251,1730017564677391052,9,-1.79,0.87,0.5,20.944006666666667,-87.18,-87.4
1730017564777493993,1730017564777260065,9,-1.79,0.87,0.5,20.862707333333333,-86.68,-87.08
1730017564877207629,1730017564876890897,9,-1.79,0.87,0.5,20.787661333333332,-87.04,-88.06
1730017564979053748,1730017564978784084,9,-1.79,0.87,0.5,20.725123333333332,-87.08,-88.6
1730017565078780524,1730017565078688621,9,-1.79,0.87,0.5,20.650077333333332,-87.0,-88.94
1730017565179132198,1730017565178955793,9,-1.79,0.87,0.5,20.556270666666666,-87.85,-91.57
1730017565278886445,1730017565278682708,9,-1.79,0.87,0.5,20.38741733333333,-86.67,-89.16
1730017565378677410,1730017565378404617,9,-1.79,0.87,0.5,20.32487933333333,-87.03,-91.29
1730017565479643815,1730017565479364395,9,-1.79,0.87,0.5,20.237325666666667,-87.35,-89.7
1730017565577391950,1730017565577177762,9,-1.79,0.87,0.5,20.168534,-88.14,-89.81
1730017565677762962,1730017565677463769,9,-1.79,0.87,0.5,20.087234666666664,-87.51,-89.92
1730017565976275580,1730017565976057291,9,-1.79,0.87,0.5,19.980920333333334,-87.91,-91.33
1730017566076451978,1730017566076057434,9,-1.79,0.87,0.5,19.87460533333333,-88.47,-88.82
1730017566176284801,1730017566176059484,9,-1.79,0.87,0.5,19.768290333333336,-88.12,-88.78
1730017566276601536,1730017566276158809,9,-1.79,0.87,0.5,19.680736666666665,-87.01,-89.62
1730017566376624442,1730017566376095056,9,-1.79,0.87,0.5,19.599437333333334,-87.77,-88.17
1730017566476389029,1730017566476063966,9,-1.79,0.87,0.5,19.511883666666666,-88.14,-91.15
1730017566579769770,1730017566579597234,9,-1.79,0.87,0.5,19.436837666666666,-88.78,-89.72
1730017566677847208,1730017566677416563,9,-1.79,0.87,0.5,19.355538,-88.63,-89.92
1730017566777273357,1730017566777035951,9,-1.79,0.87,0.5,19.280492666666664,-88.1,-91.68
1730017566876665755,1730017566876045227,9,-1.79,0.87,0.5,19.192939666666664,-87.5,-89.21
1730017566976463556,1730017566976059675,9,-1.79,0.87,0.5,19.130401666666668,-87.43,-87.68
1730017567076431150,1730017567076302766,9,-1.79,0.87,0.5,19.049102,-88.05,-89.8
1730017567176659672,1730017567176092386,9,-1.79,0.87,0.5,18.974056333333333,-87.44,-89.41
1730017567276243429,1730017567276012182,9,-1.79,0.87,0.5,18.861487666666665,-89.51,-92.53
1730017567376436229,1730017567375986099,9,-1.79,0.87,0.5,18.78018833333333,-87.33,-89.24
1730017567476387018,1730017567476054668,9,-1.79,0.87,0.5,18.71139666666667,-87.9,-88.26
1730017567576434402,1730017567576078414,9,-1.79,0.87,0.5,18.636351666666666,-88.17,-90.34
1730017567676542742,1730017567676080703,9,-1.79,0.87,0.5,18.542544333333336,-87.84,-88.1
1730017567776482466,1730017567776039123,9,-1.79,0.87,0.5,18.436229333333333,-85.86,-88.31
1730017567876597700,1730017567876068830,9,-1.79,0.87,0.5,18.348675666666665,-86.39,-88.18
1730017567978141522,1730017567978032350,9,-1.79,0.87,0.5,18.267376333333335,-85.87,-87.32
1730017568477785949,1730017568476974964,9,-1.79,0.87,0.5,17.835863333333332,-83.91,-85.42
1730017568577267715,1730017568577116727,9,-1.79,0.87,0.5,17.729548333333334,-83.32,-84.06
1730017568678397124,1730017568678097724,9,-1.79,0.87,0.5,17.660756333333335,-84.28,-84.06
1730017568778754867,1730017568778606414,9,-1.79,0.87,0.5,17.585710333333335,-83.82,-85.5
1730017568879710854,1730017568879512310,9,-1.79,0.87,0.5,17.516918666666665,-84.17,-84.67
1730017568978883838,1730017568978727579,9,-1.79,0.87,0.5,17.441873,-86.28,-86.41
1730017569076467389,1730017569076065540,9,-1.79,0.87,0.5,17.37308133333333,-84.3,-84.22
1730017569179198389,1730017569179004669,9,-1.79,0.87,0.5,17.291781999999998,-89.68,-91.78
1730017569278068292,1730017569277786970,9,-1.79,0.87,0.5,17.216736666666666,-84.82,-85.24
1730017569377879905,1730017569377786397,9,-1.79,0.87,0.5,17.15419866666667,-84.8,-86.55
1730017569478657488,1730017569478415012,9,-1.79,0.87,0.5,17.091660333333333,-83.46,-84.16
1730017569578019452,1730017569577851057,9,-1.79,0.87,0.5,17.035375666666667,-82.48,-84.04
1730017569678037982,1730017569677674770,9,-1.79,0.87,0.5,16.960329666666667,-82.87,-84.12
1730017569776438183,1730017569776048660,9,-1.79,0.87,0.5,16.891537999999997,-82.89,-84.4
1730017569876467937,1730017569876071453,9,-1.79,0.87,0.5,16.828999999999997,-82.31,-82.52
1730017569976493322,1730017569976048231,9,-1.79,0.87,0.5,16.778969666666665,-81.97,-83.84
1730017570077163065,1730017570076980113,9,-1.79,0.87,0.5,16.72268533333333,-82.91,-85.98
1730017570176274887,1730017570176052331,9,-1.79,0.87,0.5,16.653893666666665,-82.73,-85.67
1730017570277507482,1730017570277297973,9,-1.79,0.87,0.5,16.585102000000003,-83.32,-85.69
1730017570377784940,1730017570377655029,9,-1.79,0.87,0.5,16.522563666666667,-82.23,-83.02
1730017570478103737,1730017570477865934,9,-1.79,0.87,0.5,16.460025333333334,-82.67,-82.47
1730017570576413794,1730017570576059579,9,-1.79,0.87,0.5,16.397487,-83.75,-85.33
1730017570676390528,1730017570676067829,9,-1.79,0.87,0.5,16.328695333333332,-82.51,-83.15
1730017570776388318,1730017570776059150,9,-1.79,0.87,0.5,16.247396,-84.21,-84.96
1730017570878621807,1730017570878455638,9,-1.79,0.87,0.5,16.178604333333332,-83.3,-85.68
1730017570978970193,1730017570978664398,9,-1.79,0.87,0.5,16.116066333333332,-82.18,-84.21
1730017571078917196,1730017571078699827,9,-1.79,0.87,0.5,16.066036,-83.22,-83.71
1730017571178341644,1730017571178169250,9,-1.79,0.87,0.5,16.003498,-83.25,-84.33
1730017571278669652,1730017571278373479,9,-1.79,0.87,0.5,15.940960000000002,-82.64,-82.93
1730017571378569955,1730017571378471851,9,-1.79,0.87,0.5,15.878422,-84.77,-84.19
1730017571478623107,1730017571478372335,9,-1.79,0.87,0.5,15.822137666666668,-81.87,-82.5
1730017571578677206,1730017571578481674,9,-1.79,0.87,0.5,15.778361333333335,-81.99,-82.72
1730017571678910745,1730017571678688287,9,-1.79,0.87,0.5,15.734584666666665,-82.14,-84.3
1730017571778959379,1730017571778745174,9,-1.79,0.87,0.5,15.690807999999999,-82.63,-86.22
1730017571879005059,1730017571878704309,9,-1.79,0.87,0.5,15.640777,-82.82,-84.12
1730017571976383505,1730017571976052761,9,-1.79,0.87,0.5,15.590746333333334,-81.95,-82.12
1730017572076299580,1730017572076077461,9,-1.79,0.87,0.5,15.528208333333334,-84.1,-84.18
1730017572176355509,1730017572176060438,9,-1.79,0.87,0.5,15.471924333333334,-82.33,-82.35
1730017572276343967,1730017572276061296,9,-1.79,0.87,0.5,15.409386333333332,-83.02,-85.07
1730017572376351755,1730017572376057863,9,-1.79,0.87,0.5,15.346848,-82.68,-83.05
1730017572476289291,1730017572476064920,9,-1.79,0.87,0.5,15.284309666666667,-82.07,-82.74
1730017572576282834,1730017572576065778,9,-1.79,0.87,0.5,15.240533,-82.16,-82.11
1730017572676488343,1730017572676074743,9,-1.79,0.87,0.5,15.203010333333333,-83.55,-84.72
1730017572776352240,1730017572776062011,9,-1.79,0.87,0.5,15.15298,-84.17,-84.09
1730017572876261104,1730017572876056432,9,-1.79,0.87,0.5,15.077934333333332,-82.22,-81.89
1730017572976278235,1730017572976060390,9,-1.79,0.87,0.5,15.015396,-80.89,-81.54
1730017573076281265,1730017573076071739,9,-1.79,0.87,0.5,14.952857999999999,-81.78,-82.56
1730017573176358001,1730017573176070928,9,-1.79,0.87,0.5,14.909081333333333,-82.31,-81.85
1730017573276337789,1730017573276068210,9,-1.79,0.87,0.5,14.827782,-81.12,-81.2
1730017573376365695,1730017573376066923,9,-1.79,0.87,0.5,14.777751333333333,-80.95,-81.11
1730017573476443647,1730017573476126909,9,-1.79,0.87,0.5,14.733974666666668,-81.08,-81.16
1730017573577247573,1730017573576967239,9,-1.79,0.87,0.5,14.715213333333333,-80.49,-81.1
1730017573677744505,1730017573677026510,9,-1.79,0.87,0.5,14.683944333333335,-81.78,-81.4
1730017573777044954,1730017573776920080,9,-1.79,0.87,0.5,14.621406,-80.8,-81.14
1730017574376381192,1730017574376059293,9,-1.79,0.87,0.5,14.227416333333332,-80.97,-81.28
1730017574476347296,1730017574476047039,9,-1.79,0.87,0.5,14.171132,-83.31,-82.66
1730017574578648391,1730017574578442096,9,-1.79,0.87,0.5,14.102340333333332,-80.6,-80.6
1730017574678404710,1730017574678193569,9,-1.79,0.87,0.5,14.033548333333334,-80.9,-81.41
1730017574778191282,1730017574777840137,9,-1.79,0.87,0.5,13.933487333333332,-80.55,-81.43
1730017574877851980,1730017574877686977,9,-1.79,0.87,0.5,13.845934,-80.5,-80.97
1730017574977135051,1730017574976881980,9,-1.79,0.87,0.5,13.770888333333334,-80.65,-80.68
1730017575077846578,1730017575077529668,9,-1.79,0.87,0.5,13.695842666666666,-80.34,-81.0
1730017575177360700,1730017575177025556,9,-1.79,0.87,0.5,13.627050666666667,-80.69,-80.95
1730017575277098966,1730017575276924610,9,-1.79,0.87,0.5,13.545751333333333,-80.28,-80.89
1730017575377201699,1730017575376877784,9,-1.79,0.87,0.5,13.458198000000001,-80.39,-80.81
1730017575477511007,1730017575477176666,9,-1.79,0.87,0.5,13.370644666666665,-80.19,-81.14
1730017575577957578,1730017575577688694,9,-1.79,0.87,0.5,13.283090999999999,-80.48,-81.11
1730017575678287737,1730017575678035974,9,-1.79,0.87,0.5,13.208045333333333,-80.78,-81.29
1730017575778454877,1730017575778217792,9,-1.79,0.87,0.5,13.126745999999999,-80.85,-81.02
1730017575878749832,1730017575878510475,9,-1.79,0.87,0.5,13.039192666666667,-80.95,-82.6
1730017575978032065,1730017575977817773,9,-1.79,0.87,0.5,12.957893333333333,-80.44,-81.46
1730017576078269528,1730017576077958583,9,-1.79,0.87,0.5,12.870339999999999,-80.31,-81.12
1730017576177269901,1730017576177019119,9,-1.79,0.87,0.5,12.782786666666667,-80.29,-80.88
1730017576277393943,1730017576276987552,9,-1.79,0.87,0.5,12.676471666666666,-80.51,-80.93
1730017576377315041,1730017576377066850,9,-1.79,0.87,0.5,12.595172,-80.53,-81.49
1730017576477278255,1730017576476994514,9,-1.79,0.87,0.5,12.501365,-80.31,-82.16
1730017576577382011,1730017576577065944,9,-1.79,0.87,0.5,12.426319333333332,-80.08,-81.54
1730017576677818834,1730017576677506208,9,-1.79,0.87,0.5,12.313751000000002,-80.18,-81.63
1730017576777254599,1730017576777020215,9,-1.79,0.87,0.5,12.219944,-80.1,-81.58
1730017576877423799,1730017576877077817,9,-1.79,0.87,0.5,12.113629333333334,-80.46,-81.75
1730017576976948576,1730017576976855278,9,-1.79,0.87,0.5,12.032329333333331,-80.56,-83.53
1730017577077822084,1730017577077616453,9,-1.79,0.87,0.5,11.819699333333332,-80.93,-82.1
1730017577177716972,1730017577177561044,9,-1.79,0.87,0.5,11.719638666666667,-81.05,-81.42
1730017577277995238,1730017577277695894,9,-1.79,0.87,0.5,11.632085333333334,-81.14,-81.55
1730017577377908825,1730017577377655029,9,-1.79,0.87,0.5,11.550786,-80.89,-81.47
1730017577478207906,1730017577478106021,9,-1.79,0.87,0.5,11.475740333333334,-81.01,-83.54
1730017577577906003,1730017577577621936,9,-1.79,0.87,0.5,11.400694666666666,-81.21,-81.38
1730017577677189375,1730017577676929473,9,-1.79,0.87,0.5,11.319395,-81.45,-81.43
1730017577777241369,1730017577776839494,9,-1.79,0.87,0.5,11.21308,-82.22,-84.34
1730017577877188950,1730017577876931428,9,-1.79,0.87,0.5,11.106765333333334,-82.52,-83.0
1730017577977016627,1730017577976858139,9,-1.79,0.87,0.5,11.006704333333332,-81.49,-82.01
1730017578077547733,1730017578077210664,9,-1.79,0.87,0.5,10.906643666666668,-81.35,-81.48
1730017578177080076,1730017578176890611,9,-1.79,0.87,0.5,10.806582666666666,-81.23,-81.57
1730017578277092070,1730017578276972532,9,-1.79,0.87,0.5,10.706521666666667,-81.44,-81.91
1730017578377180303,1730017578376942396,9,-1.79,0.87,0.5,10.600206666666667,-82.73,-85.3
1730017578476326227,1730017578476049423,9,-1.79,0.87,0.5,10.506399333333333,-81.58,-81.73
1730017578577096189,1730017578576879262,9,-1.79,0.87,0.5,10.400084999999999,-81.62,-81.78
1730017578676354862,1730017578676067113,9,-1.79,0.87,0.5,10.312532,-82.1,-84.91
1730017578776994705,1730017578776880741,9,-1.79,0.87,0.5,10.199963666666667,-82.65,-86.2
1730017578877870402,1730017578877615928,9,-1.79,0.87,0.5,10.11241,-86.03,-86.6
1730017578978281912,1730017578977651596,9,-1.79,0.87,0.5,10.006095,-82.83,-82.8
1730017579077307544,1730017579076964139,9,-1.79,0.87,0.5,9.949810666666666,-81.65,-81.98
1730017579176394042,1730017579176089763,9,-1.79,0.87,0.5,9.868511333333332,-82.18,-81.92
1730017579277773529,1730017579277629137,9,-1.79,0.87,0.5,9.768450666666666,-84.51,-86.45
1730017579377173817,1730017579376973390,9,-1.79,0.87,0.5,9.624613,-84.62,-88.46
1730017579477324835,1730017579477074861,9,-1.79,0.87,0.5,9.505790666666668,-84.74,-86.81
1730017579578467919,1730017579578269004,9,-1.79,0.87,0.5,9.462013666666666,-82.48,-82.72
1730017579676455432,1730017579676073551,9,-1.79,0.87,0.5,9.386968,-88.19,-89.57
1730017579777145594,1730017579776930809,9,-1.79,0.87,0.5,9.274399333333333,-84.95,-89.2
1730017579877705696,1730017579877389907,9,-1.79,0.87,0.5,9.143069666666667,-84.66,-87.18
1730017579978513438,1730017579978288650,9,-1.79,0.87,0.5,8.980470666666667,-86.94,-95.81
1730017580077795102,1730017580077625513,9,-1.79,0.87,0.5,8.880409666666667,-87.5,-91.44
1730017580177791462,1730017580177605390,9,-1.79,0.87,0.5,8.767841,-86.76,-91.93
1730017580678064471,1730017580677836179,9,-1.79,0.87,0.5,8.267536,-83.01,-99.5
1730017580778362624,1730017580778186798,9,-1.79,0.87,0.5,8.211251666666668,-84.45,-88.62
1730017580878389421,1730017580878220558,9,-1.79,0.87,0.5,8.204998000000002,-84.58,-86.8
1730017580977795578,1730017580977653026,9,-1.79,0.87,0.5,8.323820666666668,-86.2,-88.22
1730017581079388970,1730017581079052448,9,-1.79,0.87,0.5,8.311313333333333,-86.23,-90.43
1730017581178713118,1730017581178442716,9,-1.79,0.87,0.5,8.242521333333334,-86.55,-88.31
1730017581279074322,1730017581278870582,9,-1.79,0.87,0.5,8.136206333333334,-81.72,-85.41
1730017581378529787,1730017581378180980,9,-1.79,0.87,0.5,7.948591666666666,-82.72,-96.88
1730017581479197762,1730017581479059219,9,-1.79,0.87,0.5,7.685931666666666,-84.21,-93.26
1730017581578694801,1730017581578459501,9,-1.79,0.87,0.5,7.604632,-81.59,-83.95
1730017581678657147,1730017581678529977,9,-1.79,0.87,0.5,7.585870333333332,-80.72,-81.85
1730017581778689191,1730017581778404712,9,-1.79,0.87,0.5,7.642154333333333,-81.36,-86.06
1730017581878664191,1730017581878562450,9,-1.79,0.87,0.5,7.560855,-81.54,-82.67
1730017581978516215,1730017581978247404,9,-1.79,0.87,0.5,7.435779,-80.67,-81.89
1730017582078765431,1730017582078569173,9,-1.79,0.87,0.5,7.285687666666667,-80.05,-81.88
1730017582178581184,1730017582178404331,9,-1.79,0.87,0.5,7.116834999999999,-80.76,-81.63
1730017582279839559,1730017582279675245,9,-1.79,0.87,0.5,7.016774000000001,-80.12,-81.62
1730017582378694896,1730017582378488302,9,-1.79,0.87,0.5,6.929220666666667,-80.34,-81.37
1730017582478879632,1730017582478624343,9,-1.79,0.87,0.5,6.835413333333334,-79.75,-80.83
1730017582578851449,1730017582578483343,9,-1.79,0.87,0.5,6.729098666666666,-80.09,-81.15
1730017582678731909,1730017582678442478,9,-1.79,0.87,0.5,6.622784,-79.93,-80.76
1730017582778805609,1730017582778589487,9,-1.79,0.87,0.5,6.522723,-80.21,-81.03
1730017582878552864,1730017582878336668,9,-1.79,0.87,0.5,6.422662,-80.0,-81.01
1730017582978174023,1730017582977926492,9,-1.79,0.87,0.5,6.316347,-79.7,-80.51
1730017583078513608,1730017583078262329,9,-1.79,0.87,0.5,6.2225399999999995,-79.67,-80.46
1730017583178276137,1730017583178074359,9,-1.79,0.87,0.5,6.153748,-80.09,-80.78
1730017583278340752,1730017583278047561,9,-1.79,0.87,0.5,6.066194666666665,-79.51,-80.59
1730017583377934385,1730017583377794742,9,-1.79,0.87,0.5,5.978641333333333,-80.63,-81.29
1730017583477422761,1730017583477058887,9,-1.79,0.87,0.5,5.872326666666666,-80.04,-80.77
1730017583577123915,1730017583576866388,9,-1.79,0.87,0.5,5.791027333333333,-79.69,-80.72
1730017583677366012,1730017583677099943,9,-1.79,0.87,0.5,5.709727666666667,-79.91,-80.83
1730017583777334328,1730017583777102947,9,-1.79,0.87,0.5,5.6284279999999995,-79.56,-80.41
1730017583877377931,1730017583877165079,9,-1.79,0.87,0.5,5.553382333333334,-80.0,-81.41
1730017583977506843,1730017583977260351,9,-1.79,0.87,0.5,5.478336666666666,-79.73,-80.57
1730017584077878430,1730017584077564477,9,-1.79,0.87,0.5,5.409544999999999,-78.74,-80.46
1730017584177391011,1730017584177145004,9,-1.79,0.87,0.5,5.378276,-79.06,-80.38
1730017584277613526,1730017584277327060,9,-1.79,0.87,0.5,5.3470070000000005,-79.38,-80.58
1730017584377172112,1730017584376889944,9,-1.79,0.87,0.5,5.3470070000000005,-79.22,-80.86
1730017584477447907,1730017584477137327,9,-1.79,0.87,0.5,5.3470070000000005,-78.79,-80.62
1730017584577982380,1730017584577703714,9,-1.79,0.87,0.5,5.378276,-78.95,-80.83
1730017584678397972,1730017584678287267,9,-1.79,0.87,0.5,5.4095450000000005,-78.87,-80.48
1730017584778197067,1730017584777915716,9,-1.79,0.87,0.5,5.43456,-79.29,-80.7
1730017584878773366,1730017584878142118,9,-1.79,0.87,0.5,5.4720830000000005,-79.11,-80.76
1730017584977690405,1730017584977405548,9,-1.79,0.87,0.5,5.515859666666667,-79.05,-80.84
1730017585077677743,1730017585077416181,9,-1.79,0.87,0.5,5.559636333333334,-79.32,-80.87
1730017585177443231,1730017585176998376,9,-1.79,0.87,0.5,5.609666666666667,-79.13,-81.01
1730017585277212303,1730017585276998996,9,-1.79,0.87,0.5,5.647189333333333,-78.92,-80.69
1730017585377938192,1730017585377131700,9,-1.79,0.87,0.5,5.678458333333334,-79.12,-81.18
1730017585476796225,1730017585476104974,9,-1.79,0.87,0.5,5.7159813333333345,-79.17,-80.85
1730017585578766032,1730017585577557563,9,-1.79,0.87,0.5,5.834803999999999,-79.39,-81.08
1730017585677212732,1730017585677011966,9,-1.79,0.87,0.5,5.878580666666667,-79.12,-80.68
1730017585777148090,1730017585776875019,9,-1.79,0.87,0.5,5.934864999999999,-79.16,-81.01
1730017585877920037,1730017585877824544,9,-1.79,0.87,0.5,5.972387666666667,-78.99,-80.7
1730017585978791259,1730017585978578090,9,-1.79,0.87,0.5,6.016164333333333,-79.57,-80.65
1730017586078755960,1730017586078598976,9,-1.79,0.87,0.5,6.066195,-79.42,-81.06
1730017586178359458,1730017586178018093,9,-1.79,0.87,0.5,6.122479333333334,-79.61,-80.83
1730017586277196656,1730017586277016401,9,-1.79,0.87,0.5,6.197525,-79.37,-80.89
1730017586376567930,1730017586376116514,9,-1.79,0.87,0.5,6.260063,-80.49,-80.92
1730017586477489237,1730017586477141618,9,-1.79,0.87,0.5,6.328855,-78.98,-80.54
1730017586577157700,1730017586576946020,9,-1.79,0.87,0.5,6.385139333333334,-79.27,-81.14
1730017586677077770,1730017586676868200,9,-1.79,0.87,0.5,6.447677333333334,-79.17,-81.19
1730017586777314048,1730017586776983022,9,-1.79,0.87,0.5,6.503961666666666,-79.23,-80.56
1730017586876289277,1730017586876055479,9,-1.79,0.87,0.5,6.579007333333333,-80.02,-81.17
1730017586976412669,1730017586976064920,9,-1.79,0.87,0.5,6.641545666666667,-79.13,-80.74
1730017587076260085,1730017587076093912,9,-1.79,0.87,0.5,6.69783,-79.49,-80.61
1730017587176848295,1730017587176093101,9,-1.79,0.87,0.5,6.747860333333333,-79.56,-80.71
1730017587276386947,1730017587276082754,9,-1.79,0.87,0.5,6.816652,-79.04,-81.02
1730017587376437934,1730017587376061201,9,-1.79,0.87,0.5,6.9042053333333335,-79.98,-81.08
1730017587476465956,1730017587476059675,9,-1.79,0.87,0.5,6.998012666666668,-79.15,-81.52
1730017587576372320,1730017587576073646,9,-1.79,0.87,0.5,7.060551,-79.44,-80.82
1730017587676169637,1730017587676068305,9,-1.79,0.87,0.5,7.129342666666666,-79.57,-80.74
1730017587776481787,1730017587776054620,9,-1.79,0.87,0.5,7.173119333333333,-79.49,-80.76
1730017587876366059,1730017587876052141,9,-1.79,0.87,0.5,7.248165,-79.15,-80.45
1730017587976434574,1730017587976102590,9,-1.79,0.87,0.5,7.291941666666666,-78.84,-80.47
1730017588076561110,1730017588076071023,9,-1.79,0.87,0.5,7.360733333333333,-79.0,-80.56
1730017588176463830,1730017588176078081,9,-1.79,0.87,0.5,7.442032666666667,-79.71,-80.6
1730017588276266601,1730017588276068449,9,-1.79,0.87,0.5,7.529585999999999,-79.02,-80.72
1730017588376446625,1730017588376047372,9,-1.79,0.87,0.5,7.604632,-79.34,-80.69
1730017588476426993,1730017588476073980,9,-1.79,0.87,0.5,7.660916333333333,-79.21,-80.79
1730017588576384891,1730017588576054096,9,-1.79,0.87,0.5,7.735962000000001,-79.12,-80.81
1730017588676287826,1730017588676063537,9,-1.79,0.87,0.5,7.817261333333334,-79.12,-80.65
1730017588776473178,1730017588776088714,9,-1.79,0.87,0.5,7.911068666666668,-78.92,-81.02
1730017588876507301,1730017588876073360,9,-1.79,0.87,0.5,7.998622,-79.07,-80.67
1730017588976444952,1730017588976058721,9,-1.79,0.87,0.5,8.092429333333333,-78.75,-80.43
1730017589076186064,1730017589076076269,9,-1.79,0.87,0.5,8.173728666666667,-78.97,-80.39
1730017589176402691,1730017589176064252,9,-1.79,0.87,0.5,8.255028333333334,-78.87,-80.73
1730017589277470391,1730017589276119470,9,-1.79,0.87,0.5,8.336327666666667,-79.01,-80.97
1730017589378682907,1730017589378440141,9,-1.79,0.87,0.5,8.436388999999998,-79.41,-80.71
1730017589478865579,1730017589478675127,9,-1.79,0.87,0.5,8.53645,-79.35,-80.56
1730017589579112481,1730017589578843832,9,-1.79,0.87,0.5,8.636510999999999,-79.43,-80.57
1730017589678658712,1730017589678554534,9,-1.79,0.87,0.5,8.717810333333333,-79.22,-80.74
1730017589778720685,1730017589778465032,9,-1.79,0.87,0.5,8.79911,-79.36,-80.88
1730017589876441310,1730017589876067876,9,-1.79,0.87,0.5,8.886663333333333,-79.36,-80.93
1730017589976478835,1730017589976051092,9,-1.79,0.87,0.5,8.974216666666667,-79.49,-80.97
1730017590077310815,1730017590077020883,9,-1.79,0.87,0.5,9.093039,-81.57,-82.71
1730017590177099179,1730017590176958322,9,-1.79,0.87,0.5,9.224368999999998,-82.72,-83.14
1730017590277382735,1730017590277064085,9,-1.79,0.87,0.5,9.368206666666666,-82.06,-82.07
1730017590377504910,1730017590377055883,9,-1.79,0.87,0.5,9.462013666666666,-83.04,-83.79
1730017590476367351,1730017590476057291,9,-1.79,0.87,0.5,9.568328666666668,-82.19,-82.4
1730017590576566933,1730017590576040983,9,-1.79,0.87,0.5,9.630866666666668,-87.26,-88.93
1730017590678809997,1730017590678540706,9,-1.79,0.87,0.5,9.737181333333332,-84.44,-85.28
1730017590776170503,1730017590776056289,9,-1.79,0.87,0.5,9.818480666666666,-84.43,-85.69
1730017590877394783,1730017590877028465,9,-1.79,0.87,0.5,9.943556666666666,-83.96,-84.96
1730017590976341603,1730017590976052522,9,-1.79,0.87,0.5,10.043618,-82.5,-82.92
1730017591076408670,1730017591076064348,9,-1.79,0.87,0.5,10.156186666666667,-84.04,-84.33
1730017591176454291,1730017591176050186,9,-1.79,0.87,0.5,10.256247666666667,-87.68,-89.39
1730017591276551944,1730017591276061773,9,-1.79,0.87,0.5,10.381323666666667,-85.89,-87.81
1730017591376210918,1730017591376060009,9,-1.79,0.87,0.5,10.487638333333331,-82.82,-83.79
1730017591476721215,1730017591476058721,9,-1.79,0.87,0.5,10.606460999999998,-81.84,-81.81
1730017591578644292,1730017591578480720,9,-1.79,0.87,0.5,10.681506666666666,-81.19,-81.23
1730017591678029109,1730017591677727937,9,-1.79,0.87,0.5,10.781567666666668,-83.45,-83.55
1730017591778293292,1730017591778065919,9,-1.79,0.87,0.5,10.875374666666666,-81.98,-82.3
1730017591878811245,1730017591878659009,9,-1.79,0.87,0.5,10.994197333333334,-82.13,-82.09
1730017591979403219,1730017591979230642,9,-1.79,0.87,0.5,11.075497,-81.31,-81.23
1730017592078645135,1730017592078526496,9,-1.79,0.87,0.5,11.169304000000002,-81.85,-82.03
1730017592177500288,1730017592177093029,9,-1.79,0.87,0.5,11.269364666666668,-82.24,-82.39
1730017592277605004,1730017592277188777,9,-1.79,0.87,0.5,11.394440333333334,-84.09,-84.34
1730017592377336572,1730017592376963138,9,-1.79,0.87,0.5,11.507008999999998,-84.84,-84.96
1730017592477822934,1730017592477692604,9,-1.79,0.87,0.5,11.594562333333334,-82.94,-82.51
1730017592578003689,1730017592577787399,9,-1.79,0.87,0.5,11.682116,-81.75,-81.53
1730017592678509652,1730017592678160667,9,-1.79,0.87,0.5,11.769669333333335,-82.47,-82.13
1730017592778435459,1730017592778229475,9,-1.79,0.87,0.5,11.857222666666667,-82.32,-82.11
1730017592877355910,1730017592877136230,9,-1.79,0.87,0.5,11.957283666666667,-80.99,-81.42
1730017592977320325,1730017592977105855,9,-1.79,0.87,0.5,12.051090666666667,-81.15,-81.84
1730017593077326040,1730017593077000379,9,-1.79,0.87,0.5,12.163659333333333,-80.92,-82.44
1730017593177220085,1730017593176905155,9,-1.79,0.87,0.5,12.232451333333335,-79.77,-81.46
1730017593277281434,1730017593276980400,9,-1.79,0.87,0.5,12.320004666666668,-79.81,-80.82
1730017593377108277,1730017593376929044,9,-1.79,0.87,0.5,12.407558,-79.97,-80.64
1730017593477485421,1730017593477248430,9,-1.79,0.87,0.5,12.526379999999998,-81.89,-81.48
1730017593578192451,1730017593577093601,9,-1.79,0.87,0.5,12.626441333333334,-81.03,-80.94
1730017593677455203,1730017593677369594,9,-1.79,0.87,0.5,12.732756,-81.24,-81.23
1730017593777214252,1730017593776985168,9,-1.79,0.87,0.5,12.851578333333334,-81.46,-81.11
1730017593877205388,1730017593877039670,9,-1.79,0.87,0.5,12.976654333333334,-81.51,-81.23
1730017593977319291,1730017593976947784,9,-1.79,0.87,0.5,13.114238,-82.97,-82.34
1730017594077217896,1730017594077043056,9,-1.79,0.87,0.5,13.233060666666667,-82.05,-81.65
1730017594177241222,1730017594177020788,9,-1.79,0.87,0.5,13.358137,-82.6,-83.45
1730017594277805749,1730017594277573347,9,-1.79,0.87,0.5,13.558258666666667,-82.36,-82.13
1730017594377522018,1730017594377164363,9,-1.79,0.87,0.5,13.645812000000001,-82.31,-83.11
1730017594477272024,1730017594477081060,9,-1.79,0.87,0.5,13.733365333333333,-81.13,-81.69
1730017594577101550,1730017594576912403,9,-1.79,0.87,0.5,13.777142,-80.32,-81.53
1730017594677066461,1730017594676868200,9,-1.79,0.87,0.5,13.833426000000001,-80.29,-80.8
1730017594777163611,1730017594776905775,9,-1.79,0.87,0.5,13.877203,-80.71,-81.29
1730017594877270899,1730017594876975536,9,-1.79,0.87,0.5,13.920979666666666,-80.2,-81.14
1730017594977390076,1730017594977100372,9,-1.79,0.87,0.5,13.952249,-79.87,-80.56
1730017595077376028,1730017595077076673,9,-1.79,0.87,0.5,13.983517999999998,-79.84,-81.18
1730017595177185593,1730017595176959037,9,-1.79,0.87,0.5,13.996025666666666,-80.41,-81.19
1730017595277183297,1730017595276945829,9,-1.79,0.87,0.5,14.002279333333334,-79.33,-80.94
1730017595377176503,1730017595376944065,9,-1.79,0.87,0.5,14.014786666666666,-79.17,-80.46
1730017595477017443,1730017595476753234,9,-1.79,0.87,0.5,14.027294333333332,-79.26,-81.19
1730017595577759063,1730017595577569961,9,-1.79,0.87,0.5,14.033548000000001,-79.6,-80.81
1730017595677832363,1730017595677527904,9,-1.79,0.87,0.5,14.021040666666666,-79.65,-81.04
1730017595777886370,1730017595777666807,9,-1.79,0.87,0.5,14.033548000000001,-79.62,-80.61
1730017595878130272,1730017595877929210,9,-1.79,0.87,0.5,14.021040666666666,-79.99,-80.64
1730017595978203426,1730017595978006124,9,-1.79,0.87,0.5,14.021040666666666,-79.54,-82.1
1730017596079055091,1730017596078739166,9,-1.79,0.87,0.5,13.996025666666666,-79.79,-80.55
1730017596177797063,1730017596177617073,9,-1.79,0.87,0.5,13.977264,-79.34,-80.87
1730017596277836495,1730017596277636766,9,-1.79,0.87,0.5,13.945995000000002,-79.25,-80.95
1730017596377822738,1730017596377636909,9,-1.79,0.87,0.5,13.933487333333332,-79.35,-81.18
1730017596477823715,1730017596477664470,9,-1.79,0.87,0.5,13.920979666666666,-79.39,-80.83
1730017596577806793,1730017596577647209,9,-1.79,0.87,0.5,13.902218,-79.87,-81.57
1730017596677619149,1730017596677196502,9,-1.79,0.87,0.5,13.870949000000001,-79.58,-80.61
1730017596777403208,1730017596776992321,9,-1.79,0.87,0.5,13.845934,-79.81,-81.07
1730017596877522984,1730017596877310752,9,-1.79,0.87,0.5,13.845934,-80.17,-80.89
1730017596976209803,1730017596976071357,9,-1.79,0.87,0.5,13.820918666666666,-81.45,-81.82
1730017597076400099,1730017597076043605,9,-1.79,0.87,0.5,13.802157,-81.46,-81.26
1730017597176457025,1730017597176057577,9,-1.79,0.87,0.5,13.770888,-81.84,-82.02
1730017597276348828,1730017597276053667,9,-1.79,0.87,0.5,13.745872666666665,-82.4,-82.81
1730017597376427557,1730017597376058340,9,-1.79,0.87,0.5,13.708350000000001,-82.18,-83.59
1730017597477520271,1730017597477177381,9,-1.79,0.87,0.5,13.664573333333335,-82.01,-84.25
1730017597578072219,1730017597577811717,9,-1.79,0.87,0.5,13.614542999999998,-81.64,-81.66
1730017597678018887,1730017597677821159,9,-1.79,0.87,0.5,13.558258666666665,-81.71,-81.92
1730017597776552251,1730017597776061296,9,-1.79,0.87,0.5,13.489466666666667,-81.32,-81.78
1730017597877183239,1730017597876968383,9,-1.79,0.87,0.5,13.470705333333333,-84.39,-85.32
1730017597977232765,1730017597976916313,9,-1.79,0.87,0.5,13.414420999999999,-81.14,-81.36
1730017598076283432,1730017598076064109,9,-1.79,0.87,0.5,13.376898333333335,-81.01,-81.01
1730017598176208410,1730017598176063060,9,-1.79,0.87,0.5,13.295598666666669,-81.8,-81.8
1730017598277362451,1730017598277081012,9,-1.79,0.87,0.5,13.245568,-80.87,-81.25
1730017598778386030,1730017598778289556,9,-1.79,0.87,0.5,12.939131666666666,-80.57,-81.39
1730017598877852153,1730017598877699375,9,-1.79,0.87,0.5,12.864086,-80.52,-81.58
1730017598978336292,1730017598978164196,9,-1.79,0.87,0.5,12.801547666666666,-81.2,-82.16
1730017599078004269,1730017599077589511,9,-1.79,0.87,0.5,12.720248,-80.36,-80.98
1730017599177374666,1730017599177187681,9,-1.79,0.87,0.5,12.638948666666666,-80.58,-81.23
1730017599279204985,1730017599279040575,9,-1.79,0.87,0.5,12.551395333333334,-80.85,-83.01
