%time,field.stamp,field.id,field.x,field.y,field.z,field.distanceFromTag,field.rssi,field.rssi_fp
1734501485316789022,1734501485316343784,5,2.5775,-0.87,1.97,6.153748333333333,-80.26,-80.97
1734501485416324480,1734501485416082382,5,2.5775,-0.87,1.97,6.147494333333333,-79.85,-80.66
1734501485516931745,1734501485516475677,5,2.5775,-0.87,1.97,6.141240333333333,-80.08,-80.67
1734501485616923844,1734501485616530179,5,2.5775,-0.87,1.97,6.147494333333333,-79.94,-80.9
1734501485716358875,1734501485716170549,5,2.5775,-0.87,1.97,6.153748333333333,-80.01,-81.17
1734501485816494742,1734501485816107988,5,2.5775,-0.87,1.97,6.153748333333333,-79.92,-80.58
1734501485916380295,1734501485916152000,5,2.5775,-0.87,1.97,6.166256,-80.15,-81.26
1734501486016711529,1734501486016446828,5,2.5775,-0.87,1.97,6.166256,-79.73,-80.86
1734501486116499388,1734501486116124629,5,2.5775,-0.87,1.97,6.185017333333334,-80.62,-81.12
1734501486216404983,1734501486216135978,5,2.5775,-0.87,1.97,6.185017333333334,-80.76,-81.45
1734501486316852406,1734501486316457033,5,2.5775,-0.87,1.97,6.178763333333333,-80.39,-81.05
1734501486417306860,1734501486416922807,5,2.5775,-0.87,1.97,6.1600019999999995,-80.05,-80.77
1734501486516498144,1734501486516415834,5,2.5775,-0.87,1.97,6.153748,-79.85,-80.55
1734501486616550543,1734501486616286754,5,2.5775,-0.87,1.97,6.166255666666667,-79.76,-81.14
1734501486716601724,1734501486716326475,5,2.5775,-0.87,1.97,6.172509666666667,-79.82,-81.29
1734501486817106580,1734501486816524505,5,2.5775,-0.87,1.97,6.166256,-79.85,-80.73
1734501486916363754,1734501486916109800,5,2.5775,-0.87,1.97,6.134986666666666,-80.17,-80.76
1734501487016785265,1734501487016499042,5,2.5775,-0.87,1.97,6.147494333333333,-79.77,-81.58
1734501487116563731,1734501487116334915,5,2.5775,-0.87,1.97,6.134986666666666,-80.7,-81.87
1734501487216512187,1734501487216176986,5,2.5775,-0.87,1.97,6.153748333333333,-79.7,-80.88
1734501487318053575,1734501487317237138,5,2.5775,-0.87,1.97,6.134987,-80.71,-81.59
1734501487417449440,1734501487417212247,5,2.5775,-0.87,1.97,6.1600019999999995,-79.8,-80.81
1734501487516471109,1734501487516164302,5,2.5775,-0.87,1.97,6.166255666666667,-79.44,-80.79
1734501487616361369,1734501487616040229,5,2.5775,-0.87,1.97,6.172509333333333,-79.82,-80.98
1734501487716410149,1734501487716159582,5,2.5775,-0.87,1.97,6.153748,-80.07,-80.98
1734501487817265469,1734501487816877365,5,2.5775,-0.87,1.97,6.166255666666667,-79.98,-81.18
1734501488616768556,1734501488616515159,5,2.5775,-0.87,1.97,6.1600019999999995,-79.99,-80.86
1734501488716268136,1734501488715055942,5,2.5775,-0.87,1.97,6.1600019999999995,-80.04,-80.69
1734501488815482580,1734501488815041065,5,2.5775,-0.87,1.97,6.1600019999999995,-79.74,-80.48
1734501488917996152,1734501488917765378,5,2.5775,-0.87,1.97,6.172509666666667,-79.94,-80.67
1734501489017228026,1734501489017062902,5,2.5775,-0.87,1.97,6.185017333333334,-80.16,-80.81
1734501489117493146,1734501489117182254,5,2.5775,-0.87,1.97,6.172509666666667,-79.95,-80.53
1734501489217280183,1734501489217035531,5,2.5775,-0.87,1.97,6.166255666666667,-79.82,-80.85
1734501489320829423,1734501489320533275,5,2.5775,-0.87,1.97,6.141240333333333,-80.41,-80.91
1734501489417499717,1734501489417331457,5,2.5775,-0.87,1.97,6.134986666666666,-80.07,-80.76
1734501489517317665,1734501489517178535,5,2.5775,-0.87,1.97,6.134986666666666,-80.2,-81.06
1734501489617398759,1734501489617167711,5,2.5775,-0.87,1.97,6.153748333333333,-80.0,-80.68
1734501489717338985,1734501489717047691,5,2.5775,-0.87,1.97,6.153748333333333,-80.05,-81.24
1734501489847639911,1734501489847558498,5,2.5775,-0.87,1.97,6.147494666666667,-80.3,-80.96
1734501489917472024,1734501489917228460,5,2.5775,-0.87,1.97,6.134987,-79.91,-80.87
1734501490016440945,1734501490016233682,5,2.5775,-0.87,1.97,6.1287329999999995,-79.95,-81.07
1734501490116761382,1734501490116409063,5,2.5775,-0.87,1.97,6.141240666666666,-80.01,-80.88
1734501490216310967,1734501490216177225,5,2.5775,-0.87,1.97,6.134986666666666,-80.28,-81.21
1734501490317387427,1734501490317044258,5,2.5775,-0.87,1.97,6.153748333333333,-80.54,-82.05
1734501490416521065,1734501490416382789,5,2.5775,-0.87,1.97,6.147494333333333,-79.61,-80.96
1734501490516415714,1734501490516263961,5,2.5775,-0.87,1.97,6.166256,-81.02,-81.27
1734501490616638122,1734501490616254091,5,2.5775,-0.87,1.97,6.1600019999999995,-79.91,-80.69
1734501490716691263,1734501490716435909,5,2.5775,-0.87,1.97,6.166256,-80.3,-80.66
1734501490816483048,1734501490816304683,5,2.5775,-0.87,1.97,6.1600019999999995,-80.14,-81.0
1734501490915361880,1734501490915009021,5,2.5775,-0.87,1.97,6.1600019999999995,-80.19,-80.82
1734501491016439532,1734501491016157865,5,2.5775,-0.87,1.97,6.166255666666667,-80.02,-81.34
1734501491118835376,1734501491118604183,5,2.5775,-0.87,1.97,6.166255666666667,-80.15,-81.24
1734501491216421702,1734501491216191291,5,2.5775,-0.87,1.97,6.178763333333333,-79.77,-81.11
1734501491316489231,1734501491316220045,5,2.5775,-0.87,1.97,6.172509666666667,-80.29,-81.49
1734501491416791996,1734501491416429758,5,2.5775,-0.87,1.97,6.178763666666666,-79.54,-80.72
1734501491518456408,1734501491518160581,5,2.5775,-0.87,1.97,6.203779,-84.24,-83.82
1734501491718100081,1734501491717888832,5,2.5775,-0.87,1.97,6.203779,-80.36,-81.01
1734501491818838656,1734501491818645000,5,2.5775,-0.87,1.97,6.203779,-80.03,-80.98
1734501491918305292,1734501491918120622,5,2.5775,-0.87,1.97,6.160002333333334,-80.17,-81.05
1734501492018865889,1734501492018332004,5,2.5775,-0.87,1.97,6.153748333333333,-80.09,-80.85
1734501492117978923,1734501492117625713,5,2.5775,-0.87,1.97,6.147494333333333,-80.13,-80.76
1734501492218482649,1734501492218195676,5,2.5775,-0.87,1.97,6.147494333333333,-79.93,-80.93
1734501492315550709,1734501492315103292,5,2.5775,-0.87,1.97,6.153748333333333,-80.05,-80.56
1734501492415615876,1734501492415014028,5,2.5775,-0.87,1.97,6.153748333333333,-80.3,-81.05
1734501492515265095,1734501492515031099,5,2.5775,-0.87,1.97,6.166256,-79.64,-80.82
1734501492615428388,1734501492615002632,5,2.5775,-0.87,1.97,6.1600019999999995,-79.93,-80.78
1734501492715464463,1734501492715022087,5,2.5775,-0.87,1.97,6.1600019999999995,-80.27,-81.06
1734501492818392465,1734501492818238258,5,2.5775,-0.87,1.97,6.153748,-79.79,-81.43
1734501493315716267,1734501493315127134,5,2.5775,-0.87,1.97,6.1600019999999995,-80.75,-81.4
1734501493415313794,1734501493415007829,5,2.5775,-0.87,1.97,6.153748333333333,-80.18,-81.61
1734501493515344496,1734501493515020847,5,2.5775,-0.87,1.97,6.141240666666666,-79.98,-80.55
1734501493615706374,1734501493615126132,5,2.5775,-0.87,1.97,6.1287329999999995,-80.19,-81.0
1734501493716239366,1734501493716105461,5,2.5775,-0.87,1.97,6.1037176666666655,-79.9,-80.86
1734501493815340462,1734501493815029144,5,2.5775,-0.87,1.97,6.078702333333333,-80.35,-81.02
1734501493915422264,1734501493915038108,5,2.5775,-0.87,1.97,6.034925666666666,-79.9,-81.01
1734501494017502150,1734501494017264842,5,2.5775,-0.87,1.97,6.003656666666667,-79.7,-80.62
1734501494117573513,1734501494117399215,5,2.5775,-0.87,1.97,5.953626333333333,-79.66,-80.59
1734501494217784373,1734501494217424392,5,2.5775,-0.87,1.97,5.928611,-79.41,-80.94
1734501494317944491,1734501494317617416,5,2.5775,-0.87,1.97,5.897341999999999,-80.09,-81.64
1734501494417811625,1734501494417568445,5,2.5775,-0.87,1.97,5.859819000000001,-79.66,-81.02
1734501494517564613,1734501494517271757,5,2.5775,-0.87,1.97,5.822296333333334,-80.56,-81.58
1734501494617210727,1734501494617123603,5,2.5775,-0.87,1.97,5.766012,-79.71,-80.8
1734501494717532914,1734501494717319965,5,2.5775,-0.87,1.97,5.703474,-79.79,-81.07
1734501494817655092,1734501494817329645,5,2.5775,-0.87,1.97,5.622174333333334,-79.84,-80.64
1734501494917793128,1734501494917589426,5,2.5775,-0.87,1.97,5.559636333333334,-80.16,-80.78
1734501495018382063,1734501495018126249,5,2.5775,-0.87,1.97,5.4908443333333325,-80.06,-80.98
1734501495118726455,1734501495118527650,5,2.5775,-0.87,1.97,5.4595753333333334,-79.35,-80.89
1734501495218224734,1734501495218023061,5,2.5775,-0.87,1.97,5.409544666666666,-79.4,-81.75
1734501495318488604,1734501495318118095,5,2.5775,-0.87,1.97,5.3532606666666664,-79.55,-81.41
1734501495418257007,1734501495418057918,5,2.5775,-0.87,1.97,5.271961333333333,-79.37,-80.57
1734501495518487750,1734501495518266677,5,2.5775,-0.87,1.97,5.2094233333333335,-79.43,-80.5
1734501495618187012,1734501495617978572,5,2.5775,-0.87,1.97,5.1468853333333335,-79.51,-80.77
1734501495718443757,1734501495718147277,5,2.5775,-0.87,1.97,5.084347,-79.43,-80.89
1734501495817935284,1734501495817799568,5,2.5775,-0.87,1.97,5.021809,-79.51,-80.82
1734501495918003580,1734501495917768955,5,2.5775,-0.87,1.97,4.959270666666666,-79.22,-80.55
1734501496018112563,1734501496017987251,5,2.5775,-0.87,1.97,4.902986333333334,-79.18,-80.69
1734501496117836988,1734501496117719650,5,2.5775,-0.87,1.97,4.809179,-79.5,-80.97
1734501496217915522,1734501496217735767,5,2.5775,-0.87,1.97,4.746641,-79.8,-80.69
1734501496317926031,1734501496317687511,5,2.5775,-0.87,1.97,4.690357,-79.15,-80.49
1734501496418042597,1734501496417750597,5,2.5775,-0.87,1.97,4.652834333333334,-79.11,-80.98
1734501496518125513,1734501496517837524,5,2.5775,-0.87,1.97,4.590296333333334,-78.89,-80.79
1734501496618616969,1734501496618253707,5,2.5775,-0.87,1.97,4.521504333333334,-78.99,-81.32
1734501496718054716,1734501496717869758,5,2.5775,-0.87,1.97,4.458966333333334,-79.08,-81.15
1734501496818324733,1734501496818097114,5,2.5775,-0.87,1.97,4.390174333333333,-79.22,-80.39
1734501496918255850,1734501496917962789,5,2.5775,-0.87,1.97,4.315128666666667,-78.95,-80.66
1734501497017882510,1734501497017638683,5,2.5775,-0.87,1.97,4.258844333333333,-78.81,-80.45
1734501497118235747,1734501497117952823,5,2.5775,-0.87,1.97,4.20256,-78.95,-80.6
1734501497218190205,1734501497217845678,5,2.5775,-0.87,1.97,4.146275666666667,-79.0,-80.63
1734501497318165147,1734501497317970752,5,2.5775,-0.87,1.97,4.064976,-79.28,-80.55
1734501497417717427,1734501497417546987,5,2.5775,-0.87,1.97,4.014945666666667,-79.02,-81.2
1734501497518547954,1734501497517807006,5,2.5775,-0.87,1.97,3.9524076666666663,-79.09,-81.27
1734501497617663878,1734501497617520570,5,2.5775,-0.87,1.97,3.9023773333333334,-79.09,-81.77
1734501497718024239,1734501497717751979,5,2.5775,-0.87,1.97,3.839839,-79.08,-81.11
1734501497818075229,1734501497817927122,5,2.5775,-0.87,1.97,3.7773006666666666,-79.26,-80.4
1734501497918320254,1734501497918152093,5,2.5775,-0.87,1.97,3.7335239999999996,-78.94,-80.39
1734501498018128002,1734501498017892837,5,2.5775,-0.87,1.97,3.677239666666667,-79.23,-80.97
1734501498118401681,1734501498118115425,5,2.5775,-0.87,1.97,3.6522243333333333,-78.73,-80.51
1734501498218104473,1734501498217824220,5,2.5775,-0.87,1.97,3.6084476666666667,-78.8,-80.6
1734501498616478440,1734501498616192817,5,2.5775,-0.87,1.97,3.4771176666666666,-79.5,-80.62
1734501498716560813,1734501498716190814,5,2.5775,-0.87,1.97,3.458356333333333,-79.04,-80.45
1734501498816638118,1734501498816276550,5,2.5775,-0.87,1.97,3.439595,-79.44,-81.23
1734501498915536489,1734501498915070772,5,2.5775,-0.87,1.97,3.427087333333333,-78.99,-80.61
1734501499015329568,1734501499015037298,5,2.5775,-0.87,1.97,3.395818333333333,-79.62,-80.87
1734501499117477870,1734501499117219924,5,2.5775,-0.87,1.97,3.3833106666666666,-79.09,-80.75
1734501499218602803,1734501499218361854,5,2.5775,-0.87,1.97,3.3833106666666666,-78.99,-80.6
1734501499318095620,1734501499317836284,5,2.5775,-0.87,1.97,3.420833333333333,-79.41,-80.85
1734501499417882236,1734501499417728185,5,2.5775,-0.87,1.97,3.427087,-79.18,-80.74
1734501499517989836,1734501499517865180,5,2.5775,-0.87,1.97,3.4458486666666666,-79.72,-80.83
1734501499617780809,1734501499617498636,5,2.5775,-0.87,1.97,3.427087333333333,-79.21,-80.49
1734501499717116760,1734501499716878414,5,2.5775,-0.87,1.97,3.458356333333333,-79.15,-80.42
1734501499817827671,1734501499817626476,5,2.5775,-0.87,1.97,3.495879,-79.25,-81.06
1734501499917042128,1734501499916930198,5,2.5775,-0.87,1.97,3.5459096666666667,-79.3,-81.07
1734501500017658324,1734501500017275810,5,2.5775,-0.87,1.97,3.583432666666667,-79.06,-81.2
1734501500117952890,1734501500117679119,5,2.5775,-0.87,1.97,3.6522246666666667,-79.22,-80.47
1734501500217356996,1734501500217177629,5,2.5775,-0.87,1.97,3.677239666666667,-79.24,-80.73
1734501500316727603,1734501500316225051,5,2.5775,-0.87,1.97,3.7147623333333333,-79.41,-81.24
1734501500416559932,1734501500416181325,5,2.5775,-0.87,1.97,3.7585390000000003,-78.71,-80.38
1734501500516543602,1734501500516136407,5,2.5775,-0.87,1.97,3.8398386666666666,-79.28,-80.89
1734501500616582907,1734501500616328716,5,2.5775,-0.87,1.97,3.9211383333333334,-78.89,-80.49
1734501500716845484,1734501500716708421,5,2.5775,-0.87,1.97,3.958661333333333,-79.23,-80.5
1734501500815395429,1734501500815016746,5,2.5775,-0.87,1.97,4.027453333333333,-78.77,-80.39
1734501500915485977,1734501500915009737,5,2.5775,-0.87,1.97,4.102499,-78.89,-80.63
1734501501018663142,1734501501018450021,5,2.5775,-0.87,1.97,4.183798333333333,-79.16,-80.79
1734501501118978371,1734501501118709564,5,2.5775,-0.87,1.97,4.240082666666666,-79.16,-80.87
1734501501218125281,1734501501217994451,5,2.5775,-0.87,1.97,4.302620999999999,-78.96,-81.17
1734501501318237472,1734501501317907094,5,2.5775,-0.87,1.97,4.396428333333333,-78.91,-80.79
1734501501417926013,1734501501417679786,5,2.5775,-0.87,1.97,4.483981666666666,-79.33,-80.53
1734501501518505885,1734501501518282890,5,2.5775,-0.87,1.97,4.59655,-78.78,-80.77
1734501501618455420,1734501501617753028,5,2.5775,-0.87,1.97,4.671595666666666,-78.82,-80.8
1734501501718214003,1734501501718001365,5,2.5775,-0.87,1.97,4.784164,-78.86,-80.53
1734501501817814119,1734501501817506074,5,2.5775,-0.87,1.97,4.859209666666666,-80.19,-80.81
1734501501918474530,1734501501918107509,5,2.5775,-0.87,1.97,4.971778333333333,-79.16,-80.69
1734501502018188267,1734501502017910718,5,2.5775,-0.87,1.97,5.065585333333334,-78.83,-81.02
1734501502118262481,1734501502118109226,5,2.5775,-0.87,1.97,5.165646333333334,-79.27,-80.81
1734501502217900706,1734501502217734098,5,2.5775,-0.87,1.97,5.253199666666667,-79.94,-80.76
1734501502318155673,1734501502317987918,5,2.5775,-0.87,1.97,5.372022333333334,-79.21,-80.69
1734501502417933108,1734501502417793035,5,2.5775,-0.87,1.97,5.603413,-79.2,-81.06
1734501502518394104,1734501502518162488,5,2.5775,-0.87,1.97,5.690966333333333,-79.26,-80.76
1734501502618378129,1734501502618106126,5,2.5775,-0.87,1.97,5.791027333333333,-79.73,-80.7
1734501502718547673,1734501502718253612,5,2.5775,-0.87,1.97,5.928611,-78.96,-80.67
1734501502818134223,1734501502817958831,5,2.5775,-0.87,1.97,6.066194666666667,-79.95,-83.15
1734501502918594281,1734501502917763471,5,2.5775,-0.87,1.97,6.191271,-79.25,-80.82
1734501503018780849,1734501503018590927,5,2.5775,-0.87,1.97,6.278824333333334,-80.29,-80.96
1734501503118319197,1734501503118061542,5,2.5775,-0.87,1.97,6.366377666666668,-79.41,-80.83
1734501503218109754,1734501503217914342,5,2.5775,-0.87,1.97,6.472692333333334,-78.87,-81.52
1734501503317873829,1734501503317567825,5,2.5775,-0.87,1.97,6.591515,-78.99,-81.98
1734501503418398049,1734501503418143749,5,2.5775,-0.87,1.97,6.747860333333333,-79.54,-83.37
1734501503615475581,1734501503615036964,5,2.5775,-0.87,1.97,6.916713333333334,-79.41,-81.24
1734501503715322493,1734501503715021133,5,2.5775,-0.87,1.97,7.091819999999999,-79.76,-80.76
1734501503815512963,1734501503815032482,5,2.5775,-0.87,1.97,7.2231499999999995,-79.38,-81.28
1734501503915181946,1734501503915014028,5,2.5775,-0.87,1.97,7.354479666666666,-79.46,-81.92
1734501504015464638,1734501504015028953,5,2.5775,-0.87,1.97,7.467048000000001,-79.12,-81.38
1734501504115380839,1734501504114999294,5,2.5775,-0.87,1.97,7.610885333333333,-79.68,-81.17
1734501504216409467,1734501504216325521,5,2.5775,-0.87,1.97,7.729708,-79.36,-80.6
1734501504315295581,1734501504315008878,5,2.5775,-0.87,1.97,7.848530333333333,-80.13,-80.63
1734501504415488964,1734501504415012121,5,2.5775,-0.87,1.97,7.9548456666666665,-79.92,-80.62
1734501504515357410,1734501504515009641,5,2.5775,-0.87,1.97,8.073668,-80.43,-80.87
1734501504615209441,1734501504614937067,5,2.5775,-0.87,1.97,8.198744333333334,-79.85,-81.9
1734501504718180073,1734501504717972993,5,2.5775,-0.87,1.97,8.330074000000002,-79.95,-81.73
1734501504817514124,1734501504817345380,5,2.5775,-0.87,1.97,8.467658,-79.45,-81.07
1734501504917826401,1734501504917571544,5,2.5775,-0.87,1.97,8.605242,-80.46,-80.73
1734501505017370540,1734501505017237663,5,2.5775,-0.87,1.97,8.749079666666669,-79.76,-80.7
1734501505117671598,1734501505117460966,5,2.5775,-0.87,1.97,8.874155666666667,-79.99,-80.77
1734501505217497688,1734501505217182159,5,2.5775,-0.87,1.97,8.999231666666667,-80.11,-81.03
1734501505317756253,1734501505317488431,5,2.5775,-0.87,1.97,9.130561666666667,-79.84,-81.07
1734501505417095266,1734501505416870117,5,2.5775,-0.87,1.97,9.255638,-79.85,-81.27
1734501505517958453,1734501505517548322,5,2.5775,-0.87,1.97,9.393222,-80.24,-81.06
1734501505617543299,1734501505617228984,5,2.5775,-0.87,1.97,9.537059666666666,-80.14,-80.87
1734501505716593403,1734501505716247320,5,2.5775,-0.87,1.97,9.668389666666668,-79.94,-80.63
1734501505817409838,1734501505817162990,5,2.5775,-0.87,1.97,9.793465666666668,-79.92,-80.73
1734501505918062158,1734501505917971849,5,2.5775,-0.87,1.97,9.912288,-79.71,-80.59
1734501506017371662,1734501506017173767,5,2.5775,-0.87,1.97,10.056125666666667,-80.32,-80.86
1734501506118177605,1734501506118013381,5,2.5775,-0.87,1.97,10.187456,-80.11,-81.05
1734501506217269192,1734501506217029333,5,2.5775,-0.87,1.97,10.318786000000001,-80.11,-80.89
1734501506317325485,1734501506317232608,5,2.5775,-0.87,1.97,10.456369666666667,-79.78,-80.71
1734501506417442183,1734501506417186021,5,2.5775,-0.87,1.97,10.593953333333333,-80.36,-81.97
1734501506517197664,1734501506516934633,5,2.5775,-0.87,1.97,10.737791,-80.44,-81.22
1734501506617567284,1734501506617359638,5,2.5775,-0.87,1.97,10.887882333333332,-82.21,-83.04
1734501506717343269,1734501506717000484,5,2.5775,-0.87,1.97,11.037973666666666,-80.59,-82.08
1734501506817718649,1734501506817522287,5,2.5775,-0.87,1.97,11.181811333333334,-80.02,-80.96
1734501506917522097,1734501506917338371,5,2.5775,-0.87,1.97,11.306887666666668,-79.97,-80.78
1734501507017604928,1734501507017390489,5,2.5775,-0.87,1.97,11.438217666666667,-79.95,-81.08
1734501507117332918,1734501507117206335,5,2.5775,-0.87,1.97,11.569547666666667,-80.21,-80.92
1734501507217224423,1734501507217128992,5,2.5775,-0.87,1.97,11.719639,-79.68,-80.93
1734501507317123911,1734501507316979646,5,2.5775,-0.87,1.97,11.875984333333335,-80.32,-81.6
1734501507417688865,1734501507417401075,5,2.5775,-0.87,1.97,12.032329666666667,-80.52,-81.16
1734501507517549716,1734501507517302036,5,2.5775,-0.87,1.97,12.176167333333332,-80.48,-80.85
1734501507617845973,1734501507617675304,5,2.5775,-0.87,1.97,12.307497,-80.56,-82.28
1734501507717464578,1734501507717210531,5,2.5775,-0.87,1.97,12.432573,-81.83,-81.96
1734501507818326146,1734501507818103075,5,2.5775,-0.87,1.97,12.551395333333332,-80.88,-81.15
1734501507917477636,1734501507917080640,5,2.5775,-0.87,1.97,12.695233000000002,-83.28,-85.34
1734501508018022440,1734501508017688989,5,2.5775,-0.87,1.97,12.839070333333334,-80.95,-81.72
1734501508117231858,1734501508117054939,5,2.5775,-0.87,1.97,12.995415666666666,-80.58,-81.0
1734501508217161880,1734501508216960430,5,2.5775,-0.87,1.97,13.132999333333332,-80.37,-81.26
1734501508317626539,1734501508317291021,5,2.5775,-0.87,1.97,13.270583666666667,-81.02,-81.1
1734501508417406810,1734501508417275905,5,2.5775,-0.87,1.97,13.408167333333333,-80.08,-81.0
1734501508517727212,1734501508517589330,5,2.5775,-0.87,1.97,13.545751333333333,-80.45,-81.48
1734501508617119172,1734501508616969585,5,2.5775,-0.87,1.97,13.683335,-80.25,-80.75
1734501509015435997,1734501509014990091,5,2.5775,-0.87,1.97,13.964756333333334,-80.46,-81.0
1734501509116611983,1734501509116374254,5,2.5775,-0.87,1.97,14.246178,-80.48,-81.29
1734501509216524668,1734501509216278553,5,2.5775,-0.87,1.97,14.527599333333333,-81.05,-82.94
1734501509315475144,1734501509315022230,5,2.5775,-0.87,1.97,14.652675666666667,-81.31,-81.58
1734501509415576736,1734501509415033340,5,2.5775,-0.87,1.97,14.790259333333333,-81.95,-82.6
1734501509616724475,1734501509616491317,5,2.5775,-0.87,1.97,14.971619666666664,-81.65,-82.97
1734501509716690160,1734501509716357469,5,2.5775,-0.87,1.97,15.171741666666668,-84.07,-84.42
1734501509815330383,1734501509815031290,5,2.5775,-0.87,1.97,15.371863333333332,-81.41,-81.58
1734501509917251598,1734501509917082786,5,2.5775,-0.87,1.97,15.521954666666668,-81.16,-81.47
1734501510016373064,1734501510016169309,5,2.5775,-0.87,1.97,15.665792000000001,-81.34,-81.61
1734501510117542159,1734501510117376565,5,2.5775,-0.87,1.97,15.797122,-80.64,-81.36
1734501510217539561,1734501510217243671,5,2.5775,-0.87,1.97,15.934705333333333,-80.84,-81.0
1734501510317192712,1734501510317013978,5,2.5775,-0.87,1.97,16.172349999999998,-80.31,-80.68
1734501510417752017,1734501510417547702,5,2.5775,-0.87,1.97,16.309934,-80.53,-80.94
1734501510518052947,1734501510517795801,5,2.5775,-0.87,1.97,16.485040666666666,-80.71,-81.46
1734501510617335469,1734501510617145776,5,2.5775,-0.87,1.97,16.635132,-80.51,-81.47
1734501510717391235,1734501510717156648,5,2.5775,-0.87,1.97,16.797731,-81.45,-81.48
1734501510817757517,1734501510817485094,5,2.5775,-0.87,1.97,16.941568666666665,-80.77,-80.96
1734501510918094192,1734501510917899847,5,2.5775,-0.87,1.97,17.085406333333335,-82.16,-82.13
1734501511018272241,1734501511018101215,5,2.5775,-0.87,1.97,17.197975,-80.89,-81.21
1734501511118277839,1734501511118084430,5,2.5775,-0.87,1.97,17.35431966666667,-80.69,-81.15
1734501511218174710,1734501511217962503,5,2.5775,-0.87,1.97,17.491903666666666,-80.8,-81.21
1734501511318262983,1734501511318030595,5,2.5775,-0.87,1.97,17.635741333333332,-81.72,-82.03
1734501511417861484,1734501511417686939,5,2.5775,-0.87,1.97,17.779579,-83.88,-84.5
1734501511518083459,1734501511517832040,5,2.5775,-0.87,1.97,17.935924333333332,-81.75,-81.43
1734501511618003434,1734501511617799997,5,2.5775,-0.87,1.97,18.092269666666667,-83.68,-86.16
1734501511719551579,1734501511719287395,5,2.5775,-0.87,1.97,18.229853666666667,-82.39,-81.89
1734501511817972483,1734501511817775249,5,2.5775,-0.87,1.97,18.361183333333333,-84.51,-85.17
1734501511918046291,1734501511917884826,5,2.5775,-0.87,1.97,18.492513,-82.99,-85.43
1734501512017786879,1734501512017656564,5,2.5775,-0.87,1.97,18.611335666666665,-83.31,-85.63
1734501512118049781,1734501512117798089,5,2.5775,-0.87,1.97,18.748919333333333,-83.29,-85.41
1734501512218081655,1734501512217924118,5,2.5775,-0.87,1.97,18.880249333333335,-84.02,-84.15
1734501512317977155,1734501512317714929,5,2.5775,-0.87,1.97,19.030340666666664,-82.76,-82.8
1734501512418253325,1734501512418148279,5,2.5775,-0.87,1.97,19.167924666666664,-83.28,-82.95
1734501512518074718,1734501512517905235,5,2.5775,-0.87,1.97,19.330524333333333,-82.73,-83.61
1734501512618044687,1734501512617796897,5,2.5775,-0.87,1.97,19.468108333333333,-83.62,-83.16
1734501512717840792,1734501512717617511,5,2.5775,-0.87,1.97,19.618199333333333,-84.09,-85.21
1734501512818102767,1734501512817845582,5,2.5775,-0.87,1.97,19.762036666666667,-82.4,-82.71
1734501512917919417,1734501512917715787,5,2.5775,-0.87,1.97,19.88085866666667,-82.34,-82.23
1734501513017895950,1734501513017726182,5,2.5775,-0.87,1.97,20.037204,-82.87,-82.33
1734501513117747506,1734501513117623567,5,2.5775,-0.87,1.97,20.199803,-83.27,-82.84
1734501513218195672,1734501513217974185,5,2.5775,-0.87,1.97,20.374909666666667,-81.26,-81.08
1734501513317974212,1734501513317672014,5,2.5775,-0.87,1.97,20.512494,-82.14,-82.24
1734501513418461943,1734501513418245077,5,2.5775,-0.87,1.97,20.62506266666667,-81.17,-81.41
1734501513517735884,1734501513517563581,5,2.5775,-0.87,1.97,20.775153999999997,-80.97,-80.9
1734501513617806936,1734501513617634534,5,2.5775,-0.87,1.97,20.912737333333332,-80.98,-80.79
1734501513718072631,1734501513717813730,5,2.5775,-0.87,1.97,21.08158966666667,-82.48,-82.06
1734501513817837839,1734501513817538976,5,2.5775,-0.87,1.97,21.219173666666666,-80.84,-81.22
1734501513917929269,1734501513917717218,5,2.5775,-0.87,1.97,21.363011333333333,-81.44,-81.16
1734501514049515469,1734501514049212694,5,2.5775,-0.87,1.97,21.46932633333333,-81.07,-81.71
1734501514117904636,1734501514117734909,5,2.5775,-0.87,1.97,21.600656,-80.83,-81.36
1734501514217700046,1734501514217500925,5,2.5775,-0.87,1.97,21.725732333333337,-81.34,-81.16
1734501514318216267,1734501514317964315,5,2.5775,-0.87,1.97,21.888331333333337,-81.31,-81.05
1734501514418163083,1734501514417946577,5,2.5775,-0.87,1.97,22.044676666666664,-81.98,-83.44
1734501514615416342,1734501514615036487,5,2.5775,-0.87,1.97,22.257306333333332,-81.41,-81.21
1734501514715357098,1734501514715047836,5,2.5775,-0.87,1.97,22.438666666666666,-82.59,-81.97
1734501514815373977,1734501514815081119,5,2.5775,-0.87,1.97,22.626281333333335,-81.4,-81.27
1734501514915594229,1734501514915091037,5,2.5775,-0.87,1.97,22.770119000000005,-82.17,-81.82
1734501515015326043,1734501515015044927,5,2.5775,-0.87,1.97,22.926464333333332,-81.77,-81.64
1734501515115388920,1734501515115026712,5,2.5775,-0.87,1.97,23.089063333333332,-82.23,-82.18
1734501515216376586,1734501515216285228,5,2.5775,-0.87,1.97,23.232901,-81.93,-83.95
1734501515315398471,1734501515315037250,5,2.5775,-0.87,1.97,23.357977333333334,-82.25,-82.03
1734501515415406711,1734501515415024280,5,2.5775,-0.87,1.97,23.489307,-82.78,-82.65
1734501515515338463,1734501515515082597,5,2.5775,-0.87,1.97,23.608129,-83.88,-85.69
1734501515615238010,1734501515615032434,5,2.5775,-0.87,1.97,23.77072766666667,-82.66,-82.9
1734501515717792767,1734501515717500925,5,2.5775,-0.87,1.97,23.908311666666666,-85.55,-88.2
1734501515817617497,1734501515817470312,5,2.5775,-0.87,1.97,24.052149333333336,-84.51,-86.44
1734501515917118444,1734501515916900634,5,2.5775,-0.87,1.97,24.17722566666667,-84.38,-84.6
1734501516017234814,1734501516017018556,5,2.5775,-0.87,1.97,24.32106333333333,-84.16,-84.76
1734501516117612965,1734501516117205858,5,2.5775,-0.87,1.97,24.477408666666665,-85.12,-86.48
1734501516217192483,1734501516216987371,5,2.5775,-0.87,1.97,24.633754,-85.32,-85.95
1734501516317568825,1734501516317235708,5,2.5775,-0.87,1.97,24.777591666666666,-84.56,-85.99
1734501516416620518,1734501516416430950,5,2.5775,-0.87,1.97,24.915175,-85.31,-87.83
1734501516516121289,1734501516516033172,5,2.5775,-0.87,1.97,25.071520666666668,-85.48,-86.79
1734501516616565736,1734501516616106510,5,2.5775,-0.87,1.97,25.159073666666668,-86.02,-89.19
1734501516716298839,1734501516716053009,5,2.5775,-0.87,1.97,25.296657999999997,-84.42,-86.59
1734501516816603252,1734501516816458463,5,2.5775,-0.87,1.97,25.415480000000002,-84.27,-85.84
1734501516916303730,1734501516915982007,5,2.5775,-0.87,1.97,25.61560233333334,-84.7,-85.74
1734501517015315752,1734501517015101194,5,2.5775,-0.87,1.97,25.721917333333334,-84.81,-86.44
1734501517115336726,1734501517115020036,5,2.5775,-0.87,1.97,25.846993666666666,-85.54,-88.77
1734501517215404209,1734501517215018033,5,2.5775,-0.87,1.97,25.959562000000002,-86.17,-89.74
1734501517315129251,1734501517315023660,5,2.5775,-0.87,1.97,26.11590666666667,-84.59,-85.64
1734501517415598366,1734501517415014982,5,2.5775,-0.87,1.97,26.322282333333334,-85.25,-85.83
1734501517515631960,1734501517515070199,5,2.5775,-0.87,1.97,26.484881333333334,-85.9,-87.28
1734501517617879313,1734501517617681741,5,2.5775,-0.87,1.97,26.666242,-84.14,-84.37
1734501517717962456,1734501517717725038,5,2.5775,-0.87,1.97,26.77255633333333,-83.81,-84.24
1734501517817817149,1734501517817681312,5,2.5775,-0.87,1.97,26.94140866666667,-83.47,-85.84
1734501517917786390,1734501517917663812,5,2.5775,-0.87,1.97,27.07273866666667,-85.69,-86.31
1734501518018227757,1734501518017991065,5,2.5775,-0.87,1.97,27.216576333333336,-83.07,-85.04
1734501518117855110,1734501518117621898,5,2.5775,-0.87,1.97,27.33539933333333,-83.32,-85.1
1734501518218305254,1734501518218119859,5,2.5775,-0.87,1.97,27.49799833333333,-83.31,-83.22
1734501518318053434,1734501518317898988,5,2.5775,-0.87,1.97,27.641835999999998,-85.17,-86.4
1734501518417912858,1734501518417761802,5,2.5775,-0.87,1.97,27.923256666666664,-84.05,-84.69
1734501518518244009,1734501518518139600,5,2.5775,-0.87,1.97,28.060840666666667,-82.25,-82.03
1734501518618634724,1734501518618495225,5,2.5775,-0.87,1.97,28.185917,-82.59,-83.72
1734501518717704825,1734501518717540979,5,2.5775,-0.87,1.97,28.323500999999997,-82.19,-82.06
1734501518817966165,1734501518817832946,5,2.5775,-0.87,1.97,28.467338666666663,-81.99,-84.14
1734501518918710618,1734501518918533802,5,2.5775,-0.87,1.97,28.629937666666667,-82.23,-82.0
1734501519048678965,1734501519048424482,5,2.5775,-0.87,1.97,28.773775333333333,-82.64,-83.59
1734501519118121975,1734501519117939233,5,2.5775,-0.87,1.97,28.905105000000002,-82.99,-82.82
1734501519217796528,1734501519217651128,5,2.5775,-0.87,1.97,29.030181333333335,-81.99,-82.03
1734501519318494667,1734501519318370103,5,2.5775,-0.87,1.97,29.167765333333335,-83.0,-82.58
1734501519516741684,1734501519516355752,5,2.5775,-0.87,1.97,29.355379999999997,-81.3,-82.03
1734501519616442336,1734501519616142749,5,2.5775,-0.87,1.97,29.530486666666665,-81.58,-81.91
1734501519716650312,1734501519716301202,5,2.5775,-0.87,1.97,29.693085666666665,-81.43,-81.29
1734501520215443508,1734501520215009212,5,2.5775,-0.87,1.97,30.34973566666667,-81.43,-81.64
1734501520316639521,1734501520316413640,5,2.5775,-0.87,1.97,30.524842333333336,-81.52,-82.22
1734501520415263351,1734501520415001630,5,2.5775,-0.87,1.97,30.699949000000004,-81.61,-81.77
1734501520516482068,1734501520516197919,5,2.5775,-0.87,1.97,30.868801333333337,-81.81,-81.96
1734501520616360720,1734501520616170167,5,2.5775,-0.87,1.97,31.0314,-81.88,-81.79
1734501520716519329,1734501520716225862,5,2.5775,-0.87,1.97,31.118953666666666,-82.35,-82.32
1734501520818239736,1734501520817984342,5,2.5775,-0.87,1.97,31.24403,-81.99,-82.32
1734501520916735441,1734501520916399002,5,2.5775,-0.87,1.97,31.38161433333333,-83.02,-82.47
1734501521016609246,1734501521016307115,5,2.5775,-0.87,1.97,31.575482333333337,-81.68,-81.97
1734501521116303865,1734501521116127729,5,2.5775,-0.87,1.97,31.756842666666667,-83.85,-83.11
1734501521216474302,1734501521216274261,5,2.5775,-0.87,1.97,31.825634333333337,-82.59,-82.3
1734501521316268566,1734501521315984010,5,2.5775,-0.87,1.97,31.938202333333333,-83.27,-82.94
1734501521416240398,1734501521415866374,5,2.5775,-0.87,1.97,32.057025,-81.69,-81.89
1734501521517854511,1734501521517705440,5,2.5775,-0.87,1.97,32.282162666666665,-82.27,-83.34
1734501521618108358,1734501521617997646,5,2.5775,-0.87,1.97,32.469777,-81.89,-83.95
1734501521717161344,1734501521716884136,5,2.5775,-0.87,1.97,32.626122333333335,-81.93,-84.37
1734501521817895696,1734501521817700624,5,2.5775,-0.87,1.97,32.77621266666666,-82.25,-82.46
1734501522015406335,1734501522015023946,5,2.5775,-0.87,1.97,32.963827,-82.61,-83.54
1734501522115372528,1734501522115012884,5,2.5775,-0.87,1.97,33.138933,-82.44,-82.63
1734501522215450034,1734501522215009689,5,2.5775,-0.87,1.97,33.295278333333336,-84.19,-84.39
1734501522315328171,1734501522315007686,5,2.5775,-0.87,1.97,33.414101333333335,-83.12,-82.89
1734501522415474757,1734501522415050745,5,2.5775,-0.87,1.97,33.57670033333334,-83.44,-85.32
1734501522515309342,1734501522515020370,5,2.5775,-0.87,1.97,33.75806133333334,-83.48,-84.41
1734501522617709492,1734501522617585897,5,2.5775,-0.87,1.97,33.908153,-84.37,-85.06
1734501522717171765,1734501522716932058,5,2.5775,-0.87,1.97,34.02072233333333,-83.58,-83.55
1734501522817134269,1734501522816917419,5,2.5775,-0.87,1.97,34.17081433333334,-87.06,-86.88
1734501522917343292,1734501522917036533,5,2.5775,-0.87,1.97,34.339666666666666,-84.14,-86.4
1734501523017277639,1734501523016999959,5,2.5775,-0.87,1.97,34.47725,-85.41,-86.85
1734501523117611321,1734501523117452859,5,2.5775,-0.87,1.97,34.608579666666664,-85.1,-84.93
1734501523217425652,1734501523217225074,5,2.5775,-0.87,1.97,34.73990966666667,-85.48,-87.49
1734501523317294826,1734501523317018508,5,2.5775,-0.87,1.97,34.908761999999996,-85.33,-87.48
1734501523417323354,1734501523417090654,5,2.5775,-0.87,1.97,35.06510733333334,-84.38,-85.4
1734501523517233315,1734501523517027378,5,2.5775,-0.87,1.97,35.208944333333335,-84.53,-85.88
1734501523617111941,1734501523616852045,5,2.5775,-0.87,1.97,35.34027566666666,-85.76,-88.13
1734501523717294469,1734501523717040538,5,2.5775,-0.87,1.97,35.45909733333333,-85.96,-90.39
1734501523818109442,1734501523817754030,5,2.5775,-0.87,1.97,35.55290466666667,-88.0,-89.29
1734501523917164666,1734501523916966915,5,2.5775,-0.87,1.97,35.71550333333334,-86.93,-88.53
1734501524048268420,1734501524048142671,5,2.5775,-0.87,1.97,35.871848666666665,-85.92,-91.64
1734501524118154919,1734501524117898464,5,2.5775,-0.87,1.97,36.046956,-86.62,-92.91
1734501524218069251,1734501524217870473,5,2.5775,-0.87,1.97,36.15327033333333,-86.08,-93.02
1734501524317755267,1734501524317644119,5,2.5775,-0.87,1.97,36.278346666666664,-87.17,-93.14
1734501524417920536,1734501524417682647,5,2.5775,-0.87,1.97,36.403422666666664,-87.13,-94.74
1734501524517272616,1734501524517124176,5,2.5775,-0.87,1.97,36.541006333333335,-88.77,-94.62
1734501524617159234,1734501524616902828,5,2.5775,-0.87,1.97,36.691098000000004,-86.95,-91.91
1734501524717559872,1734501524716869115,5,2.5775,-0.87,1.97,36.853697000000004,-89.76,-93.11
1734501524817827966,1734501524817690610,5,2.5775,-0.87,1.97,37.03505766666667,-88.91,-94.17
1734501524917779861,1734501524917640924,5,2.5775,-0.87,1.97,37.16638766666667,-88.48,-93.1
1734501525018114594,1734501525017903804,5,2.5775,-0.87,1.97,37.260195,-88.13,-97.75
1734501525217878720,1734501525217622756,5,2.5775,-0.87,1.97,37.422794,-86.93,-92.03
1734501525315246413,1734501525315023899,5,2.5775,-0.87,1.97,37.604154666666666,-86.6,-89.84
1734501525415374678,1734501525415007591,5,2.5775,-0.87,1.97,37.86681433333333,-88.77,-90.94
1734501525518568522,1734501525518311738,5,2.5775,-0.87,1.97,38.023159666666665,-88.33,-90.3
1734501525616654979,1734501525616371154,5,2.5775,-0.87,1.97,38.185758666666665,-88.3,-88.78
1734501525717641305,1734501525717393875,5,2.5775,-0.87,1.97,38.30458133333334,-90.89,-91.94
1734501525816638136,1734501525816480398,5,2.5775,-0.87,1.97,38.45467333333333,-87.97,-90.4
1734501525916899564,1734501525916273355,5,2.5775,-0.87,1.97,38.604763999999996,-89.6,-91.13
1734501526017712451,1734501526017325878,5,2.5775,-0.87,1.97,38.779869999999995,-87.5,-88.88
1734501526117616852,1734501526117325782,5,2.5775,-0.87,1.97,38.929960333333334,-90.92,-91.41
1734501526217167639,1734501526216942310,5,2.5775,-0.87,1.97,39.08630566666667,-87.15,-89.29
1734501526316578611,1734501526316419601,5,2.5775,-0.87,1.97,39.217635666666666,-87.47,-88.48
1734501526416601492,1734501526416414976,5,2.5775,-0.87,1.97,39.355220333333335,-87.69,-87.44
1734501526516971874,1734501526516624450,5,2.5775,-0.87,1.97,39.474043,-87.06,-88.84
1734501526615513836,1734501526615033388,5,2.5775,-0.87,1.97,39.780480000000004,-86.75,-88.59
1734501526815498766,1734501526815081357,5,2.5775,-0.87,1.97,40.080662333333336,-84.8,-85.7
1734501526916694035,1734501526916514873,5,2.5775,-0.87,1.97,40.218246,-85.89,-87.45
1734501527016492418,1734501527016348600,5,2.5775,-0.87,1.97,40.35583066666667,-85.34,-86.42
1734501527118079123,1734501527117898941,5,2.5775,-0.87,1.97,40.48716066666667,-85.53,-85.56
1734501527217338443,1734501527217188596,5,2.5775,-0.87,1.97,40.618490333333334,-85.48,-85.51
1734501527316480096,1734501527316315650,5,2.5775,-0.87,1.97,40.79359633333333,-86.01,-87.55
1734501527416532872,1734501527416226148,5,2.5775,-0.87,1.97,40.924926,-85.16,-87.08
1734501527515455528,1734501527515051603,5,2.5775,-0.87,1.97,41.06250933333333,-86.66,-88.34
1734501527915739173,1734501527915049314,5,2.5775,-0.87,1.97,41.687891,-84.48,-84.28
1734501528015301987,1734501528015010595,5,2.5775,-0.87,1.97,41.837983,-83.09,-82.92
1734501528115487947,1734501528115009069,5,2.5775,-0.87,1.97,41.969313,-84.32,-85.86
1734501528215463637,1734501528215045452,5,2.5775,-0.87,1.97,42.131912,-92.28,-91.73
1734501528315354244,1734501528315014123,5,2.5775,-0.87,1.97,42.26949533333333,-84.39,-85.69
1734501528415378702,1734501528415021419,5,2.5775,-0.87,1.97,42.369555999999996,-84.75,-85.56
1734501528515483392,1734501528515029430,5,2.5775,-0.87,1.97,42.463362999999994,-84.06,-85.55
1734501528716780385,1734501528716504573,5,2.5775,-0.87,1.97,42.61345466666666,-84.32,-84.24
1734501528816375802,1734501528816132068,5,2.5775,-0.87,1.97,42.83233833333333,-84.6,-84.08
1734501528915546905,1734501528915022134,5,2.5775,-0.87,1.97,43.051222,-83.75,-85.21
1734501529015369361,1734501529015023469,5,2.5775,-0.87,1.97,43.232583,-83.58,-85.79
1734501529115391353,1734501529115013837,5,2.5775,-0.87,1.97,43.357659000000005,-85.17,-87.07
1734501529215400804,1734501529215006113,5,2.5775,-0.87,1.97,43.488989000000004,-84.38,-85.6
1734501529318132368,1734501529318005800,5,2.5775,-0.87,1.97,43.63907966666667,-85.22,-84.68
1734501529417984043,1734501529417724370,5,2.5775,-0.87,1.97,43.814186,-83.57,-82.99
1734501529518083856,1734501529517795562,5,2.5775,-0.87,1.97,43.97678466666667,-85.11,-86.39
1734501529617742766,1734501529617592096,5,2.5775,-0.87,1.97,44.114369333333336,-83.54,-83.37
1734501529717847712,1734501529717663049,5,2.5775,-0.87,1.97,44.264461000000004,-86.09,-87.5
1734501529818017428,1734501529817882537,5,2.5775,-0.87,1.97,44.41455299999999,-83.88,-84.46
1734501529917954684,1734501529917851924,5,2.5775,-0.87,1.97,44.533374333333335,-83.6,-83.11
1734501530018774832,1734501530018514156,5,2.5775,-0.87,1.97,44.65845066666666,-83.4,-85.1
1734501530117979324,1734501530117761135,5,2.5775,-0.87,1.97,44.77727333333333,-83.24,-83.28
1734501530218121959,1734501530217875242,5,2.5775,-0.87,1.97,44.927365333333334,-83.29,-82.96
1734501530318062024,1734501530317874431,5,2.5775,-0.87,1.97,45.03993433333333,-85.01,-86.51
1734501530415352694,1734501530415041685,5,2.5775,-0.87,1.97,45.16500933333333,-84.05,-84.34
1734501530516343840,1734501530516084194,5,2.5775,-0.87,1.97,45.327608,-83.5,-83.04
1734501530616464347,1734501530616201400,5,2.5775,-0.87,1.97,45.515221333333336,-83.51,-83.18
1734501530716391434,1734501530716184854,5,2.5775,-0.87,1.97,45.690328666666666,-83.29,-83.23
1734501530816125313,1734501530815937042,5,2.5775,-0.87,1.97,45.834167,-85.06,-84.79
1734501530916239634,1734501530915970802,5,2.5775,-0.87,1.97,45.996766,-83.46,-83.26
1734501531016217281,1734501531016122341,5,2.5775,-0.87,1.97,46.13434933333334,-84.34,-84.08
1734501531116418877,1734501531116137266,5,2.5775,-0.87,1.97,46.26567933333334,-83.19,-82.54
1734501531215393029,1734501531215043544,5,2.5775,-0.87,1.97,46.36574133333334,-83.76,-83.46
1734501531315374067,1734501531315063714,5,2.5775,-0.87,1.97,46.453295,-83.39,-84.8
1734501531415352036,1734501531415040731,5,2.5775,-0.87,1.97,46.547101999999995,-84.62,-85.72
1734501531518473412,1734501531518203973,5,2.5775,-0.87,1.97,46.58462466666666,-83.34,-83.51
1734501531618219298,1734501531618077516,5,2.5775,-0.87,1.97,46.56586266666667,-86.29,-87.11
1734501531718212580,1734501531718038320,5,2.5775,-0.87,1.97,46.52208533333334,-84.63,-84.78
1734501531915481819,1734501531915047883,5,2.5775,-0.87,1.97,46.547100666666665,-83.42,-83.11
1734501532015363865,1734501532015012264,5,2.5775,-0.87,1.97,46.56586266666667,-86.37,-86.18
1734501532116327533,1734501532116068363,5,2.5775,-0.87,1.97,46.61589366666667,-83.55,-85.07
1734501532217141307,1734501532216654300,5,2.5775,-0.87,1.97,46.62214733333334,-82.77,-84.42
1734501532316610321,1734501532316234827,5,2.5775,-0.87,1.97,46.709700999999995,-82.13,-81.99
1734501532518181897,1734501532518032550,5,2.5775,-0.87,1.97,46.753477333333336,-82.75,-82.47
1734501532616514840,1734501532616155624,5,2.5775,-0.87,1.97,46.79725366666667,-81.91,-82.37
1734501532715373415,1734501532715033769,5,2.5775,-0.87,1.97,46.79725366666667,-85.01,-85.87
1734501532815335744,1734501532815018653,5,2.5775,-0.87,1.97,46.778493,-81.85,-83.92
1734501532917776429,1734501532917648077,5,2.5775,-0.87,1.97,46.75973233333334,-82.01,-82.4
1734501533018184221,1734501533018058061,5,2.5775,-0.87,1.97,46.753479,-82.96,-84.57
1734501533117114116,1734501533116685152,5,2.5775,-0.87,1.97,46.753479,-81.17,-81.6
1734501533216380136,1734501533216134548,5,2.5775,-0.87,1.97,46.747223999999996,-82.01,-82.25
1734501533315496337,1734501533315010070,5,2.5775,-0.87,1.97,46.73471533333333,-82.09,-81.99
1734501533415497965,1734501533415042161,5,2.5775,-0.87,1.97,46.72846033333334,-82.14,-84.49
1734501533515462469,1734501533515011310,5,2.5775,-0.87,1.97,46.72846033333334,-82.21,-82.32
1734501533615572323,1734501533615076780,5,2.5775,-0.87,1.97,46.740969,-81.61,-81.72
1734501533715370122,1734501533715005397,5,2.5775,-0.87,1.97,46.73471533333333,-81.75,-81.85
1734501533815629260,1734501533815049409,5,2.5775,-0.87,1.97,46.73471533333333,-84.2,-83.78
1734501533915458991,1734501533915067672,5,2.5775,-0.87,1.97,46.74096866666667,-81.59,-83.62
1734501534015405617,1734501534014993667,5,2.5775,-0.87,1.97,46.74722233333333,-81.91,-82.2
1734501534115303276,1734501534115005493,5,2.5775,-0.87,1.97,46.765984333333336,-81.42,-83.4
1734501534215564454,1734501534215028524,5,2.5775,-0.87,1.97,46.740969,-83.8,-83.82
1734501534315455857,1734501534315006732,5,2.5775,-0.87,1.97,46.740969,-81.42,-83.48
1734501534415384153,1734501534415001630,5,2.5775,-0.87,1.97,46.728462,-84.3,-84.72
1734501534515433611,1734501534515016555,5,2.5775,-0.87,1.97,46.747223999999996,-82.62,-82.56
1734501534615156600,1734501534614998340,5,2.5775,-0.87,1.97,46.753479,-81.7,-81.64
1734501534715695442,1734501534715104818,5,2.5775,-0.87,1.97,46.753479,-82.36,-82.37
1734501534815519265,1734501534815095901,5,2.5775,-0.87,1.97,46.753479,-81.72,-81.65
1734501534915545052,1734501534915013551,5,2.5775,-0.87,1.97,46.75973233333334,-81.92,-83.39
1734501535015298416,1734501535014952659,5,2.5775,-0.87,1.97,46.78474633333334,-82.51,-82.65
1734501535115436547,1734501535115002632,5,2.5775,-0.87,1.97,46.79725366666667,-81.63,-81.66
1734501535215665426,1734501535215026855,5,2.5775,-0.87,1.97,46.803507333333336,-82.79,-84.71
1734501535315460472,1734501535315008401,5,2.5775,-0.87,1.97,46.78474666666667,-82.28,-82.67
1734501535415420824,1734501535415023565,5,2.5775,-0.87,1.97,46.772239333333324,-81.5,-81.64
1734501535515503987,1734501535515027523,5,2.5775,-0.87,1.97,46.772239333333324,-81.88,-82.09
1734501535615424267,1734501535615025997,5,2.5775,-0.87,1.97,46.78474633333334,-82.36,-82.24
1734501535715449278,1734501535715023040,5,2.5775,-0.87,1.97,46.79725366666667,-81.56,-81.71
1734501535815409187,1734501535815008163,5,2.5775,-0.87,1.97,46.791,-82.45,-82.64
1734501535915330992,1734501535915032863,5,2.5775,-0.87,1.97,46.803506999999996,-81.45,-81.33
1734501536015319899,1734501536015012502,5,2.5775,-0.87,1.97,46.82226866666667,-83.46,-82.89
1734501536117758025,1734501536117572069,5,2.5775,-0.87,1.97,46.834776000000005,-81.75,-81.77
1734501536217409087,1734501536217164039,5,2.5775,-0.87,1.97,46.828522666666665,-82.23,-83.26
1734501536317242662,1734501536317076444,5,2.5775,-0.87,1.97,46.828522666666665,-81.85,-83.13
1734501536417076953,1734501536416891813,5,2.5775,-0.87,1.97,46.847284333333334,-86.66,-87.96
1734501536517159704,1734501536517071962,5,2.5775,-0.87,1.97,46.87229966666666,-87.85,-88.76
1734501536617194871,1734501536617013692,5,2.5775,-0.87,1.97,46.87229966666666,-82.77,-82.6
1734501536715369670,1734501536715013265,5,2.5775,-0.87,1.97,46.86604633333334,-82.39,-82.19
1734501536815344158,1734501536815044879,5,2.5775,-0.87,1.97,46.859792666666664,-82.07,-81.95
1734501536917422120,1734501536917185068,5,2.5775,-0.87,1.97,46.86604633333334,-81.97,-81.93
1734501537016667815,1734501537016368627,5,2.5775,-0.87,1.97,46.884807,-82.52,-83.57
1734501537116341863,1734501537116096735,5,2.5775,-0.87,1.97,46.884807,-81.88,-81.86
1734501537615366156,1734501537615012645,5,2.5775,-0.87,1.97,46.90982133333333,-81.52,-81.43
1734501537715332702,1734501537715034484,5,2.5775,-0.87,1.97,46.91607466666667,-83.17,-82.89
1734501537815373056,1734501537815012931,5,2.5775,-0.87,1.97,46.93483666666666,-81.72,-81.68
1734501537915335741,1734501537915039539,5,2.5775,-0.87,1.97,46.94734533333334,-82.44,-82.34
1734501538016589408,1734501538016289710,5,2.5775,-0.87,1.97,46.916076333333336,-81.63,-82.26
1734501538115470518,1734501538115047216,5,2.5775,-0.87,1.97,46.916076333333336,-81.59,-81.34
1734501538215374903,1734501538215012550,5,2.5775,-0.87,1.97,46.90356766666667,-81.57,-82.72
1734501538317679706,1734501538317600488,5,2.5775,-0.87,1.97,46.966106,-82.15,-81.99
1734501538417991450,1734501538417690515,5,2.5775,-0.87,1.97,46.97235933333334,-81.69,-81.85
1734501538518153819,1734501538517733573,5,2.5775,-0.87,1.97,47.00362866666668,-81.78,-81.75
1734501538618004104,1734501538617730855,5,2.5775,-0.87,1.97,46.978613,-81.71,-81.81
1734501538717794153,1734501538717612028,5,2.5775,-0.87,1.97,46.99737366666667,-81.64,-81.93
1734501538817866782,1734501538817794084,5,2.5775,-0.87,1.97,47.02864266666668,-87.47,-87.01
1734501538917784770,1734501538917640447,5,2.5775,-0.87,1.97,47.041151000000006,-81.6,-83.4
1734501539049896021,1734501539049727678,5,2.5775,-0.87,1.97,47.047406,-82.38,-82.54
1734501539117763105,1734501539117577314,5,2.5775,-0.87,1.97,47.047406,-82.3,-84.53
1734501539217990554,1734501539217810392,5,2.5775,-0.87,1.97,47.097435999999995,-83.5,-85.06
1734501539318059124,1734501539317788600,5,2.5775,-0.87,1.97,47.122450333333326,-81.43,-81.5
1734501539417984622,1734501539417850017,5,2.5775,-0.87,1.97,47.13495866666667,-81.83,-81.95
1734501539517761883,1734501539517519712,5,2.5775,-0.87,1.97,47.128705000000004,-81.91,-82.44
1734501539618021720,1734501539617861270,5,2.5775,-0.87,1.97,47.14121333333333,-82.42,-84.71
1734501539718509527,1734501539718024492,5,2.5775,-0.87,1.97,47.147467000000006,-81.26,-81.5
1734501539817926303,1734501539817790269,5,2.5775,-0.87,1.97,47.178735999999994,-81.24,-83.08
1734501539918468026,1734501539918301105,5,2.5775,-0.87,1.97,47.172482333333335,-81.47,-83.36
1734501540017915825,1734501540017692327,5,2.5775,-0.87,1.97,47.210005,-81.83,-81.88
1734501540118158593,1734501540117946386,5,2.5775,-0.87,1.97,47.228767000000005,-82.24,-82.38
1734501540218370885,1734501540218153476,5,2.5775,-0.87,1.97,47.28505033333334,-81.41,-81.53
1734501540318749187,1734501540318004846,5,2.5775,-0.87,1.97,47.29755733333334,-81.92,-82.8
1734501540418122536,1734501540417913198,5,2.5775,-0.87,1.97,47.32882633333333,-81.8,-81.88
1734501540518814250,1734501540518600225,5,2.5775,-0.87,1.97,47.34133466666666,-82.95,-85.53
1734501540618363190,1734501540618108987,5,2.5775,-0.87,1.97,47.360096666666664,-81.39,-81.41
1734501540718468098,1734501540718268871,5,2.5775,-0.87,1.97,47.372604,-82.87,-83.22
1734501540818146326,1734501540817889928,5,2.5775,-0.87,1.97,47.403873000000004,-82.1,-82.37
1734501540917629614,1734501540917369127,5,2.5775,-0.87,1.97,47.441395666666665,-83.28,-84.64
1734501541017239826,1734501541016994476,5,2.5775,-0.87,1.97,47.47266466666667,-81.86,-82.05
1734501541116739153,1734501541116452693,5,2.5775,-0.87,1.97,47.503933999999994,-81.81,-83.48
1734501541216499411,1734501541216378927,5,2.5775,-0.87,1.97,47.51644233333334,-81.56,-83.48
1734501541315457515,1734501541314993381,5,2.5775,-0.87,1.97,47.53520433333333,-83.53,-85.24
1734501541415288188,1734501541415093660,5,2.5775,-0.87,1.97,47.54771133333333,-81.83,-82.98
1734501541515511907,1734501541515011072,5,2.5775,-0.87,1.97,47.58523399999999,-81.56,-83.38
1734501541615827735,1734501541615010261,5,2.5775,-0.87,1.97,47.616502999999994,-81.26,-81.8
1734501541715649738,1734501541715029001,5,2.5775,-0.87,1.97,47.65402566666666,-81.44,-81.54
1734501541815503171,1734501541814982414,5,2.5775,-0.87,1.97,47.685294666666664,-81.73,-83.53
1734501541915547932,1734501541915109634,5,2.5775,-0.87,1.97,47.71656366666667,-81.27,-82.88
1734501542015183499,1734501542015006780,5,2.5775,-0.87,1.97,47.741579,-81.74,-83.5
1734501542115591154,1734501542115107297,5,2.5775,-0.87,1.97,47.772848,-82.41,-82.27
1734501542216445983,1734501542216220617,5,2.5775,-0.87,1.97,47.797862333333335,-82.79,-82.7
1734501542315442173,1734501542315038681,5,2.5775,-0.87,1.97,47.81662433333333,-81.55,-81.39
1734501542417255301,1734501542417051076,5,2.5775,-0.87,1.97,47.810369666666666,-82.33,-81.92
1734501542615508036,1734501542615040302,5,2.5775,-0.87,1.97,47.804116,-81.68,-81.39
1734501542717015159,1734501542716691970,5,2.5775,-0.87,1.97,47.785354000000005,-83.85,-83.63
1734501542815484855,1734501542815060853,5,2.5775,-0.87,1.97,47.76659333333333,-81.75,-81.59
1734501542915500470,1734501542915008544,5,2.5775,-0.87,1.97,47.741579,-81.86,-81.58
1734501543115403288,1734501543114991188,5,2.5775,-0.87,1.97,47.704056666666666,-83.01,-83.87
1734501543217025418,1734501543216741085,5,2.5775,-0.87,1.97,47.654025666666676,-82.58,-82.12
1734501543318025346,1734501543317889451,5,2.5775,-0.87,1.97,47.61024833333334,-82.52,-84.0
1734501543418574284,1734501543418271780,5,2.5775,-0.87,1.97,47.57272566666666,-82.77,-82.39
1734501543517913942,1734501543517700910,5,2.5775,-0.87,1.97,47.553965,-84.59,-84.22
1734501543616507109,1734501543616240739,5,2.5775,-0.87,1.97,47.51644233333334,-82.97,-82.5
1734501543717455743,1734501543717270374,5,2.5775,-0.87,1.97,47.49142666666666,-83.86,-83.68
1734501543817066944,1734501543816436052,5,2.5775,-0.87,1.97,47.453904,-82.7,-82.59
1734501543916822831,1734501543916227340,5,2.5775,-0.87,1.97,47.447650333333335,-84.01,-84.28
1734501544415397213,1734501544415039539,5,2.5775,-0.87,1.97,47.37260533333333,-83.36,-85.43
1734501544517266994,1734501544516958475,5,2.5775,-0.87,1.97,47.341336333333324,-83.42,-84.81
1734501544617478941,1734501544617290019,5,2.5775,-0.87,1.97,47.335083,-86.05,-87.08
1734501544717415904,1734501544717139244,5,2.5775,-0.87,1.97,47.297559,-83.04,-83.61
1734501544816394466,1734501544816124200,5,2.5775,-0.87,1.97,47.253781333333336,-82.29,-82.69
1734501544917826605,1734501544917541980,5,2.5775,-0.87,1.97,47.19124300000001,-82.15,-82.26
1734501545015221157,1734501545015017747,5,2.5775,-0.87,1.97,47.14121333333333,-83.46,-84.62
1734501545117161444,1734501545117029666,5,2.5775,-0.87,1.97,47.10369066666667,-83.07,-82.72
1734501545217080606,1734501545216847658,5,2.5775,-0.87,1.97,47.059913333333334,-82.4,-84.2
1734501545316755467,1734501545316611766,5,2.5775,-0.87,1.97,47.02239066666667,-82.3,-82.04
1734501545417208454,1734501545417000293,5,2.5775,-0.87,1.97,46.966105999999996,-82.92,-83.22
1734501545517070244,1734501545516887664,5,2.5775,-0.87,1.97,46.89106066666667,-83.27,-83.14
1734501545616716666,1734501545616594314,5,2.5775,-0.87,1.97,46.82852233333333,-84.32,-83.66
1734501545717009716,1734501545716873645,5,2.5775,-0.87,1.97,46.772239333333324,-82.58,-82.17
1734501545817270642,1734501545817093133,5,2.5775,-0.87,1.97,46.722208333333334,-85.35,-84.98
1734501545917415317,1734501545917229652,5,2.5775,-0.87,1.97,46.653416666666665,-82.74,-83.11
1734501546017665233,1734501546017518758,5,2.5775,-0.87,1.97,46.565863,-84.28,-85.18
1734501546117464783,1734501546117256641,5,2.5775,-0.87,1.97,46.478310666666665,-83.09,-83.1
1734501546217134163,1734501546216948032,5,2.5775,-0.87,1.97,46.403264,-84.59,-83.75
1734501546317608486,1734501546317306518,5,2.5775,-0.87,1.97,46.315710333333335,-82.69,-82.21
1734501546417349624,1734501546417178153,5,2.5775,-0.87,1.97,46.246917333333336,-82.33,-81.84
1734501546517657235,1734501546517343759,5,2.5775,-0.87,1.97,46.14685666666667,-84.48,-83.79
1734501546617483984,1734501546617214918,5,2.5775,-0.87,1.97,46.06555766666667,-84.05,-84.7
1734501546717619790,1734501546717471599,5,2.5775,-0.87,1.97,45.97175166666667,-82.59,-82.19
1734501546817485664,1734501546817283868,5,2.5775,-0.87,1.97,45.896706333333334,-84.56,-85.49
1734501546917282173,1734501546916945695,5,2.5775,-0.87,1.97,45.815406333333335,-85.02,-84.47
1734501547017265414,1734501547017033576,5,2.5775,-0.87,1.97,45.71534433333333,-82.38,-82.03
1734501547117584139,1734501547117404222,5,2.5775,-0.87,1.97,45.61528366666666,-83.48,-83.21
1734501547216459874,1734501547216168642,5,2.5775,-0.87,1.97,45.515222666666666,-83.51,-84.71
1734501547317388158,1734501547317304134,5,2.5775,-0.87,1.97,45.41516166666667,-83.26,-83.05
1734501547418214050,1734501547417829036,5,2.5775,-0.87,1.97,45.31509966666667,-82.5,-82.18
1734501547517159687,1734501547517014741,5,2.5775,-0.87,1.97,45.20878533333333,-83.73,-83.54
1734501547617488484,1734501547617305278,5,2.5775,-0.87,1.97,45.121233,-83.48,-84.83
1734501547717306969,1734501547717175006,5,2.5775,-0.87,1.97,45.021172,-84.11,-83.98
1734501547817955383,1734501547817835807,5,2.5775,-0.87,1.97,44.92111,-82.76,-84.13
1734501547917444664,1734501547917240381,5,2.5775,-0.87,1.97,44.821048,-84.67,-84.71
1734501548017634942,1734501548017264604,5,2.5775,-0.87,1.97,44.72098733333333,-82.55,-82.16
1734501548117589737,1734501548117353200,5,2.5775,-0.87,1.97,44.60841966666667,-82.82,-82.24
1734501548217197223,1734501548216995477,5,2.5775,-0.87,1.97,44.48959833333333,-83.02,-82.73
1734501548317509106,1734501548317331314,5,2.5775,-0.87,1.97,44.370777,-86.22,-85.35
1734501548417580691,1734501548417266130,5,2.5775,-0.87,1.97,44.258207666666664,-86.07,-86.31
1734501548516706343,1734501548516229152,5,2.5775,-0.87,1.97,44.158146666666674,-83.16,-84.32
1734501548616576651,1734501548616232395,5,2.5775,-0.87,1.97,44.039324,-83.74,-83.85
1734501548716764750,1734501548716420173,5,2.5775,-0.87,1.97,43.94551666666666,-83.16,-82.95
1734501548816857609,1734501548816658735,5,2.5775,-0.87,1.97,43.83294766666666,-85.39,-84.47
1734501548916376077,1734501548916101455,5,2.5775,-0.87,1.97,43.726632,-83.12,-82.5
1734501549015496224,1734501549015023946,5,2.5775,-0.87,1.97,43.595302333333336,-84.45,-84.14
1734501549115378330,1734501549114992141,5,2.5775,-0.87,1.97,43.470226000000004,-84.37,-85.87
1734501549215607704,1734501549215003252,5,2.5775,-0.87,1.97,43.357657999999994,-82.92,-83.3
1734501549615478553,1734501549615003824,5,2.5775,-0.87,1.97,42.876114666666666,-84.94,-86.02
1734501549718350646,1734501549717491388,5,2.5775,-0.87,1.97,42.76980033333333,-83.73,-82.94
1734501549816638647,1734501549816392421,5,2.5775,-0.87,1.97,42.663486,-86.37,-86.75
1734501549915470793,1734501549915005445,5,2.5775,-0.87,1.97,42.550917,-85.43,-86.46
1734501550015576963,1734501550015106678,5,2.5775,-0.87,1.97,42.44460266666667,-90.44,-92.66
1734501550115388981,1734501550115015983,5,2.5775,-0.87,1.97,42.344542000000004,-87.13,-86.65
1734501550215597668,1734501550215049028,5,2.5775,-0.87,1.97,42.28200366666667,-90.66,-90.08
1734501550317562660,1734501550317239522,5,2.5775,-0.87,1.97,42.20070333333334,-88.27,-88.51
1734501550417249937,1734501550416973590,5,2.5775,-0.87,1.97,42.13191033333333,-90.24,-90.93
1734501550516297247,1734501550515954017,5,2.5775,-0.87,1.97,42.03810333333333,-89.67,-89.58
1734501550615436764,1734501550615003824,5,2.5775,-0.87,1.97,42.013089,-87.89,-88.08
1734501550715393463,1734501550715023279,5,2.5775,-0.87,1.97,41.99432833333333,-87.58,-88.76
1734501550918095795,1734501550917940378,5,2.5775,-0.87,1.97,41.981821,-87.97,-88.55
1734501551017913264,1734501551017720460,5,2.5775,-0.87,1.97,41.975566333333326,-89.37,-89.43
1734501551118411160,1734501551118162393,5,2.5775,-0.87,1.97,41.97556633333333,-87.09,-87.04
1734501551218296177,1734501551218088865,5,2.5775,-0.87,1.97,41.94429733333333,-87.34,-88.29
1734501551318618066,1734501551318279981,5,2.5775,-0.87,1.97,41.963058999999994,-87.23,-87.07
1734501551418124923,1734501551417908430,5,2.5775,-0.87,1.97,41.95680433333333,-88.29,-90.5
1734501551517908727,1734501551517603397,5,2.5775,-0.87,1.97,41.963058,-86.66,-87.81
1734501551617937657,1734501551617752075,5,2.5775,-0.87,1.97,41.93804266666667,-87.22,-87.06
1734501551718126853,1734501551717916488,5,2.5775,-0.87,1.97,41.93804266666667,-87.15,-88.06
1734501551915637304,1734501551915028333,5,2.5775,-0.87,1.97,41.93804266666667,-86.93,-87.21
1734501552015583004,1734501552015083551,5,2.5775,-0.87,1.97,41.931789,-90.56,-91.43
1734501552115498946,1734501552115060806,5,2.5775,-0.87,1.97,41.925535333333336,-87.09,-89.07
1734501552316228863,1734501552316087722,5,2.5775,-0.87,1.97,41.90677466666667,-86.95,-87.26
1734501552416477000,1734501552416161060,5,2.5775,-0.87,1.97,41.90052133333334,-86.97,-86.61
1734501552517698595,1734501552517527580,5,2.5775,-0.87,1.97,41.87550566666666,-87.17,-88.11
1734501552615315628,1734501552615031480,5,2.5775,-0.87,1.97,41.86299733333333,-87.94,-87.55
1734501552715349236,1734501552715018033,5,2.5775,-0.87,1.97,41.850488666666664,-90.45,-92.19
1734501552815380653,1734501552815015792,5,2.5775,-0.87,1.97,41.84423533333333,-87.21,-87.76
1734501552918039254,1734501552917852401,5,2.5775,-0.87,1.97,41.850488666666664,-86.15,-86.94
1734501553018014517,1734501553017748117,5,2.5775,-0.87,1.97,41.84423533333333,-87.06,-87.02
1734501553118293493,1734501553118072509,5,2.5775,-0.87,1.97,41.850488666666664,-86.82,-89.63
1734501553216336440,1734501553216095447,5,2.5775,-0.87,1.97,41.84423533333333,-86.76,-87.3
1734501553316599621,1734501553316277265,5,2.5775,-0.87,1.97,41.85674366666667,-86.83,-86.94
1734501553417137340,1734501553416950702,5,2.5775,-0.87,1.97,41.85049033333333,-87.65,-88.15
1734501553517449277,1734501553517251253,5,2.5775,-0.87,1.97,41.85674366666667,-86.71,-88.53
1734501553617435494,1734501553617147922,5,2.5775,-0.87,1.97,41.837981666666664,-87.43,-87.29
1734501553717079553,1734501553716969251,5,2.5775,-0.87,1.97,41.831728,-88.05,-88.4
1734501553817500663,1734501553817298889,5,2.5775,-0.87,1.97,41.819221,-87.81,-87.65
1734501553917557090,1734501553917352437,5,2.5775,-0.87,1.97,41.831728,-86.67,-86.3
1734501554048225469,1734501554048082828,5,2.5775,-0.87,1.97,41.837981666666664,-86.65,-86.17
1734501554117719148,1734501554117530822,5,2.5775,-0.87,1.97,41.837981666666664,-86.75,-87.97
1734501554217861010,1734501554217621326,5,2.5775,-0.87,1.97,41.84423666666667,-87.08,-86.15
1734501554318335458,1734501554318063974,5,2.5775,-0.87,1.97,41.831729333333335,-87.0,-87.1
1734501554715453271,1734501554715084314,5,2.5775,-0.87,1.97,41.81296733333333,-88.02,-88.03
1734501554815482661,1734501554815025329,5,2.5775,-0.87,1.97,41.81296733333333,-87.82,-88.46
1734501554915740793,1734501554915054798,5,2.5775,-0.87,1.97,41.80671366666667,-89.26,-89.57
1734501555015295029,1734501555015017271,5,2.5775,-0.87,1.97,41.819221,-88.42,-90.79
1734501555116494024,1734501555116312503,5,2.5775,-0.87,1.97,41.83172833333333,-88.37,-89.68
1734501555216500420,1734501555216167688,5,2.5775,-0.87,1.97,41.856744,-88.38,-87.53
1734501555316649606,1734501555316298484,5,2.5775,-0.87,1.97,41.85049033333333,-88.66,-88.92
1734501555416076143,1734501555415004253,5,2.5775,-0.87,1.97,41.84423666666667,-88.28,-88.46
1734501555515581465,1734501555515094280,5,2.5775,-0.87,1.97,41.84423666666667,-90.67,-89.9
1734501555615260897,1734501555615063190,5,2.5775,-0.87,1.97,41.85674366666667,-88.21,-89.02
1734501555715472896,1734501555715004444,5,2.5775,-0.87,1.97,41.85674366666667,-87.94,-88.06
1734501555815590034,1734501555815038442,5,2.5775,-0.87,1.97,41.831728,-89.92,-90.85
1734501555917320901,1734501555917182445,5,2.5775,-0.87,1.97,41.831728,-89.56,-89.34
1734501556017382518,1734501556017190217,5,2.5775,-0.87,1.97,41.831728,-87.53,-87.39
1734501556117246892,1734501556117162466,5,2.5775,-0.87,1.97,41.844235,-88.03,-87.8
1734501556216585364,1734501556216326713,5,2.5775,-0.87,1.97,41.837981666666664,-89.17,-89.77
1734501556316706894,1734501556316554546,5,2.5775,-0.87,1.97,41.869250666666666,-88.41,-89.04
1734501556416691576,1734501556416303157,5,2.5775,-0.87,1.97,41.88175933333333,-92.22,-91.68
1734501556516628401,1734501556516417026,5,2.5775,-0.87,1.97,41.91302833333333,-87.44,-87.0
1734501556616897589,1734501556616502285,5,2.5775,-0.87,1.97,41.906774999999996,-88.51,-87.9
1734501556716700386,1734501556716482877,5,2.5775,-0.87,1.97,41.91302833333333,-88.28,-88.93
1734501556817619518,1734501556817381620,5,2.5775,-0.87,1.97,41.906774666666664,-87.95,-89.61
