%time,field.stamp,field.id,field.x,field.y,field.z,field.distanceFromTag,field.rssi,field.rssi_fp
1734501485315630136,1734501485315057992,9,2.5775,-0.87,0.5,6.141240333333333,-79.46,-81.03
1734501485415576302,1734501485415020942,9,2.5775,-0.87,0.5,6.153748,-79.49,-80.87
1734501485515405066,1734501485515025138,9,2.5775,-0.87,0.5,6.153748,-79.29,-80.73
1734501485615648054,1734501485615081787,9,2.5775,-0.87,0.5,6.147494333333333,-79.1,-80.74
1734501485715519677,1734501485715003728,9,2.5775,-0.87,0.5,6.153748333333333,-79.25,-81.36
1734501485815437560,1734501485815009117,9,2.5775,-0.87,0.5,6.153748333333333,-79.0,-80.67
1734501485915536189,1734501485915032625,9,2.5775,-0.87,0.5,6.1600019999999995,-79.28,-80.76
1734501486015772283,1734501486015012502,9,2.5775,-0.87,0.5,6.166255666666667,-79.27,-80.68
1734501486115480831,1734501486114996910,9,2.5775,-0.87,0.5,6.166255666666667,-79.66,-80.98
1734501486215440785,1734501486215017318,9,2.5775,-0.87,0.5,6.172509666666667,-79.57,-80.64
1734501486315601093,1734501486315005779,9,2.5775,-0.87,0.5,6.1600019999999995,-79.33,-80.92
1734501486415845968,1734501486415121555,9,2.5775,-0.87,0.5,6.147494333333333,-79.24,-80.53
1734501486515432780,1734501486514996767,9,2.5775,-0.87,0.5,6.153748333333333,-79.31,-80.61
1734501486615228555,1734501486615021705,9,2.5775,-0.87,0.5,6.134987,-79.8,-80.92
1734501486715684437,1734501486715070247,9,2.5775,-0.87,0.5,6.134987,-79.39,-80.8
1734501486815530781,1734501486815029144,9,2.5775,-0.87,0.5,6.116225333333333,-79.33,-80.92
1734501486915293653,1734501486915008068,9,2.5775,-0.87,0.5,6.147494333333333,-79.27,-80.58
1734501487015300197,1734501487015005350,9,2.5775,-0.87,0.5,6.166255666666667,-79.64,-80.82
1734501487115407454,1734501487115010499,9,2.5775,-0.87,0.5,6.172509666666667,-79.31,-80.92
1734501487215418607,1734501487215032815,9,2.5775,-0.87,0.5,6.1600019999999995,-79.26,-81.07
1734501487316680877,1734501487316399097,9,2.5775,-0.87,0.5,6.141240666666666,-79.09,-80.9
1734501487416534360,1734501487416192054,9,2.5775,-0.87,0.5,6.153748333333333,-79.25,-80.95
1734501487515556566,1734501487515015363,9,2.5775,-0.87,0.5,6.153748333333333,-79.04,-80.64
1734501487615412357,1734501487615009546,9,2.5775,-0.87,0.5,6.1600019999999995,-79.72,-80.79
1734501487715431614,1734501487715024232,9,2.5775,-0.87,0.5,6.172509333333333,-79.56,-80.58
1734501487816636447,1734501487816089868,9,2.5775,-0.87,0.5,6.172509333333333,-78.94,-80.58
1734501487915336267,1734501487915027141,9,2.5775,-0.87,0.5,6.185016999999999,-79.13,-80.94
1734501488016240170,1734501488016077995,9,2.5775,-0.87,0.5,6.172509666666667,-79.37,-80.77
1734501488116302984,1734501488116162538,9,2.5775,-0.87,0.5,6.153748333333333,-78.96,-80.87
1734501488217058351,1734501488216917991,9,2.5775,-0.87,0.5,6.153748333333334,-79.23,-81.1
1734501488315443002,1734501488315062046,9,2.5775,-0.87,0.5,6.134986666666667,-79.59,-80.7
1734501488415520636,1734501488415070533,9,2.5775,-0.87,0.5,6.153748,-79.21,-80.66
1734501488515439221,1734501488515010118,9,2.5775,-0.87,0.5,6.141240333333333,-79.29,-80.68
1734501488618672524,1734501488618473291,9,2.5775,-0.87,0.5,6.134986666666667,-79.32,-81.08
1734501488717821607,1734501488717539548,9,2.5775,-0.87,0.5,6.134986666666667,-79.77,-80.66
1734501488817376913,1734501488817168474,9,2.5775,-0.87,0.5,6.109971333333334,-79.44,-81.07
1734501488916998441,1734501488916130304,9,2.5775,-0.87,0.5,6.122478999999999,-79.43,-80.82
1734501489015337954,1734501489015042543,9,2.5775,-0.87,0.5,6.122478999999999,-79.44,-80.98
1734501489115398219,1734501489115069150,9,2.5775,-0.87,0.5,6.153748333333333,-79.49,-80.81
1734501489215413307,1734501489215027570,9,2.5775,-0.87,0.5,6.172509666666667,-79.19,-81.08
1734501489316964757,1734501489315069437,9,2.5775,-0.87,0.5,6.153748333333333,-79.39,-80.66
1734501489415450981,1734501489415048360,9,2.5775,-0.87,0.5,6.153748333333334,-79.59,-80.92
1734501489515502040,1734501489515048742,9,2.5775,-0.87,0.5,6.1412406666666675,-79.09,-80.64
1734501489615492907,1734501489615045785,9,2.5775,-0.87,0.5,6.166256,-79.78,-81.17
1734501489715433277,1734501489714942932,9,2.5775,-0.87,0.5,6.1600019999999995,-79.24,-80.7
1734501489815435048,1734501489815077543,9,2.5775,-0.87,0.5,6.134986666666666,-79.11,-80.78
1734501489915322356,1734501489915040016,9,2.5775,-0.87,0.5,6.134986666666666,-79.16,-80.87
1734501490018314836,1734501490018091440,9,2.5775,-0.87,0.5,6.134986666666666,-79.13,-80.67
1734501490118521618,1734501490118261575,9,2.5775,-0.87,0.5,6.153748333333333,-79.57,-81.04
1734501490221817247,1734501490221534490,9,2.5775,-0.87,0.5,6.153748333333333,-79.49,-80.62
1734501490318886162,1734501490318716764,9,2.5775,-0.87,0.5,6.160002333333334,-79.39,-80.8
1734501490418125103,1734501490417976140,9,2.5775,-0.87,0.5,6.166256,-79.39,-80.75
1734501490518095038,1734501490517817974,9,2.5775,-0.87,0.5,6.153748333333333,-79.48,-80.73
1734501490617968380,1734501490617890834,9,2.5775,-0.87,0.5,6.153748333333333,-79.5,-81.04
1734501490718081455,1734501490717946529,9,2.5775,-0.87,0.5,6.153748333333333,-79.24,-80.77
1734501490818379913,1734501490818067789,9,2.5775,-0.87,0.5,6.1600019999999995,-79.49,-80.72
1734501490917301373,1734501490917172908,9,2.5775,-0.87,0.5,6.166255666666667,-79.43,-81.1
1734501491017975709,1734501491017774581,9,2.5775,-0.87,0.5,6.134986666666667,-79.23,-80.73
1734501491121228104,1734501491120760917,9,2.5775,-0.87,0.5,6.134986666666667,-79.44,-80.49
1734501491218254045,1734501491218114852,9,2.5775,-0.87,0.5,6.128733,-79.26,-80.55
1734501491318166334,1734501491317912101,9,2.5775,-0.87,0.5,6.153748333333333,-79.17,-80.83
1734501491418500476,1734501491418302536,9,2.5775,-0.87,0.5,6.147494666666667,-79.1,-80.6
1734501491516012897,1734501491515024662,9,2.5775,-0.87,0.5,6.134987,-79.48,-80.71
1734501491616735414,1734501491616336345,9,2.5775,-0.87,0.5,6.147494666666667,-79.15,-80.52
1734501491716347554,1734501491716193199,9,2.5775,-0.87,0.5,6.147494666666667,-79.43,-80.97
1734501491816570615,1734501491816346645,9,2.5775,-0.87,0.5,6.147494666666667,-79.5,-80.89
1734501491916612695,1734501491916328668,9,2.5775,-0.87,0.5,6.153748333333333,-79.04,-80.52
1734501492017058085,1734501492016564130,9,2.5775,-0.87,0.5,6.147494333333333,-79.3,-80.64
1734501492115559267,1734501492115006685,9,2.5775,-0.87,0.5,6.147494333333333,-79.42,-80.73
1734501492215614005,1734501492215087413,9,2.5775,-0.87,0.5,6.1287329999999995,-79.62,-80.93
1734501492318548209,1734501492318236351,9,2.5775,-0.87,0.5,6.141240666666666,-79.27,-80.65
1734501492418133124,1734501492417769432,9,2.5775,-0.87,0.5,6.134986666666666,-79.42,-80.71
1734501492518082312,1734501492517799377,9,2.5775,-0.87,0.5,6.147494333333333,-79.74,-80.73
1734501492617650169,1734501492617500066,9,2.5775,-0.87,0.5,6.153748333333333,-79.4,-81.04
1734501492717632893,1734501492717382907,9,2.5775,-0.87,0.5,6.17251,-79.37,-80.67
1734501492816679334,1734501492816415786,9,2.5775,-0.87,0.5,6.166256,-79.36,-80.86
1734501492917381678,1734501492917249679,9,2.5775,-0.87,0.5,6.166256,-79.22,-80.78
1734501493015510310,1734501493015004634,9,2.5775,-0.87,0.5,6.1600019999999995,-79.35,-81.08
1734501493115567933,1734501493115037679,9,2.5775,-0.87,0.5,6.153748333333333,-79.12,-80.61
1734501493216536791,1734501493216404438,9,2.5775,-0.87,0.5,6.1287329999999995,-79.2,-80.71
1734501493316834900,1734501493316644906,9,2.5775,-0.87,0.5,6.109971666666667,-79.38,-80.77
1734501493417431612,1734501493416969537,9,2.5775,-0.87,0.5,6.116225333333333,-79.58,-80.8
1734501493518050272,1734501493517823457,9,2.5775,-0.87,0.5,6.122479000000001,-79.46,-80.7
1734501493618158962,1734501493617921113,9,2.5775,-0.87,0.5,6.128732666666667,-79.49,-80.72
1734501494016598779,1734501494016323089,9,2.5775,-0.87,0.5,6.003656666666667,-79.56,-80.81
1734501494116593426,1734501494116345882,9,2.5775,-0.87,0.5,5.959880000000001,-79.2,-80.66
1734501494216708631,1734501494216512441,9,2.5775,-0.87,0.5,5.916103333333333,-79.45,-80.57
1734501494316935621,1734501494316667795,9,2.5775,-0.87,0.5,5.884834333333333,-79.11,-80.63
1734501494415966521,1734501494415142059,9,2.5775,-0.87,0.5,5.853565333333333,-79.33,-80.56
1734501494515179878,1734501494515014410,9,2.5775,-0.87,0.5,5.816042666666667,-80.2,-80.62
1734501494615366678,1734501494615094184,9,2.5775,-0.87,0.5,5.753504333333333,-79.49,-80.63
1734501494715494407,1734501494714990377,9,2.5775,-0.87,0.5,5.703474,-79.58,-80.92
1734501494815480774,1734501494815019845,9,2.5775,-0.87,0.5,5.647189666666667,-79.44,-81.01
1734501494915554739,1734501494915078163,9,2.5775,-0.87,0.5,5.522113333333333,-79.21,-80.67
1734501495016608320,1734501495016538619,9,2.5775,-0.87,0.5,5.453321333333332,-79.15,-80.5
1734501495116858750,1734501495116578578,9,2.5775,-0.87,0.5,5.409544666666666,-79.43,-80.59
1734501495216649576,1734501495216348648,9,2.5775,-0.87,0.5,5.3970373333333335,-79.67,-80.56
1734501495316518311,1734501495316269159,9,2.5775,-0.87,0.5,5.359514333333333,-79.32,-80.88
1734501495416493653,1734501495416230678,9,2.5775,-0.87,0.5,5.2907226666666665,-79.26,-80.52
1734501495516493542,1734501495516361713,9,2.5775,-0.87,0.5,5.215676666666667,-79.25,-80.53
1734501495616488055,1734501495616384267,9,2.5775,-0.87,0.5,5.146885,-79.25,-80.6
1734501495716627832,1734501495716377496,9,2.5775,-0.87,0.5,5.078093,-79.56,-80.96
1734501495816545835,1734501495816268444,9,2.5775,-0.87,0.5,4.984286,-79.26,-81.04
1734501495916457441,1734501495916215658,9,2.5775,-0.87,0.5,4.896732666666666,-79.36,-80.92
1734501496016600175,1734501496016356706,9,2.5775,-0.87,0.5,4.834194666666666,-79.59,-81.01
1734501496116338500,1734501496116137266,9,2.5775,-0.87,0.5,4.790418,-78.83,-81.08
1734501496216505979,1734501496216264247,9,2.5775,-0.87,0.5,4.734133666666667,-78.94,-81.06
1734501496316374251,1734501496316161632,9,2.5775,-0.87,0.5,4.671595333333333,-78.86,-80.57
1734501496416532140,1734501496416178941,9,2.5775,-0.87,0.5,4.6028036666666665,-78.78,-80.71
1734501496516650369,1734501496516288995,9,2.5775,-0.87,0.5,4.534011666666667,-78.89,-80.79
1734501496616880261,1734501496616540431,9,2.5775,-0.87,0.5,4.440204666666666,-79.02,-80.7
1734501496716608491,1734501496716300487,9,2.5775,-0.87,0.5,4.371412666666667,-79.15,-80.89
1734501496816736217,1734501496816480159,9,2.5775,-0.87,0.5,4.321382333333333,-79.05,-80.78
1734501496916407140,1734501496916270017,9,2.5775,-0.87,0.5,4.283859333333333,-78.91,-80.68
1734501497016380711,1734501497016137361,9,2.5775,-0.87,0.5,4.221321333333333,-78.92,-80.53
1734501497116676347,1734501497116408348,9,2.5775,-0.87,0.5,4.158783333333333,-79.05,-80.95
1734501497216623579,1734501497216331005,9,2.5775,-0.87,0.5,4.089991333333334,-79.01,-80.78
1734501497316529854,1734501497316301345,9,2.5775,-0.87,0.5,4.027453,-78.57,-81.08
1734501497416405789,1734501497416131496,9,2.5775,-0.87,0.5,3.9586609999999998,-78.61,-80.73
1734501497516548758,1734501497516301155,9,2.5775,-0.87,0.5,3.908630666666667,-78.76,-81.07
1734501497616342991,1734501497616096019,9,2.5775,-0.87,0.5,3.846092666666667,-78.92,-81.0
1734501497716421805,1734501497716238498,9,2.5775,-0.87,0.5,3.8085696666666666,-78.76,-80.83
1734501497816419515,1734501497816219806,9,2.5775,-0.87,0.5,3.7460316666666666,-78.91,-80.77
1734501497916714489,1734501497916390180,9,2.5775,-0.87,0.5,3.6834936666666667,-79.14,-80.76
1734501498016453185,1734501498016215324,9,2.5775,-0.87,0.5,3.614702,-79.21,-80.59
1734501498116746532,1734501498116503477,9,2.5775,-0.87,0.5,3.5459099999999997,-79.28,-80.6
1734501498216571739,1734501498216289520,9,2.5775,-0.87,0.5,3.502133333333333,-78.92,-80.48
1734501498316398255,1734501498316167593,9,2.5775,-0.87,0.5,3.4646103333333333,-79.35,-80.83
1734501498416521022,1734501498416246175,9,2.5775,-0.87,0.5,3.4521026666666668,-79.5,-80.88
1734501498516216552,1734501498516124010,9,2.5775,-0.87,0.5,3.420833333333333,-79.06,-80.59
1734501498615458417,1734501498615048408,9,2.5775,-0.87,0.5,3.370803,-79.25,-80.99
1734501498715394526,1734501498715032339,9,2.5775,-0.87,0.5,3.3520416666666666,-79.12,-80.5
1734501498815447100,1734501498815077304,9,2.5775,-0.87,0.5,3.3520416666666666,-78.99,-80.69
1734501499048554976,1734501499048123359,9,2.5775,-0.87,0.5,3.3395340000000004,-79.29,-81.16
1734501499116526862,1734501499116240739,9,2.5775,-0.87,0.5,3.33328,-79.39,-81.76
1734501499217626880,1734501499217540264,9,2.5775,-0.87,0.5,3.33328,-79.05,-80.63
1734501499317391830,1734501499317152023,9,2.5775,-0.87,0.5,3.3457876666666664,-79.28,-81.06
1734501499417248845,1734501499417073726,9,2.5775,-0.87,0.5,3.327026333333333,-79.05,-80.56
1734501499517432215,1734501499517132282,9,2.5775,-0.87,0.5,3.333280333333333,-79.04,-80.47
1734501499618276757,1734501499618093490,9,2.5775,-0.87,0.5,3.3520416666666666,-79.05,-80.63
1734501499715334355,1734501499714955091,9,2.5775,-0.87,0.5,3.370803,-79.08,-80.59
1734501499815877130,1734501499815144538,9,2.5775,-0.87,0.5,3.389564333333334,-79.43,-81.14
1734501499915407457,1734501499915032625,9,2.5775,-0.87,0.5,3.427087,-78.91,-80.44
1734501500015480134,1734501500015070438,9,2.5775,-0.87,0.5,3.5083866666666665,-79.14,-81.01
1734501500115468757,1734501500115093946,9,2.5775,-0.87,0.5,3.564671,-79.03,-80.54
1734501500215560141,1734501500215050458,9,2.5775,-0.87,0.5,3.6209553333333333,-78.83,-81.48
1734501500318156251,1734501500317870378,9,2.5775,-0.87,0.5,3.6459706666666665,-79.02,-80.61
1734501500417971767,1734501500417743682,9,2.5775,-0.87,0.5,3.7022549999999996,-78.99,-80.49
1734501500518085358,1734501500517944574,9,2.5775,-0.87,0.5,3.739778,-78.91,-80.8
1734501500618111337,1734501500617940902,9,2.5775,-0.87,0.5,3.802316,-78.99,-80.71
1734501500718758032,1734501500718604803,9,2.5775,-0.87,0.5,3.852346333333333,-78.92,-80.7
1734501500817640961,1734501500817434549,9,2.5775,-0.87,0.5,3.933645666666667,-79.23,-81.09
1734501500917356560,1734501500917130947,9,2.5775,-0.87,0.5,4.014945333333333,-79.16,-81.03
1734501501016833896,1734501501016586542,9,2.5775,-0.87,0.5,4.108752666666667,-78.81,-80.44
1734501501116718666,1734501501116477489,9,2.5775,-0.87,0.5,4.20256,-79.17,-80.82
1734501501216557457,1734501501216373682,9,2.5775,-0.87,0.5,4.258844333333333,-78.82,-80.54
1734501501316507190,1734501501316226959,9,2.5775,-0.87,0.5,4.321382333333333,-78.89,-80.53
1734501501416274276,1734501501416026830,9,2.5775,-0.87,0.5,4.4026819999999995,-78.87,-80.73
1734501501516876154,1734501501516533613,9,2.5775,-0.87,0.5,4.496489,-78.97,-80.55
1734501501616511894,1734501501616117954,9,2.5775,-0.87,0.5,4.609057666666666,-78.92,-80.94
1734501501716607158,1734501501716346740,9,2.5775,-0.87,0.5,4.659088,-79.41,-81.06
1734501501816285750,1734501501816067934,9,2.5775,-0.87,0.5,4.759149,-79.26,-80.95
1734501501916727565,1734501501916381835,9,2.5775,-0.87,0.5,4.834194666666666,-79.38,-80.67
1734501502016560646,1734501502016183137,9,2.5775,-0.87,0.5,4.971778333333333,-79.04,-80.51
1734501502116909800,1734501502116505622,9,2.5775,-0.87,0.5,5.084347,-79.23,-80.56
1734501502216581402,1734501502216127395,9,2.5775,-0.87,0.5,5.215677,-79.0,-80.44
1734501502316455862,1734501502316142320,9,2.5775,-0.87,0.5,5.340753333333333,-79.29,-80.85
1734501502416608630,1734501502416080474,9,2.5775,-0.87,0.5,5.453321666666667,-79.22,-80.5
1734501502516751363,1734501502516319990,9,2.5775,-0.87,0.5,5.572143999999999,-79.49,-80.44
1734501502617005570,1734501502616430044,9,2.5775,-0.87,0.5,5.665951,-79.56,-80.81
1734501502716818819,1734501502716558933,9,2.5775,-0.87,0.5,5.784773333333334,-78.79,-80.4
1734501502816598671,1734501502816301107,9,2.5775,-0.87,0.5,5.884834333333333,-78.91,-80.73
1734501502916612439,1734501502916331291,9,2.5775,-0.87,0.5,5.991149,-78.8,-80.66
1734501503016951793,1734501503016551494,9,2.5775,-0.87,0.5,6.09121,-78.56,-80.67
1734501503116595623,1734501503116345167,9,2.5775,-0.87,0.5,6.316347333333334,-79.38,-80.77
1734501503216449405,1734501503216152667,9,2.5775,-0.87,0.5,6.441423666666666,-79.55,-81.22
1734501503316364893,1734501503316090822,9,2.5775,-0.87,0.5,6.566499666666666,-79.48,-80.62
1734501503416830195,1734501503416553974,9,2.5775,-0.87,0.5,6.697829666666666,-79.45,-80.76
1734501503516678433,1734501503516366004,9,2.5775,-0.87,0.5,6.8416673333333335,-79.99,-81.04
1734501503617260728,1734501503617080688,9,2.5775,-0.87,0.5,6.960489666666667,-79.13,-80.57
1734501503717158602,1734501503716954708,9,2.5775,-0.87,0.5,7.066804333333333,-79.01,-80.5
1734501503817493312,1734501503817383050,9,2.5775,-0.87,0.5,7.160611333333333,-79.31,-80.67
1734501504317347404,1734501504317170858,9,2.5775,-0.87,0.5,7.767231333333334,-79.22,-80.8
1734501504418188416,1734501504417953491,9,2.5775,-0.87,0.5,7.9360843333333335,-79.13,-80.45
1734501504517778887,1734501504517628431,9,2.5775,-0.87,0.5,8.029891666666666,-79.06,-80.96
1734501504617533414,1734501504617150068,9,2.5775,-0.87,0.5,8.148714,-79.16,-80.81
1734501504717473065,1734501504717250585,9,2.5775,-0.87,0.5,8.280044,-79.27,-80.87
1734501504818253692,1734501504818054199,9,2.5775,-0.87,0.5,8.442642999999999,-79.3,-80.71
1734501504915459415,1734501504915022850,9,2.5775,-0.87,0.5,8.561465333333333,-79.35,-81.09
1734501505015546979,1734501505015010833,9,2.5775,-0.87,0.5,8.686541666666665,-79.52,-80.88
1734501505115320243,1734501505115017890,9,2.5775,-0.87,0.5,8.836632999999999,-79.51,-80.91
1734501505215987080,1734501505215047121,9,2.5775,-0.87,0.5,8.999232333333334,-80.0,-80.74
1734501505315459917,1734501505315045833,9,2.5775,-0.87,0.5,9.143069666666667,-79.86,-81.19
1734501505415417777,1734501505415019035,9,2.5775,-0.87,0.5,9.274399666666666,-80.2,-81.0
1734501505515499964,1734501505515076398,9,2.5775,-0.87,0.5,9.393222,-80.9,-81.15
1734501505615636550,1734501505615051746,9,2.5775,-0.87,0.5,9.524552,-81.09,-81.34
1734501505715428311,1734501505715038061,9,2.5775,-0.87,0.5,9.655882,-82.35,-82.87
1734501505815474521,1734501505815018653,9,2.5775,-0.87,0.5,9.793465666666668,-81.72,-81.72
1734501505915634268,1734501505915050745,9,2.5775,-0.87,0.5,9.937303333333334,-81.46,-81.94
1734501506015361482,1734501506015016555,9,2.5775,-0.87,0.5,10.087394666666668,-81.82,-81.58
1734501506115585002,1734501506115049123,9,2.5775,-0.87,0.5,10.206217333333333,-81.3,-81.27
1734501506215359405,1734501506215006351,9,2.5775,-0.87,0.5,10.325039666666667,-81.38,-81.5
1734501506315548909,1734501506315049409,9,2.5775,-0.87,0.5,10.437607999999999,-81.01,-81.12
1734501506415387409,1734501506415014505,9,2.5775,-0.87,0.5,10.575191666666667,-80.51,-80.67
1734501506515448475,1734501506515041351,9,2.5775,-0.87,0.5,10.719029333333333,-80.81,-81.13
1734501506615512027,1734501506615043640,9,2.5775,-0.87,0.5,10.837851666666666,-80.71,-81.21
1734501506715468496,1734501506715012550,9,2.5775,-0.87,0.5,10.975435333333332,-80.47,-80.6
1734501506815600802,1734501506815047979,9,2.5775,-0.87,0.5,11.113019000000001,-80.53,-80.72
1734501506915466116,1734501506915011882,9,2.5775,-0.87,0.5,11.263110666666668,-80.5,-80.84
1734501507015401981,1734501507015002012,9,2.5775,-0.87,0.5,11.406948333333332,-80.64,-81.05
1734501507115631538,1734501507115020751,9,2.5775,-0.87,0.5,11.538278666666669,-80.27,-80.86
1734501507215489690,1734501507215015172,9,2.5775,-0.87,0.5,11.682116333333333,-80.16,-80.61
1734501507315390270,1734501507315019607,9,2.5775,-0.87,0.5,11.800938666666667,-79.83,-80.79
1734501507415516833,1734501507415015935,9,2.5775,-0.87,0.5,11.919761,-79.84,-80.62
1734501507515173230,1734501507514995098,9,2.5775,-0.87,0.5,12.026075666666665,-79.84,-80.8
1734501507615332681,1734501507614981651,9,2.5775,-0.87,0.5,12.169913333333334,-79.84,-80.51
1734501507715374326,1734501507715018033,9,2.5775,-0.87,0.5,12.313750999999998,-80.45,-80.79
1734501507815942802,1734501507815201520,9,2.5775,-0.87,0.5,12.470096333333332,-80.05,-80.64
1734501507915440171,1734501507915020227,9,2.5775,-0.87,0.5,12.60768,-79.87,-80.71
1734501508015370079,1734501508015008211,9,2.5775,-0.87,0.5,12.764024999999998,-79.93,-80.82
1734501508115405716,1734501508114989757,9,2.5775,-0.87,0.5,12.92037,-80.15,-81.09
1734501508215386051,1734501508215004920,9,2.5775,-0.87,0.5,13.064207666666666,-80.33,-81.02
1734501508315470846,1734501508315030097,9,2.5775,-0.87,0.5,13.214299000000002,-80.31,-80.79
1734501508415485079,1734501508415047883,9,2.5775,-0.87,0.5,13.351883,-80.15,-80.94
1734501508515794217,1734501508515020370,9,2.5775,-0.87,0.5,13.501974333333335,-79.92,-81.12
1734501508615416450,1734501508614981174,9,2.5775,-0.87,0.5,13.652066,-80.29,-80.75
1734501508716536566,1734501508716212034,9,2.5775,-0.87,0.5,13.808411,-80.43,-80.63
1734501508816481678,1734501508816209077,9,2.5775,-0.87,0.5,13.939740999999998,-80.48,-80.98
1734501508916956447,1734501508916492462,9,2.5775,-0.87,0.5,14.058563333333334,-80.3,-80.86
1734501509046866912,1734501509046619176,9,2.5775,-0.87,0.5,14.196147000000002,-80.6,-81.16
1734501509115549690,1734501509115091562,9,2.5775,-0.87,0.5,14.358746333333334,-80.57,-81.04
1734501509215514492,1734501509215028524,9,2.5775,-0.87,0.5,14.49633,-80.76,-80.91
1734501509317195005,1734501509316792488,9,2.5775,-0.87,0.5,14.640167666666665,-80.75,-82.42
1734501509416247521,1734501509416056632,9,2.5775,-0.87,0.5,14.765243666666668,-80.83,-81.67
1734501509516103446,1734501509515070676,9,2.5775,-0.87,0.5,14.915335333333333,-80.92,-81.01
1734501509615485805,1734501509615018129,9,2.5775,-0.87,0.5,15.034158,-81.53,-82.64
1734501509715377496,1734501509715019702,9,2.5775,-0.87,0.5,15.177995333333334,-81.51,-81.54
1734501509817416980,1734501509817239761,9,2.5775,-0.87,0.5,15.328086333333333,-82.09,-83.54
1734501509916557274,1734501509916287422,9,2.5775,-0.87,0.5,15.484431666666666,-81.7,-83.78
1734501510015212212,1734501510015087127,9,2.5775,-0.87,0.5,15.647030999999998,-82.31,-82.21
1734501510116953042,1734501510116572380,9,2.5775,-0.87,0.5,15.790868666666668,-82.38,-84.61
1734501510216712785,1734501510216367006,9,2.5775,-0.87,0.5,15.959721333333334,-82.73,-82.54
1734501510316494260,1734501510316285133,9,2.5775,-0.87,0.5,16.116066333333332,-83.38,-85.05
1734501510416716515,1734501510416537523,9,2.5775,-0.87,0.5,16.25990366666667,-84.72,-87.19
1734501510516560519,1734501510516278982,9,2.5775,-0.87,0.5,16.397487,-85.0,-86.14
1734501510616657950,1734501510616312265,9,2.5775,-0.87,0.5,16.52256266666667,-85.31,-87.65
1734501510715525317,1734501510715019464,9,2.5775,-0.87,0.5,16.666400333333332,-84.98,-86.44
1734501510815452668,1734501510814982414,9,2.5775,-0.87,0.5,16.803984333333332,-86.78,-87.67
1734501510916607306,1734501510916300773,9,2.5775,-0.87,0.5,16.92906066666667,-86.81,-88.82
1734501511016771299,1734501511016493082,9,2.5775,-0.87,0.5,17.060390333333334,-88.68,-89.75
1734501511116748123,1734501511116372108,9,2.5775,-0.87,0.5,17.166705,-86.92,-89.12
1734501511216455700,1734501511216161012,9,2.5775,-0.87,0.5,17.316797000000005,-87.57,-88.78
1734501511316517428,1734501511316337585,9,2.5775,-0.87,0.5,17.460634666666667,-87.49,-89.41
1734501511416439822,1734501511416161060,9,2.5775,-0.87,0.5,17.729548333333337,-88.99,-90.46
1734501511516560869,1734501511516206264,9,2.5775,-0.87,0.5,17.873386,-86.9,-88.35
1734501511616452396,1734501511616173267,9,2.5775,-0.87,0.5,18.035984666666668,-88.81,-89.02
1734501511717091109,1734501511716711759,9,2.5775,-0.87,0.5,18.211091333333332,-87.44,-88.3
1734501511816929706,1734501511816172361,9,2.5775,-0.87,0.5,18.354929000000002,-88.01,-88.34
1734501511916503377,1734501511916295528,9,2.5775,-0.87,0.5,18.505021,-86.64,-88.05
1734501512016295623,1734501512016140460,9,2.5775,-0.87,0.5,18.66136566666667,-87.13,-87.81
1734501512116473778,1734501512116200685,9,2.5775,-0.87,0.5,18.811457333333333,-86.38,-86.77
1734501512216889862,1734501512216275453,9,2.5775,-0.87,0.5,18.967802666666667,-88.86,-88.25
1734501512316372814,1734501512316179752,9,2.5775,-0.87,0.5,19.111640333333334,-85.3,-85.75
1734501512416609809,1734501512416326045,9,2.5775,-0.87,0.5,19.267985666666664,-84.19,-85.26
1734501512516454546,1734501512516336441,9,2.5775,-0.87,0.5,19.393061333333332,-85.27,-84.82
1734501512616504409,1734501512616233825,9,2.5775,-0.87,0.5,19.524392000000002,-85.4,-85.59
1734501512716430025,1734501512716150999,9,2.5775,-0.87,0.5,19.64946766666667,-84.32,-83.78
1734501512816450570,1734501512816170930,9,2.5775,-0.87,0.5,19.83082866666667,-82.67,-82.72
1734501512916464392,1734501512916213512,9,2.5775,-0.87,0.5,19.962158333333335,-83.68,-83.69
1734501513016495108,1734501513016227245,9,2.5775,-0.87,0.5,20.118503666666665,-82.39,-82.15
1734501513116724955,1734501513116140127,9,2.5775,-0.87,0.5,20.224818,-83.84,-83.63
1734501513216444860,1734501513216246843,9,2.5775,-0.87,0.5,20.399924666666667,-83.58,-83.07
1734501513316524971,1734501513316226243,9,2.5775,-0.87,0.5,20.550016666666668,-84.51,-84.54
1734501513416558309,1734501513416307687,9,2.5775,-0.87,0.5,20.687600666666665,-82.72,-82.68
1734501513516441096,1734501513516162633,9,2.5775,-0.87,0.5,20.818930666666663,-82.79,-82.77
1734501513616415591,1734501513616147518,9,2.5775,-0.87,0.5,20.956514,-82.33,-81.94
1734501513716374026,1734501513716274976,9,2.5775,-0.87,0.5,21.075336,-83.18,-82.39
1734501513816372674,1734501513816121578,9,2.5775,-0.87,0.5,21.206665666666666,-84.1,-83.68
1734501513916605432,1734501513916270256,9,2.5775,-0.87,0.5,21.337995666666668,-82.22,-81.75
1734501514047619889,1734501514046676635,9,2.5775,-0.87,0.5,21.494341000000002,-82.03,-81.66
1734501514116552083,1734501514116230726,9,2.5775,-0.87,0.5,21.638178666666665,-82.75,-83.87
1734501514216383274,1734501514216092824,9,2.5775,-0.87,0.5,21.775762666666665,-81.86,-81.91
1734501514316481205,1734501514316235542,9,2.5775,-0.87,0.5,21.919600333333335,-81.92,-81.45
1734501514416676452,1734501514416367769,9,2.5775,-0.87,0.5,22.063438,-81.79,-81.88
1734501514516674321,1734501514516396045,9,2.5775,-0.87,0.5,22.201022,-81.93,-81.54
1734501514617072065,1734501514616955280,9,2.5775,-0.87,0.5,22.344859666666668,-82.98,-82.48
1734501514717430837,1734501514717124700,9,2.5775,-0.87,0.5,22.482443666666665,-81.58,-81.95
1734501514817139226,1734501514817056179,9,2.5775,-0.87,0.5,22.626281333333335,-82.29,-81.94
1734501514917238456,1734501514916960000,9,2.5775,-0.87,0.5,22.776373000000003,-81.82,-82.29
1734501515017103858,1734501515016960620,9,2.5775,-0.87,0.5,22.913956333333335,-81.6,-81.64
1734501515117141989,1734501515117010116,9,2.5775,-0.87,0.5,23.051539666666667,-81.86,-81.63
1734501515317112609,1734501515316969156,9,2.5775,-0.87,0.5,23.220392333333336,-81.8,-81.38
1734501515418083244,1734501515417637348,9,2.5775,-0.87,0.5,23.408006999999998,-82.31,-81.94
1734501515518415367,1734501515518237352,9,2.5775,-0.87,0.5,23.59562133333333,-81.9,-82.07
1734501515616907548,1734501515616685628,9,2.5775,-0.87,0.5,23.739458666666668,-81.3,-81.49
1734501515716999873,1734501515716681480,9,2.5775,-0.87,0.5,23.895804,-81.8,-81.39
1734501515816724141,1734501515816539287,9,2.5775,-0.87,0.5,24.039641666666665,-81.23,-81.03
1734501515917904132,1734501515917809963,9,2.5775,-0.87,0.5,24.177226,-81.61,-81.26
1734501516015492568,1734501516015065908,9,2.5775,-0.87,0.5,24.314810000000005,-81.23,-81.26
1734501516115342190,1734501516115068674,9,2.5775,-0.87,0.5,24.464901333333334,-81.55,-81.7
1734501516215247962,1734501516215050458,9,2.5775,-0.87,0.5,24.614992333333333,-81.46,-81.45
1734501516315380731,1734501516315037250,9,2.5775,-0.87,0.5,24.75883,-81.28,-80.96
1734501516418185956,1734501516418032169,9,2.5775,-0.87,0.5,24.896413999999996,-81.51,-81.77
1734501516517889201,1734501516517708063,9,2.5775,-0.87,0.5,25.059013000000004,-80.73,-81.41
1734501516618784507,1734501516618450403,9,2.5775,-0.87,0.5,25.190342666666666,-82.3,-81.93
1734501516717708653,1734501516717473983,9,2.5775,-0.87,0.5,25.340433666666666,-80.89,-81.06
1734501516818483223,1734501516818286657,9,2.5775,-0.87,0.5,25.453002333333334,-81.19,-81.21
1734501516917700058,1734501516917516469,9,2.5775,-0.87,0.5,25.62810933333333,-81.29,-81.43
1734501517017341565,1734501517017165422,9,2.5775,-0.87,0.5,25.75944,-81.85,-81.47
1734501517116949381,1734501517116862773,9,2.5775,-0.87,0.5,25.90327733333333,-81.36,-81.33
1734501517217591483,1734501517217326879,9,2.5775,-0.87,0.5,26.003338,-81.36,-81.48
1734501517317269994,1734501517317113637,9,2.5775,-0.87,0.5,26.178444666666667,-81.05,-80.97
1734501517417256096,1734501517417016744,9,2.5775,-0.87,0.5,26.303521,-81.68,-82.0
1734501517517641547,1734501517517268896,9,2.5775,-0.87,0.5,26.459866333333334,-81.76,-81.82
1734501517616378132,1734501517616210937,9,2.5775,-0.87,0.5,26.572434666666666,-81.01,-81.36
1734501517716539461,1734501517716243505,9,2.5775,-0.87,0.5,26.741287999999997,-81.91,-81.9
1734501517816315013,1734501517816132783,9,2.5775,-0.87,0.5,26.891379,-82.57,-82.12
1734501517916423749,1734501517916146278,9,2.5775,-0.87,0.5,27.035216666666667,-81.9,-81.9
1734501518016816060,1734501518016561985,9,2.5775,-0.87,0.5,27.185307666666663,-81.43,-81.32
1734501518116512459,1734501518116158962,9,2.5775,-0.87,0.5,27.297876333333335,-81.43,-81.15
1734501518216345500,1734501518216227769,9,2.5775,-0.87,0.5,27.46047533333333,-82.18,-81.94
1734501518317037733,1734501518316086530,9,2.5775,-0.87,0.5,27.59180533333333,-82.2,-81.66
1734501518416660244,1734501518416308403,9,2.5775,-0.87,0.5,27.74189733333333,-83.41,-84.29
1734501518516570456,1734501518516354084,9,2.5775,-0.87,0.5,27.83570466666667,-81.97,-81.78
1734501518616623751,1734501518616395711,9,2.5775,-0.87,0.5,27.948273,-81.4,-81.27
1734501518716425767,1734501518716163158,9,2.5775,-0.87,0.5,28.110871666666668,-81.5,-82.14
1734501518816682556,1734501518816228389,9,2.5775,-0.87,0.5,28.279724,-81.17,-81.0
1734501518916860990,1734501518916580200,9,2.5775,-0.87,0.5,28.454830666666666,-81.14,-81.1
1734501519046852800,1734501519046485185,9,2.5775,-0.87,0.5,28.604922,-81.26,-82.34
1734501519116404171,1734501519116229772,9,2.5775,-0.87,0.5,28.717490666666666,-81.41,-81.36
1734501519216479987,1734501519216243982,9,2.5775,-0.87,0.5,28.842567,-81.63,-81.65
1734501519316904315,1734501519316446781,9,2.5775,-0.87,0.5,28.917613,-81.45,-81.28
1734501519416516003,1734501519416248083,9,2.5775,-0.87,0.5,29.055196999999996,-81.37,-81.38
1734501519518290339,1734501519518038272,9,2.5775,-0.87,0.5,29.21154233333333,-81.58,-81.12
1734501519617893233,1734501519617692708,9,2.5775,-0.87,0.5,29.38039466666667,-82.18,-81.87
1734501519718018177,1734501519717886209,9,2.5775,-0.87,0.5,29.63680066666667,-81.79,-82.0
1734501519817382389,1734501519817090272,9,2.5775,-0.87,0.5,29.793146000000004,-81.57,-81.44
1734501519917144673,1734501519916992187,9,2.5775,-0.87,0.5,29.955744999999997,-81.68,-81.35
1734501520015421804,1734501520015020370,9,2.5775,-0.87,0.5,30.105836333333333,-82.69,-83.06
1734501520115375354,1734501520115044593,9,2.5775,-0.87,0.5,30.224659,-82.04,-82.06
1734501520216347093,1734501520216215848,9,2.5775,-0.87,0.5,30.34973533333333,-81.52,-82.11
1734501520317493792,1734501520317321300,9,2.5775,-0.87,0.5,30.51233433333333,-82.3,-82.0
1734501520515408091,1734501520515028715,9,2.5775,-0.87,0.5,30.743725,-81.19,-82.51
1734501520615240150,1734501520615016698,9,2.5775,-0.87,0.5,30.943847333333334,-81.94,-81.69
1734501520816604161,1734501520816224813,9,2.5775,-0.87,0.5,31.175238333333336,-81.94,-81.54
1734501520915443604,1734501520915042877,9,2.5775,-0.87,0.5,31.344091666666667,-82.34,-82.18
1734501521015503452,1734501521015050172,9,2.5775,-0.87,0.5,31.537959666666666,-82.68,-82.32
1734501521115260732,1734501521114974021,9,2.5775,-0.87,0.5,31.706812333333332,-81.39,-81.13
1734501521217867210,1734501521217396020,9,2.5775,-0.87,0.5,31.850649666666666,-81.36,-81.1
1734501521317750653,1734501521317555665,9,2.5775,-0.87,0.5,31.994487333333335,-81.27,-81.6
1734501521417585549,1734501521417309761,9,2.5775,-0.87,0.5,32.10705566666667,-82.34,-81.94
1734501521516388134,1734501521516230821,9,2.5775,-0.87,0.5,32.26340066666667,-81.15,-81.6
1734501521616795453,1734501521616377830,9,2.5775,-0.87,0.5,32.42599933333333,-81.37,-81.04
1734501521716379733,1734501521716153621,9,2.5775,-0.87,0.5,32.563583,-81.59,-81.54
1734501521816484596,1734501521816148757,9,2.5775,-0.87,0.5,32.71367466666666,-81.74,-81.63
1734501521916335628,1734501521916187763,9,2.5775,-0.87,0.5,32.84500466666667,-82.17,-81.84
1734501522017148443,1734501522017012119,9,2.5775,-0.87,0.5,33.001349999999995,-81.33,-81.85
1734501522117297317,1734501522117068529,9,2.5775,-0.87,0.5,33.145187,-82.01,-81.89
1734501522217226117,1734501522217069149,9,2.5775,-0.87,0.5,33.28277033333333,-81.88,-81.53
1734501522317273372,1734501522317019462,9,2.5775,-0.87,0.5,33.42660866666667,-82.76,-82.39
1734501522417280036,1734501522417084217,9,2.5775,-0.87,0.5,33.55793966666666,-81.2,-81.22
1734501522517346677,1734501522517194271,9,2.5775,-0.87,0.5,33.701778,-81.69,-81.96
1734501522615618840,1734501522615022897,9,2.5775,-0.87,0.5,33.826854,-81.67,-81.71
1734501522715382948,1734501522714997291,9,2.5775,-0.87,0.5,33.970691,-81.57,-81.34
1734501522815407895,1734501522815009355,9,2.5775,-0.87,0.5,34.127036333333336,-81.57,-81.41
1734501522915208372,1734501522915026187,9,2.5775,-0.87,0.5,34.277127,-81.59,-81.4
1734501523015471303,1734501523015028476,9,2.5775,-0.87,0.5,34.420965333333335,-82.32,-82.03
1734501523115379066,1734501523115038156,9,2.5775,-0.87,0.5,34.571057,-81.5,-81.11
1734501523215430004,1734501523215013027,9,2.5775,-0.87,0.5,34.73365733333333,-81.56,-81.32
1734501523315434491,1734501523315012931,9,2.5775,-0.87,0.5,34.86498733333334,-81.5,-81.48
1734501523415467233,1734501523415026426,9,2.5775,-0.87,0.5,35.00882433333334,-81.57,-81.37
1734501523515214095,1734501523515037298,9,2.5775,-0.87,0.5,35.152661333333334,-81.63,-81.69
1734501523615184541,1734501523615003585,9,2.5775,-0.87,0.5,35.327767333333334,-82.38,-81.81
1734501523715416253,1734501523714994907,9,2.5775,-0.87,0.5,35.477859333333335,-81.6,-81.46
1734501523816297391,1734501523816120862,9,2.5775,-0.87,0.5,35.64671166666667,-81.62,-81.23
1734501523916454215,1734501523916214466,9,2.5775,-0.87,0.5,35.77804133333333,-81.6,-81.72
1734501524046858458,1734501524046450853,9,2.5775,-0.87,0.5,35.890609000000005,-82.39,-82.49
1734501524116458452,1734501524116193056,9,2.5775,-0.87,0.5,36.021938999999996,-81.44,-81.61
1734501524216447788,1734501524216271638,9,2.5775,-0.87,0.5,36.147015333333336,-82.83,-83.69
1734501524316376932,1734501524316074609,9,2.5775,-0.87,0.5,36.32837633333333,-81.85,-82.26
1734501524416484939,1734501524416192054,9,2.5775,-0.87,0.5,36.47221433333333,-82.63,-82.54
1734501524516515268,1734501524516262054,9,2.5775,-0.87,0.5,36.634813333333334,-82.65,-83.19
1734501524615436330,1734501524615029811,9,2.5775,-0.87,0.5,36.77865033333334,-82.88,-82.33
1734501524715417928,1734501524715022087,9,2.5775,-0.87,0.5,36.94124933333333,-82.64,-82.11
1734501524816589545,1734501524816226243,9,2.5775,-0.87,0.5,37.09759466666666,-82.48,-81.94
1734501524915253309,1734501524915049076,9,2.5775,-0.87,0.5,37.21641733333333,-82.52,-82.4
1734501525016556785,1734501525016196250,9,2.5775,-0.87,0.5,37.328986666666665,-81.69,-81.72
1734501525117068692,1734501525116787910,9,2.5775,-0.87,0.5,37.460316666666664,-81.56,-83.45
1734501525216923492,1734501525216631889,9,2.5775,-0.87,0.5,37.62916933333333,-82.09,-82.01
1734501525317610692,1734501525317423343,9,2.5775,-0.87,0.5,37.791768,-82.38,-82.42
1734501525416704354,1734501525416379928,9,2.5775,-0.87,0.5,37.935606,-81.88,-82.54
1734501525516866655,1734501525516551733,9,2.5775,-0.87,0.5,38.079443999999995,-82.46,-82.03
1734501525615682542,1734501525615053415,9,2.5775,-0.87,0.5,38.22953466666667,-82.61,-84.07
1734501525716653396,1734501525716384172,9,2.5775,-0.87,0.5,38.36711833333334,-82.92,-82.23
1734501525815382293,1734501525815004110,9,2.5775,-0.87,0.5,38.49219466666667,-82.39,-82.26
1734501526016490406,1734501526016077041,9,2.5775,-0.87,0.5,38.70482466666667,-82.8,-82.55
1734501526116625195,1734501526116477251,9,2.5775,-0.87,0.5,38.929961666666664,-81.8,-81.63
1734501526216402204,1734501526215996503,9,2.5775,-0.87,0.5,39.11757633333333,-81.91,-82.03
1734501526315324150,1734501526315026283,9,2.5775,-0.87,0.5,39.248906,-82.03,-81.99
1734501526415444686,1734501526415011644,9,2.5775,-0.87,0.5,39.367728666666665,-82.81,-82.45
1734501526515812827,1734501526515080690,9,2.5775,-0.87,0.5,39.524074,-82.12,-81.95
1734501526617636278,1734501526617419481,9,2.5775,-0.87,0.5,39.68667299999999,-82.01,-81.95
1734501526716444729,1734501526715070247,9,2.5775,-0.87,0.5,39.84301833333333,-82.13,-81.77
1734501526915469630,1734501526915057182,9,2.5775,-0.87,0.5,40.055647,-81.77,-82.88
1734501527015519981,1734501527015010356,9,2.5775,-0.87,0.5,40.237008,-81.56,-81.99
1734501527116995815,1734501527116731166,9,2.5775,-0.87,0.5,40.462145,-81.73,-81.67
1734501527216635857,1734501527216321468,9,2.5775,-0.87,0.5,40.58722133333333,-84.44,-84.99
1734501527315445087,1734501527315003871,9,2.5775,-0.87,0.5,40.72480466666667,-82.05,-81.88
1734501527415540691,1734501527415046453,9,2.5775,-0.87,0.5,40.85613466666666,-82.59,-82.55
1734501527517504608,1734501527517250537,9,2.5775,-0.87,0.5,41.00622633333333,-82.22,-82.25
1734501527616608610,1734501527616262197,9,2.5775,-0.87,0.5,41.13130266666666,-82.54,-82.11
1734501527716372957,1734501527716146469,9,2.5775,-0.87,0.5,41.28139433333333,-82.24,-82.06
1734501527816630629,1734501527816195011,9,2.5775,-0.87,0.5,41.44399333333333,-82.48,-82.15
1734501527917517456,1734501527917303800,9,2.5775,-0.87,0.5,41.60659233333333,-82.46,-82.85
1734501528017062477,1734501528016887187,9,2.5775,-0.87,0.5,41.73166733333333,-82.27,-81.84
1734501528116239681,1734501528116039991,9,2.5775,-0.87,0.5,41.87550433333333,-82.05,-83.62
1734501528217126927,1734501528217039585,9,2.5775,-0.87,0.5,42.00058066666666,-82.5,-82.84
1734501528317259715,1734501528317039251,9,2.5775,-0.87,0.5,42.156926,-83.82,-83.18
1734501528417978083,1734501528417773723,9,2.5775,-0.87,0.5,42.269495,-82.35,-82.37
1734501528517987408,1734501528517703771,9,2.5775,-0.87,0.5,42.413333,-82.53,-82.23
1734501528615524761,1734501528615065813,9,2.5775,-0.87,0.5,42.525902333333335,-83.09,-82.53
1734501528715402408,1734501528715056896,9,2.5775,-0.87,0.5,42.675994333333335,-83.52,-83.42
1734501528815413618,1734501528815023660,9,2.5775,-0.87,0.5,42.81983133333333,-82.56,-82.11
1734501528918427061,1734501528918176651,9,2.5775,-0.87,0.5,43.001192333333336,-82.53,-82.11
1734501529048414694,1734501529048201560,9,2.5775,-0.87,0.5,43.15753766666666,-82.71,-84.05
1734501529118596323,1734501529118307828,9,2.5775,-0.87,0.5,43.326390333333336,-83.16,-82.67
1734501529217275121,1734501529216999053,9,2.5775,-0.87,0.5,43.45146533333334,-84.09,-86.03
1734501529317534853,1734501529317338705,9,2.5775,-0.87,0.5,43.61406433333334,-83.06,-82.49
1734501529417293451,1734501529417098999,9,2.5775,-0.87,0.5,43.76415599999999,-82.78,-82.72
1734501529517133768,1734501529516999006,9,2.5775,-0.87,0.5,43.907994,-82.93,-82.27
1734501529617237096,1734501529616977930,9,2.5775,-0.87,0.5,44.00805466666666,-85.67,-85.94
1734501529716894786,1734501529716749429,9,2.5775,-0.87,0.5,44.114369,-83.75,-83.02
1734501529817385307,1734501529817145586,9,2.5775,-0.87,0.5,44.276968000000004,-82.73,-82.51
1734501529917334373,1734501529917108535,9,2.5775,-0.87,0.5,44.44582033333333,-83.93,-83.5
1734501530017982934,1734501530017743825,9,2.5775,-0.87,0.5,44.633435,-82.92,-82.35
1734501530117265330,1734501530117018222,9,2.5775,-0.87,0.5,44.77727333333333,-82.8,-82.2
1734501530217394926,1734501530217134237,9,2.5775,-0.87,0.5,44.933619,-83.15,-82.59
1734501530317416719,1734501530317201614,9,2.5775,-0.87,0.5,45.058695,-83.07,-82.44
1734501530418219964,1734501530418002128,9,2.5775,-0.87,0.5,45.14624733333333,-84.64,-86.25
1734501530515368748,1734501530515024900,9,2.5775,-0.87,0.5,45.25256166666667,-85.17,-85.68
1734501530615342762,1734501530615045070,9,2.5775,-0.87,0.5,45.37763800000001,-83.47,-82.82
1734501530715400499,1734501530715045213,9,2.5775,-0.87,0.5,45.590268,-83.83,-85.32
1734501530815328363,1734501530815035343,9,2.5775,-0.87,0.5,45.79039066666667,-84.68,-84.69
1734501530915265036,1734501530915034294,9,2.5775,-0.87,0.5,45.959243333333326,-85.3,-84.34
1734501531015231111,1734501531015032291,9,2.5775,-0.87,0.5,46.084319666666666,-83.67,-83.06
1734501531115389789,1734501531115046739,9,2.5775,-0.87,0.5,46.203140999999995,-83.12,-82.87
1734501531218032693,1734501531217743396,9,2.5775,-0.87,0.5,46.33447066666667,-83.23,-84.25
1734501531318389677,1734501531318136215,9,2.5775,-0.87,0.5,46.453293333333335,-83.52,-84.89
1734501531417472157,1734501531417278528,9,2.5775,-0.87,0.5,46.54084700000001,-83.49,-82.89
1734501531516736088,1734501531516483783,9,2.5775,-0.87,0.5,46.572116333333334,-83.28,-83.13
1734501531616409945,1734501531616207838,9,2.5775,-0.87,0.5,46.55335433333334,-83.9,-84.24
1734501531716868397,1734501531716481447,9,2.5775,-0.87,0.5,46.503323333333334,-83.93,-84.15
1734501531816293634,1734501531816211700,9,2.5775,-0.87,0.5,46.503323333333334,-83.62,-83.52
1734501531916759050,1734501531916162252,9,2.5775,-0.87,0.5,46.534592333333336,-83.42,-85.11
1734501532016192766,1734501532016111373,9,2.5775,-0.87,0.5,46.609638999999994,-87.08,-87.34
1734501532115450770,1734501532115009784,9,2.5775,-0.87,0.5,46.640908,-83.78,-83.36
1734501532215377912,1734501532215070962,9,2.5775,-0.87,0.5,46.659670000000006,-83.83,-84.75
1734501532315462751,1734501532315045356,9,2.5775,-0.87,0.5,46.672177,-82.75,-82.42
1734501532416584830,1734501532416172981,9,2.5775,-0.87,0.5,46.69093899999999,-82.18,-81.84
1734501532516333200,1734501532516108751,9,2.5775,-0.87,0.5,46.715953333333324,-81.94,-81.53
1734501532615492798,1734501532615037679,9,2.5775,-0.87,0.5,46.728462,-82.73,-82.39
1734501532717983578,1734501532717803955,9,2.5775,-0.87,0.5,46.73471533333333,-82.27,-83.67
1734501532817201814,1734501532816987991,9,2.5775,-0.87,0.5,46.73471533333333,-82.39,-82.77
1734501532916671500,1734501532916498184,9,2.5775,-0.87,0.5,46.72846033333334,-82.13,-82.56
1734501533016505793,1734501533016404628,9,2.5775,-0.87,0.5,46.740969,-82.86,-82.79
1734501533115895953,1734501533115106344,9,2.5775,-0.87,0.5,46.740969,-82.8,-84.42
1734501533215472099,1734501533215008020,9,2.5775,-0.87,0.5,46.740969,-81.98,-82.26
1734501533318495579,1734501533318272590,9,2.5775,-0.87,0.5,46.734714,-81.78,-82.79
1734501533418252160,1734501533417987823,9,2.5775,-0.87,0.5,46.734714,-82.23,-83.89
1734501533517908160,1734501533517724990,9,2.5775,-0.87,0.5,46.734714,-81.74,-81.49
1734501533618580122,1734501533618292331,9,2.5775,-0.87,0.5,46.722207,-82.61,-83.36
1734501533718269094,1734501533718017101,9,2.5775,-0.87,0.5,46.70344633333334,-82.02,-81.51
1734501533818287879,1734501533818059206,9,2.5775,-0.87,0.5,46.70344633333334,-82.07,-81.76
1734501533917784985,1734501533917710781,9,2.5775,-0.87,0.5,46.697192666666666,-81.68,-81.53
1734501534049007230,1734501534048764705,9,2.5775,-0.87,0.5,46.722208333333334,-83.51,-83.52
1734501534118799074,1734501534118168115,9,2.5775,-0.87,0.5,46.71595466666667,-82.13,-81.72
1734501534217763538,1734501534217543125,9,2.5775,-0.87,0.5,46.722208333333334,-82.26,-82.14
1734501534318362668,1734501534318015336,9,2.5775,-0.87,0.5,46.715953333333324,-81.97,-81.82
1734501534417880295,1734501534417757749,9,2.5775,-0.87,0.5,46.715953333333324,-81.86,-83.99
1734501534518096689,1734501534517863512,9,2.5775,-0.87,0.5,46.72846166666667,-81.76,-81.67
1734501534618137596,1734501534618038892,9,2.5775,-0.87,0.5,46.71595466666667,-81.84,-81.74
1734501534718468425,1734501534718178272,9,2.5775,-0.87,0.5,46.73471533333333,-81.89,-81.57
1734501534818436956,1734501534818220853,9,2.5775,-0.87,0.5,46.728462,-81.82,-81.52
1734501534918276661,1734501534918039321,9,2.5775,-0.87,0.5,46.747223999999996,-81.8,-81.54
1734501535017856993,1734501535017747163,9,2.5775,-0.87,0.5,46.74097033333334,-81.74,-82.12
1734501535118074504,1734501535117892265,9,2.5775,-0.87,0.5,46.74722366666666,-82.73,-82.43
1734501535218031658,1734501535217880010,9,2.5775,-0.87,0.5,46.74722366666666,-81.8,-83.45
1734501535317734808,1734501535317490577,9,2.5775,-0.87,0.5,46.765985666666666,-81.91,-81.7
1734501535419284585,1734501535419044971,9,2.5775,-0.87,0.5,46.765985666666666,-81.88,-81.93
1734501535517905475,1734501535517717599,9,2.5775,-0.87,0.5,46.78474633333334,-81.79,-81.51
1734501535618555397,1734501535618347167,9,2.5775,-0.87,0.5,46.791,-81.77,-83.45
1734501535718215619,1734501535718018293,9,2.5775,-0.87,0.5,46.822269000000006,-83.38,-82.9
1734501535818158308,1734501535817939281,9,2.5775,-0.87,0.5,46.82852233333333,-81.68,-81.56
1734501535918107235,1734501535917968988,9,2.5775,-0.87,0.5,46.847284333333334,-84.2,-85.43
1734501536116903513,1734501536116537332,9,2.5775,-0.87,0.5,46.841030999999994,-81.75,-81.57
1734501536216627384,1734501536216313600,9,2.5775,-0.87,0.5,46.828523999999994,-82.37,-83.07
1734501536316533301,1734501536316224813,9,2.5775,-0.87,0.5,46.816015666666665,-81.73,-81.78
1734501536416385743,1734501536416134834,9,2.5775,-0.87,0.5,46.80976066666667,-84.57,-84.02
1734501536516574509,1734501536516172170,9,2.5775,-0.87,0.5,46.828522666666665,-81.55,-81.7
1734501536616474109,1734501536616202831,9,2.5775,-0.87,0.5,46.828522666666665,-82.16,-82.07
1734501536717929726,1734501536717702865,9,2.5775,-0.87,0.5,46.84103100000001,-81.8,-83.78
1734501536916369759,1734501536916201829,9,2.5775,-0.87,0.5,46.85353799999999,-82.4,-82.28
1734501537415335028,1734501537415012359,9,2.5775,-0.87,0.5,46.87229966666666,-81.78,-81.74
1734501537515325598,1734501537515043497,9,2.5775,-0.87,0.5,46.866046000000004,-82.63,-82.21
1734501537616407189,1734501537616114616,9,2.5775,-0.87,0.5,46.878553333333336,-82.55,-82.62
1734501537717393760,1734501537717070579,9,2.5775,-0.87,0.5,46.884806999999995,-81.62,-81.55
1734501537817035735,1734501537816846847,9,2.5775,-0.87,0.5,46.87855366666667,-82.44,-82.54
1734501537917463290,1734501537917057514,9,2.5775,-0.87,0.5,46.859792999999996,-81.88,-81.62
1734501538017430480,1734501538017191171,9,2.5775,-0.87,0.5,46.85353933333332,-81.49,-81.64
1734501538118065742,1734501538117987155,9,2.5775,-0.87,0.5,46.872299999999996,-81.95,-83.49
1734501538217104695,1734501538216880321,9,2.5775,-0.87,0.5,46.897313999999994,-82.32,-82.22
1734501538317082387,1734501538316901683,9,2.5775,-0.87,0.5,46.941090333333335,-81.54,-81.51
1734501538417223736,1734501538417006254,9,2.5775,-0.87,0.5,46.966105666666664,-81.67,-81.56
1734501538517202171,1734501538517017126,9,2.5775,-0.87,0.5,47.00362833333333,-82.33,-81.96
1734501538617195245,1734501538617039442,9,2.5775,-0.87,0.5,47.00362833333333,-82.42,-82.23
1734501538717092290,1734501538716895818,9,2.5775,-0.87,0.5,46.997375000000005,-82.19,-81.91
1734501538817327752,1734501538817103624,9,2.5775,-0.87,0.5,46.984868,-82.33,-82.5
1734501538917072354,1734501538916964292,9,2.5775,-0.87,0.5,46.997375,-82.31,-82.0
1734501539049187776,1734501539047909736,9,2.5775,-0.87,0.5,47.02864400000001,-82.35,-81.91
1734501539117136850,1734501539116843938,9,2.5775,-0.87,0.5,47.047406,-81.5,-81.92
1734501539217218450,1734501539217087268,9,2.5775,-0.87,0.5,47.07242166666666,-82.41,-81.94
1734501539317203282,1734501539316987991,9,2.5775,-0.87,0.5,47.091182333333336,-81.74,-81.53
1734501539417360289,1734501539417128562,9,2.5775,-0.87,0.5,47.103689333333335,-82.12,-82.59
1734501539517190241,1734501539516918420,9,2.5775,-0.87,0.5,47.103689333333335,-81.56,-82.67
1734501539617360598,1734501539617151737,9,2.5775,-0.87,0.5,47.08492866666666,-81.91,-81.67
1734501539717597248,1734501539717246294,9,2.5775,-0.87,0.5,47.103690666666665,-81.83,-81.59
1734501539817382358,1734501539817147254,9,2.5775,-0.87,0.5,47.116199,-82.34,-82.27
1734501539917606896,1734501539917388200,9,2.5775,-0.87,0.5,47.14121333333333,-81.91,-81.94
1734501540017325914,1734501540016940832,9,2.5775,-0.87,0.5,47.178735999999994,-81.87,-81.55
1734501540117420318,1734501540117174386,9,2.5775,-0.87,0.5,47.21625866666667,-81.53,-81.95
1734501540217673327,1734501540217414140,9,2.5775,-0.87,0.5,47.253782333333334,-82.15,-82.26
1734501540317506388,1734501540317268848,9,2.5775,-0.87,0.5,47.23502033333333,-82.69,-82.45
1734501540417358307,1734501540417104482,9,2.5775,-0.87,0.5,47.253781000000004,-82.68,-82.49
1734501540517751031,1734501540517455816,9,2.5775,-0.87,0.5,47.266288333333335,-82.23,-81.92
1734501540617658653,1734501540617349386,9,2.5775,-0.87,0.5,47.303810999999996,-81.9,-81.94
1734501540717596663,1734501540717434167,9,2.5775,-0.87,0.5,47.328826666666664,-82.44,-82.74
1734501540817374305,1734501540817231655,9,2.5775,-0.87,0.5,47.360095666666666,-81.71,-81.45
1734501540916880620,1734501540916439771,9,2.5775,-0.87,0.5,47.41012666666666,-83.11,-84.46
1734501541016380398,1734501541016166925,9,2.5775,-0.87,0.5,47.435142000000006,-82.05,-81.89
1734501541115594669,1734501541114994525,9,2.5775,-0.87,0.5,47.466411,-81.88,-81.73
1734501541215770557,1734501541215038776,9,2.5775,-0.87,0.5,47.460157333333335,-81.54,-82.14
1734501541318472628,1734501541318349361,9,2.5775,-0.87,0.5,47.447650333333335,-81.94,-81.64
1734501541418760680,1734501541418518304,9,2.5775,-0.87,0.5,47.472666000000004,-82.42,-82.63
1734501541517736970,1734501541517666816,9,2.5775,-0.87,0.5,47.510188666666664,-81.93,-81.59
1734501541618253744,1734501541618072271,9,2.5775,-0.87,0.5,47.57272666666666,-81.83,-81.8
1734501541718396802,1734501541718084096,9,2.5775,-0.87,0.5,47.622756333333335,-81.87,-81.56
1734501541818208672,1734501541818022489,9,2.5775,-0.87,0.5,47.66653266666666,-81.79,-81.7
1734501541918515675,1734501541918355464,9,2.5775,-0.87,0.5,47.710308999999995,-82.14,-83.62
1734501542018192728,1734501542018065452,9,2.5775,-0.87,0.5,47.710308999999995,-82.49,-82.21
1734501542118738102,1734501542118468761,9,2.5775,-0.87,0.5,47.729071,-82.62,-82.34
1734501542215380572,1734501542215013265,9,2.5775,-0.87,0.5,47.73532433333333,-82.09,-81.65
1734501542715399158,1734501542715023040,9,2.5775,-0.87,0.5,47.77910033333333,-83.93,-85.51
1734501543316725535,1734501543316525936,9,2.5775,-0.87,0.5,47.58523399999999,-83.81,-85.21
1734501543415535655,1734501543414996147,9,2.5775,-0.87,0.5,47.56021833333333,-84.81,-84.46
1734501543515280421,1734501543514996528,9,2.5775,-0.87,0.5,47.53520266666666,-86.22,-87.52
1734501543716787429,1734501543716404676,9,2.5775,-0.87,0.5,47.491425,-83.11,-82.73
1734501543817462562,1734501543817259073,9,2.5775,-0.87,0.5,47.447649000000006,-86.65,-87.6
1734501543918036380,1734501543917094469,9,2.5775,-0.87,0.5,47.41012666666666,-82.96,-82.64
1734501544047009800,1734501544046605587,9,2.5775,-0.87,0.5,47.41012666666666,-83.29,-82.83
1734501544117211266,1734501544117010593,9,2.5775,-0.87,0.5,47.397618333333334,-83.11,-82.54
1734501544215267900,1734501544215011119,9,2.5775,-0.87,0.5,47.39136466666667,-83.27,-82.86
1734501544515334662,1734501544515035629,9,2.5775,-0.87,0.5,47.34758866666667,-83.05,-82.89
1734501544615365742,1734501544615011215,9,2.5775,-0.87,0.5,47.303812333333326,-83.59,-83.06
1734501544715340761,1734501544715042591,9,2.5775,-0.87,0.5,47.253781333333336,-83.16,-84.65
1734501544817221043,1734501544816946029,9,2.5775,-0.87,0.5,47.21625866666667,-83.46,-83.02
1734501544917027017,1734501544916873216,9,2.5775,-0.87,0.5,47.178735999999994,-84.29,-85.51
1734501545017608646,1734501545017473936,9,2.5775,-0.87,0.5,47.12245266666667,-83.2,-84.04
1734501545118684235,1734501545117877721,9,2.5775,-0.87,0.5,47.066168000000005,-83.9,-83.76
1734501545217719211,1734501545217507600,9,2.5775,-0.87,0.5,47.01613699999999,-82.85,-82.37
1734501545317556724,1734501545317323446,9,2.5775,-0.87,0.5,46.97235933333334,-85.39,-84.81
1734501545418178918,1734501545417981624,9,2.5775,-0.87,0.5,46.93483666666666,-81.96,-82.27
1734501545517887675,1734501545517650842,9,2.5775,-0.87,0.5,46.85353799999999,-82.34,-82.32
1734501545617634601,1734501545617456436,9,2.5775,-0.87,0.5,46.80350833333333,-82.72,-84.22
1734501545717698068,1734501545717504978,9,2.5775,-0.87,0.5,46.74097033333334,-82.84,-83.91
1734501545818036528,1734501545817795038,9,2.5775,-0.87,0.5,46.697192666666666,-82.72,-82.76
1734501545918488176,1734501545918234109,9,2.5775,-0.87,0.5,46.61589266666667,-82.37,-82.03
1734501546018536666,1734501546018387556,9,2.5775,-0.87,0.5,46.528338999999995,-82.59,-82.62
1734501546118103784,1734501546117927312,9,2.5775,-0.87,0.5,46.45329366666667,-82.66,-84.06
1734501546217893027,1734501546217709302,9,2.5775,-0.87,0.5,46.37824833333334,-82.49,-82.14
1734501546318308901,1734501546318090915,9,2.5775,-0.87,0.5,46.29694933333334,-82.33,-82.07
1734501546418149519,1734501546418032407,9,2.5775,-0.87,0.5,46.20939566666667,-82.63,-82.37
1734501546518333510,1734501546518119335,9,2.5775,-0.87,0.5,46.12809566666667,-82.59,-82.1
1734501546618250063,1734501546617925643,9,2.5775,-0.87,0.5,46.040541999999995,-82.15,-81.98
1734501546718392479,1734501546718209028,9,2.5775,-0.87,0.5,45.95924333333334,-82.04,-81.95
1734501546818245566,1734501546817946434,9,2.5775,-0.87,0.5,45.884198,-85.27,-86.43
1734501546917871800,1734501546917726278,9,2.5775,-0.87,0.5,45.796644333333326,-82.96,-84.35
1734501547017866233,1734501547017668724,9,2.5775,-0.87,0.5,45.70283700000001,-83.04,-82.52
1734501547118422146,1734501547118237018,9,2.5775,-0.87,0.5,45.571507,-82.35,-82.01
1734501547217409442,1734501547217127323,9,2.5775,-0.87,0.5,45.48395333333334,-82.83,-82.79
1734501547318172633,1734501547318039655,9,2.5775,-0.87,0.5,45.377637666666665,-82.72,-84.06
1734501547418908769,1734501547418693542,9,2.5775,-0.87,0.5,45.28383066666667,-82.46,-82.13
1734501547517996887,1734501547517783403,9,2.5775,-0.87,0.5,45.17126299999999,-82.94,-83.38
1734501547618181783,1734501547618067502,9,2.5775,-0.87,0.5,45.07120233333333,-82.06,-83.68
1734501547718279725,1734501547718027591,9,2.5775,-0.87,0.5,44.977395,-82.29,-82.12
1734501547818972835,1734501547818713426,9,2.5775,-0.87,0.5,44.89609466666666,-85.97,-86.92
1734501547918187591,1734501547918052673,9,2.5775,-0.87,0.5,44.796034,-82.22,-83.59
1734501548018286231,1734501548018052816,9,2.5775,-0.87,0.5,44.695973333333335,-82.37,-82.0
1734501548118433006,1734501548118191242,9,2.5775,-0.87,0.5,44.577152000000005,-83.26,-83.02
1734501548217771362,1734501548217651128,9,2.5775,-0.87,0.5,44.458329,-81.93,-81.72
1734501548318563207,1734501548318300724,9,2.5775,-0.87,0.5,44.33950633333333,-84.88,-84.96
1734501548418347907,1734501548418107032,9,2.5775,-0.87,0.5,44.23944566666666,-81.88,-81.57
1734501548517494129,1734501548517107248,9,2.5775,-0.87,0.5,44.12062433333333,-82.0,-81.7
1734501548617535297,1734501548617223501,9,2.5775,-0.87,0.5,44.00180133333333,-83.01,-83.46
1734501548717941472,1734501548717594385,9,2.5775,-0.87,0.5,43.882978333333334,-83.17,-85.05
1734501548818071846,1734501548817736864,9,2.5775,-0.87,0.5,43.78291633333333,-85.28,-85.06
1734501548917288829,1734501548917016506,9,2.5775,-0.87,0.5,43.689109333333334,-86.1,-86.66
1734501549046692868,1734501549046463251,9,2.5775,-0.87,0.5,43.564032999999995,-82.19,-82.06
1734501549116722381,1734501549116175174,9,2.5775,-0.87,0.5,43.42644966666668,-82.07,-83.04
1734501549216800537,1734501549216567754,9,2.5775,-0.87,0.5,43.288866000000006,-82.58,-82.3
1734501549315244420,1734501549314992427,9,2.5775,-0.87,0.5,43.182551666666676,-82.74,-84.49
1734501549415356485,1734501549415023803,9,2.5775,-0.87,0.5,43.069983666666666,-82.06,-81.76
1734501550016676833,1734501550016383409,9,2.5775,-0.87,0.5,42.444601,-82.81,-84.97
1734501550116314087,1734501550116045713,9,2.5775,-0.87,0.5,42.332032999999996,-83.04,-85.51
1734501550216560878,1734501550216158866,9,2.5775,-0.87,0.5,42.269495,-83.25,-83.13
1734501550315571044,1734501550315014839,9,2.5775,-0.87,0.5,42.156927333333336,-84.44,-86.51
1734501550415399756,1734501550415034055,9,2.5775,-0.87,0.5,42.081881,-84.16,-84.36
1734501550517237814,1734501550517061710,9,2.5775,-0.87,0.5,42.01934266666667,-84.04,-83.7
1734501550616863105,1734501550616597175,9,2.5775,-0.87,0.5,42.01934266666667,-88.31,-88.93
1734501550716880598,1734501550716161966,9,2.5775,-0.87,0.5,42.006835333333335,-83.51,-83.02
1734501550815222843,1734501550815071821,9,2.5775,-0.87,0.5,41.98807466666667,-84.69,-84.42
1734501550915537398,1734501550915124893,9,2.5775,-0.87,0.5,41.95680466666666,-84.42,-83.88
1734501551015677685,1734501551015012979,9,2.5775,-0.87,0.5,41.93804266666667,-83.98,-83.92
1734501551115204341,1734501551115009069,9,2.5775,-0.87,0.5,41.93804266666666,-84.6,-84.69
1734501551215984137,1734501551215018749,9,2.5775,-0.87,0.5,41.92553533333333,-84.72,-85.5
1734501551315511961,1734501551315055608,9,2.5775,-0.87,0.5,41.91302833333333,-85.77,-86.08
1734501551415404597,1734501551414994001,9,2.5775,-0.87,0.5,41.894267666666664,-83.87,-85.61
1734501551518520826,1734501551518418550,9,2.5775,-0.87,0.5,41.88801433333333,-84.67,-84.66
1734501551615637651,1734501551615006446,9,2.5775,-0.87,0.5,41.90052133333333,-85.5,-86.08
1734501551715523205,1734501551715022563,9,2.5775,-0.87,0.5,41.906774666666664,-88.52,-89.03
1734501551815338718,1734501551815021514,9,2.5775,-0.87,0.5,41.91928166666667,-89.46,-88.96
1734501551916446802,1734501551916209220,9,2.5775,-0.87,0.5,41.90677466666667,-84.72,-84.19
1734501552016534980,1734501552016292095,9,2.5775,-0.87,0.5,41.88801266666667,-85.59,-85.31
1734501552116575589,1734501552116261005,9,2.5775,-0.87,0.5,41.869251999999996,-84.77,-85.0
1734501552216642079,1734501552216313838,9,2.5775,-0.87,0.5,41.862997,-84.28,-85.77
1734501552317105502,1734501552316874504,9,2.5775,-0.87,0.5,41.85674366666667,-84.25,-84.39
1734501552417626541,1734501552417100429,9,2.5775,-0.87,0.5,41.850488666666664,-84.23,-86.49
1734501552516241191,1734501552516082286,9,2.5775,-0.87,0.5,41.84423533333333,-84.96,-85.2
1734501552616428061,1734501552616228103,9,2.5775,-0.87,0.5,41.84423533333333,-85.3,-86.38
1734501552716926060,1734501552716109752,9,2.5775,-0.87,0.5,41.83172833333333,-84.5,-85.94
1734501552816418084,1734501552816228866,9,2.5775,-0.87,0.5,41.83172833333333,-87.25,-88.48
1734501552915318426,1734501552915035247,9,2.5775,-0.87,0.5,41.837981666666664,-83.64,-85.29
1734501553015388653,1734501553015009880,9,2.5775,-0.87,0.5,41.837981666666664,-84.24,-83.91
1734501553115323420,1734501553115041494,9,2.5775,-0.87,0.5,41.819221,-86.18,-87.01
1734501553317346035,1734501553317161560,9,2.5775,-0.87,0.5,41.80046033333333,-86.82,-86.91
1734501553417847630,1734501553417643070,9,2.5775,-0.87,0.5,41.79420666666667,-84.48,-84.06
1734501553518192040,1734501553517904996,9,2.5775,-0.87,0.5,41.781698,-85.63,-85.78
1734501553617950595,1734501553617797613,9,2.5775,-0.87,0.5,41.775444666666665,-84.2,-85.39
1734501553717988343,1734501553717707157,9,2.5775,-0.87,0.5,41.76919133333333,-84.21,-84.11
1734501553818230535,1734501553818101167,9,2.5775,-0.87,0.5,41.775446333333335,-83.59,-85.38
1734501553918257510,1734501553918035507,9,2.5775,-0.87,0.5,41.76919266666667,-86.05,-86.46
1734501554015413902,1734501554015072345,9,2.5775,-0.87,0.5,41.775446,-85.25,-84.95
1734501554115415016,1734501554115029096,9,2.5775,-0.87,0.5,41.78169966666667,-83.54,-83.5
1734501554215435196,1734501554215032100,9,2.5775,-0.87,0.5,41.80046033333333,-84.59,-84.27
1734501554315618852,1734501554315068244,9,2.5775,-0.87,0.5,41.80046033333333,-84.21,-83.86
1734501554415577264,1734501554415056467,9,2.5775,-0.87,0.5,41.80671366666667,-84.62,-84.12
1734501554516101574,1734501554515029430,9,2.5775,-0.87,0.5,41.787953,-84.75,-85.89
1734501554615337643,1734501554614996910,9,2.5775,-0.87,0.5,41.787953,-83.81,-83.77
1734501554716697433,1734501554716414928,9,2.5775,-0.87,0.5,41.80046033333333,-84.95,-87.04
1734501554816355136,1734501554816103935,9,2.5775,-0.87,0.5,41.831728,-85.98,-85.37
1734501554916718921,1734501554916473150,9,2.5775,-0.87,0.5,41.825474666666665,-83.36,-83.76
1734501555016406978,1734501555016179084,9,2.5775,-0.87,0.5,41.819221,-84.25,-83.85
1734501555317522822,1734501555317209243,9,2.5775,-0.87,0.5,41.806714,-83.66,-83.15
1734501555417502837,1734501555417325973,9,2.5775,-0.87,0.5,41.81296733333333,-83.48,-82.91
1734501555517466419,1734501555517333984,9,2.5775,-0.87,0.5,41.80671366666667,-84.21,-84.19
1734501555617563080,1734501555617306709,9,2.5775,-0.87,0.5,41.79420666666667,-85.63,-87.43
1734501555717168360,1734501555717019081,9,2.5775,-0.87,0.5,41.806714,-83.82,-85.78
1734501555818199864,1734501555817893743,9,2.5775,-0.87,0.5,41.819221,-84.0,-83.91
1734501555915251254,1734501555915008783,9,2.5775,-0.87,0.5,41.80671366666667,-84.64,-85.69
1734501556015445302,1734501556015020608,9,2.5775,-0.87,0.5,41.819221,-85.08,-85.4
