%time,field.stamp,field.id,field.x,field.y,field.z,field.distanceFromTag,field.rssi,field.rssi_fp
1730020288379497212,1730020288379241466,5,-2.58,0.87,1.97,5.7159813333333345,-79.27,-81.83
1730020288480158432,1730020288479993343,5,-2.58,0.87,1.97,5.728489000000001,-78.9,-80.57
1730020288579812296,1730020288579512596,5,-2.58,0.87,1.97,5.728489000000001,-79.62,-81.21
1730020288679807472,1730020288679581880,5,-2.58,0.87,1.97,5.728489000000001,-78.59,-81.06
1730020288779995533,1730020288779743671,5,-2.58,0.87,1.97,5.728489000000001,-80.23,-81.4
1730020288879829696,1730020288879635810,5,-2.58,0.87,1.97,5.740996666666668,-79.07,-81.18
1730020288980324586,1730020288980100870,5,-2.58,0.87,1.97,5.747250333333334,-78.98,-81.14
1730020289079616417,1730020289079454183,5,-2.58,0.87,1.97,5.747250333333334,-79.42,-80.62
1730020289180533938,1730020289179916858,5,-2.58,0.87,1.97,5.7347426666666665,-79.11,-80.88
1730020289280071197,1730020289279962062,5,-2.58,0.87,1.97,5.728489000000001,-79.15,-81.91
1730020289379565649,1730020289379376411,5,-2.58,0.87,1.97,5.734743000000001,-79.12,-81.8
1730020289480204331,1730020289479893445,5,-2.58,0.87,1.97,5.759758333333333,-81.43,-83.64
1730020289579009171,1730020289578618764,5,-2.58,0.87,1.97,5.753504333333333,-79.17,-80.69
1730020289679230926,1730020289678928375,5,-2.58,0.87,1.97,5.747250333333334,-78.74,-80.95
1730020289779379784,1730020289779085397,5,-2.58,0.87,1.97,5.728489000000001,-78.81,-80.6
1730020289878776102,1730020289878583192,5,-2.58,0.87,1.97,5.734743000000001,-79.29,-81.07
1730020289977733355,1730020289977442264,5,-2.58,0.87,1.97,5.734743000000001,-79.3,-80.85
1730020290078350718,1730020290077888965,5,-2.58,0.87,1.97,5.728489000000001,-79.47,-81.04
1730020290178013482,1730020290177494287,5,-2.58,0.87,1.97,5.7347426666666665,-78.86,-81.26
1730020290278398488,1730020290277992725,5,-2.58,0.87,1.97,5.740996666666667,-79.73,-81.03
1730020290378178852,1730020290377712726,5,-2.58,0.87,1.97,5.747250666666666,-79.06,-80.83
1730020290476617982,1730020290476141452,5,-2.58,0.87,1.97,5.740997,-79.55,-80.45
1730020290576492782,1730020290576113700,5,-2.58,0.87,1.97,5.728489333333333,-79.22,-80.58
1730020290676877734,1730020290676127195,5,-2.58,0.87,1.97,5.722235333333334,-79.22,-81.5
1730020290777227408,1730020290776108741,5,-2.58,0.87,1.97,5.709727666666667,-79.05,-80.42
1730020290876887593,1730020290876167535,5,-2.58,0.87,1.97,5.728489000000001,-79.01,-80.53
1730020290976444930,1730020290976128578,5,-2.58,0.87,1.97,5.740996666666667,-79.0,-80.87
1730020291076620914,1730020291076108694,5,-2.58,0.87,1.97,5.740996666666667,-79.21,-81.2
1730020291176302912,1730020291176105737,5,-2.58,0.87,1.97,5.715981333333333,-79.11,-80.96
1730020291278146694,1730020291277628421,5,-2.58,0.87,1.97,5.709727666666667,-79.06,-80.63
1730020291377735520,1730020291377516746,5,-2.58,0.87,1.97,5.728489000000001,-78.84,-80.76
1730020291779389746,1730020291779193162,5,-2.58,0.87,1.97,5.709727666666667,-79.27,-80.69
1730020291879198894,1730020291878931522,5,-2.58,0.87,1.97,5.697220000000001,-78.54,-80.43
1730020291978323753,1730020291977914094,5,-2.58,0.87,1.97,5.703474,-79.73,-81.02
1730020292076625071,1730020292076123237,5,-2.58,0.87,1.97,5.709727666666667,-79.16,-80.76
1730020292176684914,1730020292176123380,5,-2.58,0.87,1.97,5.709727666666667,-79.01,-80.44
1730020292276597061,1730020292276088476,5,-2.58,0.87,1.97,5.728489000000001,-81.13,-81.59
1730020292378730522,1730020292378408432,5,-2.58,0.87,1.97,5.740996666666667,-79.05,-81.57
1730020292478829526,1730020292478482007,5,-2.58,0.87,1.97,5.7347426666666665,-79.22,-80.69
1730020292578823233,1730020292578605651,5,-2.58,0.87,1.97,5.728489,-78.74,-80.7
1730020292678945430,1730020292678738117,5,-2.58,0.87,1.97,5.740996666666668,-79.06,-82.37
1730020292776806544,1730020292776152610,5,-2.58,0.87,1.97,5.766012,-79.46,-81.07
1730020292876663528,1730020292876075506,5,-2.58,0.87,1.97,5.778519666666667,-79.35,-81.98
1730020292976446039,1730020292976101398,5,-2.58,0.87,1.97,5.778519666666667,-78.63,-81.06
1730020293076588790,1730020293076129436,5,-2.58,0.87,1.97,5.797281000000001,-79.51,-80.76
1730020293176553460,1730020293176117420,5,-2.58,0.87,1.97,5.8097883333333336,-79.68,-80.9
1730020293276495929,1730020293276035547,5,-2.58,0.87,1.97,5.841057333333334,-80.23,-82.31
1730020293376633967,1730020293376097202,5,-2.58,0.87,1.97,5.859818999999999,-79.51,-80.94
1730020293476609801,1730020293476132154,5,-2.58,0.87,1.97,5.884834333333333,-79.63,-80.7
1730020293576552773,1730020293576128959,5,-2.58,0.87,1.97,5.903595666666667,-79.13,-80.74
1730020293676628979,1730020293676136016,5,-2.58,0.87,1.97,5.922357000000001,-79.39,-80.82
1730020293776855033,1730020293776145935,5,-2.58,0.87,1.97,5.959879999999999,-79.44,-80.76
1730020293877051061,1730020293876089811,5,-2.58,0.87,1.97,5.984895333333334,-79.12,-80.62
1730020293976278812,1730020293976095438,5,-2.58,0.87,1.97,6.022418333333333,-79.03,-80.38
1730020294076628514,1730020294076071262,5,-2.58,0.87,1.97,6.047433333333333,-79.39,-80.74
1730020294377715251,1730020294377404928,5,-2.58,0.87,1.97,6.116225333333333,-80.19,-80.67
1730020294477731513,1730020294477487087,5,-2.58,0.87,1.97,6.2225399999999995,-81.99,-84.4
1730020294577689044,1730020294577456712,5,-2.58,0.87,1.97,6.422662,-81.69,-82.37
1730020294677784954,1730020294677543640,5,-2.58,0.87,1.97,6.4852,-88.77,-92.6
1730020294777875084,1730020294777444362,5,-2.58,0.87,1.97,6.591514666666666,-82.18,-81.87
1730020294879972691,1730020294879726648,5,-2.58,0.87,1.97,6.547738,-81.46,-81.72
1730020294976383357,1730020294976068258,5,-2.58,0.87,1.97,6.61653,-80.71,-81.63
1730020295076533414,1730020295076126098,5,-2.58,0.87,1.97,6.572753333333334,-79.4,-80.64
1730020295176528210,1730020295176050424,5,-2.58,0.87,1.97,6.572753333333334,-79.57,-80.52
1730020295276720762,1730020295276124000,5,-2.58,0.87,1.97,6.560245999999999,-79.03,-80.44
1730020295376731183,1730020295376087188,5,-2.58,0.87,1.97,6.604022666666666,-78.8,-80.77
1730020295478499312,1730020295478015184,5,-2.58,0.87,1.97,6.654053,-79.05,-81.06
1730020295578154422,1730020295577772140,5,-2.58,0.87,1.97,6.754114,-79.24,-81.23
1730020295678214895,1730020295677805900,5,-2.58,0.87,1.97,6.810398333333333,-79.11,-80.93
1730020295778118120,1730020295777743101,5,-2.58,0.87,1.97,6.872936333333334,-79.22,-81.1
1730020295879183406,1730020295878867149,5,-2.58,0.87,1.97,6.885443666666667,-79.35,-80.82
1730020295978779491,1730020295978508472,5,-2.58,0.87,1.97,6.935474333333334,-79.26,-80.56
1730020296078884316,1730020296078716516,5,-2.58,0.87,1.97,6.998012666666668,-79.74,-81.02
1730020296178830134,1730020296178609848,5,-2.58,0.87,1.97,7.066804666666667,-79.52,-80.52
1730020296278984490,1730020296278887987,5,-2.58,0.87,1.97,7.123088666666667,-79.36,-80.43
1730020296378811507,1730020296378706932,5,-2.58,0.87,1.97,7.179372999999999,-80.56,-81.32
1730020296477896158,1730020296477581977,5,-2.58,0.87,1.97,7.254418666666666,-79.15,-80.82
1730020296578068835,1730020296577829360,5,-2.58,0.87,1.97,7.323210666666667,-78.83,-81.09
1730020296678039205,1730020296677612543,5,-2.58,0.87,1.97,7.398256,-78.88,-81.67
1730020296776616712,1730020296776170492,5,-2.58,0.87,1.97,7.485809333333333,-80.03,-81.63
1730020296876704732,1730020296876126050,5,-2.58,0.87,1.97,7.567108666666667,-79.54,-81.04
1730020296979663009,1730020296979230403,5,-2.58,0.87,1.97,7.629646999999999,-78.85,-81.05
1730020297080394784,1730020297080045938,5,-2.58,0.87,1.97,7.685931333333333,-79.19,-81.36
1730020297179828731,1730020297179661273,5,-2.58,0.87,1.97,7.760977333333333,-79.33,-81.14
1730020297280001128,1730020297279642820,5,-2.58,0.87,1.97,7.842276666666667,-79.23,-80.62
1730020297378514829,1730020297378424406,5,-2.58,0.87,1.97,7.911068666666668,-79.13,-80.36
1730020297476674405,1730020297476093292,5,-2.58,0.87,1.97,8.004876000000001,-81.36,-81.54
1730020297576745409,1730020297576090097,5,-2.58,0.87,1.97,8.079922,-78.91,-80.66
1730020297676475917,1730020297676124095,5,-2.58,0.87,1.97,8.154967666666666,-78.98,-80.52
1730020297776262222,1730020297776079416,5,-2.58,0.87,1.97,8.230013,-79.17,-81.66
1730020297876553278,1730020297876123189,5,-2.58,0.87,1.97,8.317566333333334,-79.2,-82.0
1730020297976584504,1730020297976084232,5,-2.58,0.87,1.97,8.411373666666666,-79.43,-82.48
1730020298076875672,1730020298076169729,5,-2.58,0.87,1.97,8.480165999999999,-79.13,-81.05
1730020298176631180,1730020298176085948,5,-2.58,0.87,1.97,8.555211666666667,-79.22,-81.4
1730020298276659605,1730020298276101350,5,-2.58,0.87,1.97,8.630257333333333,-78.76,-80.64
1730020298376641686,1730020298376127243,5,-2.58,0.87,1.97,8.724064333333333,-79.38,-80.39
1730020298476430678,1730020298476108551,5,-2.58,0.87,1.97,8.836632999999999,-79.44,-80.82
1730020298576523120,1730020298576141595,5,-2.58,0.87,1.97,8.924186333333333,-79.14,-80.52
1730020298676634360,1730020298676095008,5,-2.58,0.87,1.97,9.011739666666665,-79.7,-80.57
1730020298776537445,1730020298776075124,5,-2.58,0.87,1.97,9.074277666666667,-79.38,-81.13
1730020298876550004,1730020298876107215,5,-2.58,0.87,1.97,9.168084666666665,-79.12,-80.59
1730020298976534150,1730020298976080894,5,-2.58,0.87,1.97,9.261891666666665,-78.71,-81.24
1730020299076548649,1730020299076109170,5,-2.58,0.87,1.97,9.368206333333331,-79.05,-81.31
1730020299176593223,1730020299176209211,5,-2.58,0.87,1.97,9.449506,-79.33,-81.49
1730020299276315114,1730020299276080131,5,-2.58,0.87,1.97,9.518298,-79.65,-80.75
1730020299376506115,1730020299376125097,5,-2.58,0.87,1.97,9.587090000000002,-79.47,-82.3
1730020299476533215,1730020299476108551,5,-2.58,0.87,1.97,9.693404666666666,-79.57,-81.32
1730020299678480150,1730020299678271293,5,-2.58,0.87,1.97,9.837242333333334,-80.26,-81.61
1730020299779248048,1730020299778987407,5,-2.58,0.87,1.97,9.968572333333332,-79.39,-81.15
1730020299879555564,1730020299879374027,5,-2.58,0.87,1.97,10.074887333333335,-79.37,-80.55
1730020300079713870,1730020300079533815,5,-2.58,0.87,1.97,10.193709666666665,-79.41,-81.04
1730020300179005756,1730020300178724288,5,-2.58,0.87,1.97,10.312532,-79.33,-80.78
1730020300280270197,1730020300279898643,5,-2.58,0.87,1.97,10.456369666666667,-79.84,-81.11
1730020300376516765,1730020300376121044,5,-2.58,0.87,1.97,10.543923,-79.29,-81.08
1730020300476600693,1730020300476117610,5,-2.58,0.87,1.97,10.662745333333334,-78.69,-81.02
1730020300576496526,1730020300576121807,5,-2.58,0.87,1.97,10.744044666666667,-79.49,-82.18
1730020300679874948,1730020300679650783,5,-2.58,0.87,1.97,10.850359333333332,-79.48,-81.57
1730020300778791445,1730020300778558492,5,-2.58,0.87,1.97,10.925405,-79.27,-81.18
1730020300879016356,1730020300878783941,5,-2.58,0.87,1.97,11.025465666666667,-79.97,-83.23
1730020300978769975,1730020300978490591,5,-2.58,0.87,1.97,11.100511333333335,-83.23,-85.3
1730020301078707804,1730020301078420162,5,-2.58,0.87,1.97,11.194318666666666,-79.83,-82.08
1730020301179072652,1730020301178778409,5,-2.58,0.87,1.97,11.300633666666668,-81.55,-81.96
1730020301279908460,1730020301279675245,5,-2.58,0.87,1.97,11.400694666666666,-79.62,-81.03
1730020301378138076,1730020301377827644,5,-2.58,0.87,1.97,11.507009333333334,-79.4,-80.86
1730020301477809430,1730020301477571249,5,-2.58,0.87,1.97,11.569547333333333,-79.41,-80.88
1730020301578131845,1730020301577894926,5,-2.58,0.87,1.97,11.663354666666669,-79.54,-80.72
1730020301678286624,1730020301677757024,5,-2.58,0.87,1.97,11.732146666666665,-79.77,-80.62
1730020301778254865,1730020301777964830,5,-2.58,0.87,1.97,11.844714999999999,-79.77,-80.48
1730020301877717458,1730020301877440452,5,-2.58,0.87,1.97,11.938521666666666,-79.71,-80.82
1730020301977645217,1730020301977408170,5,-2.58,0.87,1.97,12.057344,-80.52,-81.2
1730020302078037566,1730020302077812671,5,-2.58,0.87,1.97,12.151151333333333,-79.71,-80.56
1730020302177920990,1730020302177601814,5,-2.58,0.87,1.97,12.257466333333332,-80.76,-81.33
1730020302278041756,1730020302277653932,5,-2.58,0.87,1.97,12.357527,-80.11,-80.89
1730020302377951892,1730020302377713441,5,-2.58,0.87,1.97,12.445080333333335,-79.76,-81.24
1730020302480225732,1730020302479843854,5,-2.58,0.87,1.97,12.526380000000001,-80.09,-81.02
1730020302579891041,1730020302579804182,5,-2.58,0.87,1.97,12.60768,-79.84,-81.19
1730020302679770443,1730020302679555654,5,-2.58,0.87,1.97,12.713994666666666,-80.5,-81.25
1730020302780066586,1730020302779922485,5,-2.58,0.87,1.97,12.814055333333334,-81.07,-83.45
1730020302880020533,1730020302879781723,5,-2.58,0.87,1.97,12.920369999999998,-80.54,-81.24
1730020302980001315,1730020302979708194,5,-2.58,0.87,1.97,13.020431,-79.9,-81.44
1730020303078097956,1730020303077762365,5,-2.58,0.87,1.97,13.120491999999999,-80.69,-82.87
1730020303178125119,1730020303177673101,5,-2.58,0.87,1.97,13.220552666666668,-81.09,-81.42
1730020303278760468,1730020303278369903,5,-2.58,0.87,1.97,13.426928333333334,-80.04,-81.27
1730020303377790577,1730020303377476930,5,-2.58,0.87,1.97,13.539496999999999,-80.15,-81.39
1730020303477996352,1730020303477580070,5,-2.58,0.87,1.97,13.645812,-80.09,-80.83
1730020303578325364,1730020303578017950,5,-2.58,0.87,1.97,13.770888333333332,-80.41,-81.34
1730020303678316279,1730020303677890062,5,-2.58,0.87,1.97,13.864695333333335,-81.19,-81.7
1730020303778054570,1730020303777782678,5,-2.58,0.87,1.97,13.964756,-80.18,-80.92
1730020303878041080,1730020303877689838,5,-2.58,0.87,1.97,14.064817,-79.96,-80.78
1730020303977901213,1730020303977648496,5,-2.58,0.87,1.97,14.158624333333334,-79.92,-80.89
1730020304078085211,1730020304077740430,5,-2.58,0.87,1.97,14.277447,-80.27,-80.59
1730020304177612886,1730020304177471160,5,-2.58,0.87,1.97,14.377507666666668,-80.12,-80.66
1730020304277999684,1730020304277763366,5,-2.58,0.87,1.97,14.508837666666667,-80.35,-81.14
1730020304377750964,1730020304377362966,5,-2.58,0.87,1.97,14.608898666666667,-80.15,-80.68
1730020304477699792,1730020304477470159,5,-2.58,0.87,1.97,14.70896,-80.39,-81.31
1730020304577966493,1730020304577704906,5,-2.58,0.87,1.97,14.777752,-80.58,-81.38
1730020304678171514,1730020304677797794,5,-2.58,0.87,1.97,14.865305000000001,-80.57,-81.14
1730020304778118926,1730020304777920246,5,-2.58,0.87,1.97,14.965365666666665,-80.78,-81.17
1730020304877693048,1730020304877462863,5,-2.58,0.87,1.97,15.090441666666669,-82.87,-83.15
1730020304976469778,1730020304976104736,5,-2.58,0.87,1.97,15.190502666666667,-81.54,-83.98
1730020305076569834,1730020305076154708,5,-2.58,0.87,1.97,15.290563666666666,-81.45,-83.67
1730020305176292800,1730020305176094532,5,-2.58,0.87,1.97,15.378116999999998,-82.05,-81.99
1730020305276557669,1730020305276115179,5,-2.58,0.87,1.97,15.471924333333334,-82.33,-82.76
1730020305376523992,1730020305376096963,5,-2.58,0.87,1.97,15.565731333333332,-81.7,-83.13
1730020305478592418,1730020305478451251,5,-2.58,0.87,1.97,15.665792333333334,-82.44,-84.46
1730020305579171824,1730020305578854322,5,-2.58,0.87,1.97,15.772107,-89.71,-90.6
1730020305678082235,1730020305677716255,5,-2.58,0.87,1.97,15.872168,-82.11,-82.56
1730020305778301349,1730020305778184890,5,-2.58,0.87,1.97,15.984736,-81.78,-82.32
1730020305878519082,1730020305878193378,5,-2.58,0.87,1.97,16.103557666666664,-81.68,-83.34
1730020305977926431,1730020305977781057,5,-2.58,0.87,1.97,16.216126,-81.25,-81.82
1730020306078266568,1730020306077902555,5,-2.58,0.87,1.97,16.316187,-81.19,-82.54
1730020306178067802,1730020306177708148,5,-2.58,0.87,1.97,16.428756333333332,-81.51,-81.79
1730020306278432570,1730020306278023719,5,-2.58,0.87,1.97,16.547578333333334,-80.63,-82.01
1730020306378491980,1730020306378201246,5,-2.58,0.87,1.97,16.653893333333333,-80.9,-81.51
1730020306478241174,1730020306477997779,5,-2.58,0.87,1.97,16.741446333333332,-80.65,-81.33
1730020306576756055,1730020306576170444,5,-2.58,0.87,1.97,16.847761333333334,-81.69,-81.54
1730020306676670982,1730020306676164865,5,-2.58,0.87,1.97,16.954076333333333,-80.76,-81.73
1730020306777021538,1730020306776309728,5,-2.58,0.87,1.97,17.06039133333333,-80.83,-81.18
1730020306876780859,1730020306876213312,5,-2.58,0.87,1.97,17.147945000000004,-79.76,-80.98
1730020306976668382,1730020306976158142,5,-2.58,0.87,1.97,17.260513333333332,-81.71,-82.0
1730020307076604115,1730020307076182603,5,-2.58,0.87,1.97,17.360574,-80.89,-81.67
1730020307176626368,1730020307176182985,5,-2.58,0.87,1.97,17.473142666666664,-79.99,-80.9
1730020307276468511,1730020307276092767,5,-2.58,0.87,1.97,17.579457,-80.54,-80.96
1730020307376874636,1730020307376192331,5,-2.58,0.87,1.97,17.685772,-80.18,-80.9
1730020307477111662,1730020307476275205,5,-2.58,0.87,1.97,17.804593999999998,-80.21,-80.95
1730020307577119153,1730020307576200962,5,-2.58,0.87,1.97,17.904655666666667,-80.54,-80.87
1730020307676687940,1730020307676099300,5,-2.58,0.87,1.97,18.01722433333333,-80.38,-81.08
1730020307776945502,1730020307776100873,5,-2.58,0.87,1.97,18.123539333333333,-81.49,-81.39
1730020307876735030,1730020307876151800,5,-2.58,0.87,1.97,18.236107666666665,-80.63,-80.93
1730020307976842303,1730020307976167678,5,-2.58,0.87,1.97,18.348675999999998,-83.41,-84.42
1730020308076833465,1730020308076171636,5,-2.58,0.87,1.97,18.45499033333333,-80.94,-82.13
1730020308176566154,1730020308176094532,5,-2.58,0.87,1.97,18.555051333333335,-81.31,-81.66
1730020308276647362,1730020308276089429,5,-2.58,0.87,1.97,18.67387366666667,-81.6,-83.68
1730020308376694432,1730020308376104593,5,-2.58,0.87,1.97,18.773935000000005,-82.38,-82.22
1730020308476954041,1730020308476210594,5,-2.58,0.87,1.97,18.87399566666667,-82.28,-82.49
1730020308577259196,1730020308576175689,5,-2.58,0.87,1.97,18.955295,-81.8,-81.82
1730020308676920427,1730020308676085710,5,-2.58,0.87,1.97,19.049102333333334,-82.46,-84.18
1730020308780588620,1730020308780450344,5,-2.58,0.87,1.97,19.155417333333336,-82.35,-82.32
1730020308879626951,1730020308879341602,5,-2.58,0.87,1.97,19.255478,-83.01,-84.96
1730020308979555642,1730020308978603363,5,-2.58,0.87,1.97,19.349284666666666,-83.12,-85.27
1730020309078820236,1730020309078591346,5,-2.58,0.87,1.97,19.436837666666666,-83.62,-85.0
1730020309178242064,1730020309177736520,5,-2.58,0.87,1.97,19.543152666666668,-85.08,-88.41
1730020309278371567,1730020309278244256,5,-2.58,0.87,1.97,19.655721000000003,-83.18,-83.16
1730020309377953915,1730020309377672672,5,-2.58,0.87,1.97,19.762036000000002,-84.16,-86.45
1730020309477925984,1730020309477607965,5,-2.58,0.87,1.97,19.868351,-84.23,-87.08
1730020309578469939,1730020309578136205,5,-2.58,0.87,1.97,19.974666000000003,-83.73,-84.79
1730020309678040241,1730020309677781820,5,-2.58,0.87,1.97,20.112250000000003,-83.03,-84.9
1730020309778023690,1730020309777787685,5,-2.58,0.87,1.97,20.243579999999998,-82.59,-82.55
1730020309878589342,1730020309878215074,5,-2.58,0.87,1.97,20.362402666666668,-82.92,-82.8
1730020309977833055,1730020309977597236,5,-2.58,0.87,1.97,20.462463333333332,-84.56,-85.65
1730020310078803266,1730020310078486442,5,-2.58,0.87,1.97,20.562524,-82.18,-83.19
1730020310179040335,1730020310178793907,5,-2.58,0.87,1.97,20.681346333333334,-81.94,-82.96
1730020310278986675,1730020310278664350,5,-2.58,0.87,1.97,20.800168666666668,-84.57,-84.37
1730020310379568542,1730020310379276275,5,-2.58,0.87,1.97,20.906483666666666,-81.53,-81.98
1730020310476506282,1730020310476118803,5,-2.58,0.87,1.97,20.98152933333333,-80.98,-81.76
1730020310676567167,1730020310676124811,5,-2.58,0.87,1.97,21.112859666666665,-81.39,-81.32
1730020311077893700,1730020311077543258,5,-2.58,0.87,1.97,17.25425866666667,-81.36,-81.25
1730020311176577684,1730020311176099538,5,-2.58,0.87,1.97,21.825793,-81.22,-81.43
1730020311277045271,1730020311276153802,5,-2.58,0.87,1.97,21.93836166666667,-81.06,-82.29
1730020311376632620,1730020311376188278,5,-2.58,0.87,1.97,22.04467666666667,-81.25,-81.3
1730020311476696552,1730020311476123809,5,-2.58,0.87,1.97,22.16349866666667,-81.17,-80.98
1730020311578993217,1730020311578755378,5,-2.58,0.87,1.97,22.257306,-81.32,-81.44
1730020311679235770,1730020311678983926,5,-2.58,0.87,1.97,22.357366666666664,-80.78,-81.18
1730020311779035865,1730020311778913974,5,-2.58,0.87,1.97,22.457428000000004,-81.23,-81.2
1730020311880316096,1730020311879629611,5,-2.58,0.87,1.97,22.569996333333332,-80.41,-81.03
1730020311978529791,1730020311978336572,5,-2.58,0.87,1.97,22.682565,-81.56,-81.74
1730020312078854681,1730020312078567743,5,-2.58,0.87,1.97,22.782626000000004,-80.8,-80.94
1730020312178677889,1730020312178453207,5,-2.58,0.87,1.97,22.882687,-81.28,-81.67
1730020312278837844,1730020312278642416,5,-2.58,0.87,1.97,22.99525566666667,-81.14,-81.53
1730020312378642146,1730020312378388881,5,-2.58,0.87,1.97,23.107824000000004,-81.18,-81.27
1730020312478664374,1730020312478407382,5,-2.58,0.87,1.97,23.226646666666667,-81.31,-81.76
1730020312578619509,1730020312578378915,5,-2.58,0.87,1.97,23.332961666666666,-82.61,-84.33
1730020312709538070,1730020312709391593,5,-2.58,0.87,1.97,23.426768999999997,-80.87,-81.35
1730020312779202996,1730020312778944492,5,-2.58,0.87,1.97,23.526829666666668,-81.18,-81.13
1730020312878821910,1730020312878537654,5,-2.58,0.87,1.97,23.626890333333332,-86.73,-87.24
1730020312978882779,1730020312978678703,5,-2.58,0.87,1.97,23.73320533333333,-81.39,-81.29
1730020313079152395,1730020313078874826,5,-2.58,0.87,1.97,23.839520333333336,-81.76,-81.69
1730020313179681701,1730020313179347515,5,-2.58,0.87,1.97,23.939581666666665,-82.48,-82.45
1730020313280148306,1730020313279874086,5,-2.58,0.87,1.97,24.045896,-81.59,-82.26
1730020313379851049,1730020313379555225,5,-2.58,0.87,1.97,24.13970333333333,-82.13,-82.26
1730020313479913748,1730020313479742288,5,-2.58,0.87,1.97,24.246017666666663,-81.93,-82.99
1730020313579961048,1730020313579686164,5,-2.58,0.87,1.97,24.358586,-82.43,-84.19
1730020313680025430,1730020313679649114,5,-2.58,0.87,1.97,24.471154333333335,-82.37,-82.31
1730020313780137065,1730020313780032157,5,-2.58,0.87,1.97,24.577469333333337,-82.46,-82.25
1730020313879759645,1730020313879506349,5,-2.58,0.87,1.97,24.696292333333336,-83.97,-84.02
1730020313979636755,1730020313979378461,5,-2.58,0.87,1.97,24.802606666666666,-83.33,-83.09
1730020314079779736,1730020314079563379,5,-2.58,0.87,1.97,24.915175333333334,-84.67,-84.7
1730020314179706753,1730020314179439067,5,-2.58,0.87,1.97,25.021489666666668,-83.77,-83.61
1730020314280612109,1730020314280398607,5,-2.58,0.87,1.97,25.14031266666667,-86.13,-87.2
1730020314379633935,1730020314379509449,5,-2.58,0.87,1.97,25.24662766666667,-84.0,-84.07
1730020314576860372,1730020314576241970,5,-2.58,0.87,1.97,25.36545033333333,-85.03,-86.14
1730020314676744895,1730020314676210880,5,-2.58,0.87,1.97,25.465511000000003,-84.67,-85.02
1730020314776452663,1730020314776112556,5,-2.58,0.87,1.97,25.546810333333337,-83.67,-83.49
1730020314876916304,1730020314876289606,5,-2.58,0.87,1.97,25.596840666666665,-84.54,-86.3
1730020314976698480,1730020314976199865,5,-2.58,0.87,1.97,25.621855666666665,-84.67,-84.91
1730020315076955639,1730020315076305150,5,-2.58,0.87,1.97,25.653124666666667,-85.75,-86.23
1730020315179722554,1730020315179577589,5,-2.58,0.87,1.97,25.665632333333335,-86.23,-87.26
1730020315279610577,1730020315279202699,5,-2.58,0.87,1.97,18.042239333333335,-85.48,-87.19
1730020315379300872,1730020315379063606,5,-2.58,0.87,1.97,18.048492999999997,-86.46,-86.88
1730020315478726414,1730020315478636503,5,-2.58,0.87,1.97,18.02973133333333,-89.25,-89.38
1730020315576561223,1730020315576148748,5,-2.58,0.87,1.97,25.659378333333333,-86.65,-89.13
1730020315678142691,1730020315677818775,5,-2.58,0.87,1.97,25.634362999999997,-86.75,-87.27
1730020315779921603,1730020315779588937,5,-2.58,0.87,1.97,25.653124666666667,-90.92,-91.12
1730020315878562749,1730020315878342628,5,-2.58,0.87,1.97,25.653124666666667,-86.52,-86.07
1730020315978739129,1730020315978600502,5,-2.58,0.87,1.97,25.65937866666667,-86.0,-88.16
1730020316077864694,1730020316077591180,5,-2.58,0.87,1.97,25.646871,-86.33,-86.66
1730020316178719635,1730020316178425788,5,-2.58,0.87,1.97,25.653124666666667,-84.91,-86.69
1730020316278368407,1730020316278054237,5,-2.58,0.87,1.97,25.678139666666667,-83.81,-84.89
1730020316378083099,1730020316377737283,5,-2.58,0.87,1.97,25.684393333333333,-84.46,-84.95
1730020316476469256,1730020316476093530,5,-2.58,0.87,1.97,25.665632,-84.86,-85.34
1730020316576674016,1730020316576080799,5,-2.58,0.87,1.97,25.62810933333333,-84.39,-84.59
1730020316676660404,1730020316676065683,5,-2.58,0.87,1.97,25.60309433333333,-84.72,-84.79
1730020316778510101,1730020316778314828,5,-2.58,0.87,1.97,25.596840666666665,-84.37,-84.4
1730020316878829008,1730020316878358125,5,-2.58,0.87,1.97,25.571825666666665,-84.22,-85.75
1730020316976495768,1730020316976055860,5,-2.58,0.87,1.97,25.546810333333337,-85.07,-85.3
1730020317076615957,1730020317076076030,5,-2.58,0.87,1.97,25.503033666666667,-84.31,-85.09
1730020317176477661,1730020317176081895,5,-2.58,0.87,1.97,25.503033666666667,-85.1,-85.14
1730020317276912681,1730020317276157140,5,-2.58,0.87,1.97,25.484272333333337,-84.04,-84.28
1730020317377066762,1730020317376313924,5,-2.58,0.87,1.97,25.490525666666667,-87.1,-87.26
1730020317479872737,1730020317479563951,5,-2.58,0.87,1.97,25.440494666666666,-83.75,-83.93
1730020317579985309,1730020317579642057,5,-2.58,0.87,1.97,25.421733333333336,-83.73,-83.65
1730020317680086708,1730020317679855585,5,-2.58,0.87,1.97,25.384210666666664,-83.61,-83.46
1730020317780044263,1730020317779763936,5,-2.58,0.87,1.97,25.359195666666665,-83.99,-83.9
1730020317880257261,1730020317879962682,5,-2.58,0.87,1.97,25.302911000000005,-83.34,-83.3
1730020317980410505,1730020317979945659,5,-2.58,0.87,1.97,25.246626666666668,-83.3,-84.79
1730020318081423331,1730020318081193923,5,-2.58,0.87,1.97,25.12155033333333,-83.69,-83.6
1730020318180660944,1730020318180440425,5,-2.58,0.87,1.97,25.06526633333333,-82.43,-82.28
1730020318279980049,1730020318279751539,5,-2.58,0.87,1.97,25.021489666666668,-83.41,-84.98
1730020318380855998,1730020318380609512,5,-2.58,0.87,1.97,24.99022066666667,-82.3,-83.86
1730020318479932381,1730020318479718923,5,-2.58,0.87,1.97,24.940190333333334,-83.32,-85.45
1730020318579924181,1730020318579679250,5,-2.58,0.87,1.97,24.877651999999998,-82.1,-81.98
1730020318679886478,1730020318679546594,5,-2.58,0.87,1.97,24.796352666666667,-82.29,-82.36
1730020318780366371,1730020318780164241,5,-2.58,0.87,1.97,24.721306666666663,-82.23,-82.28
1730020318880290236,1730020318880172491,5,-2.58,0.87,1.97,24.658768666666663,-81.96,-81.74
1730020318980647784,1730020318980281829,5,-2.58,0.87,1.97,24.60248466666667,-82.01,-82.06
1730020319079982424,1730020319079629898,5,-2.58,0.87,1.97,24.539946333333333,-81.27,-81.85
1730020319180265702,1730020319180092573,5,-2.58,0.87,1.97,24.464900999999998,-81.15,-81.56
1730020319279563345,1730020319279269218,5,-2.58,0.87,1.97,24.396108666666667,-81.35,-81.62
1730020319379670700,1730020319379397392,5,-2.58,0.87,1.97,24.346078333333335,-81.64,-81.46
1730020319479406421,1730020319479243516,5,-2.58,0.87,1.97,24.271032333333334,-82.01,-82.21
1730020319580336629,1730020319579933404,5,-2.58,0.87,1.97,24.20224066666667,-82.19,-82.1
1730020319679947095,1730020319679646015,5,-2.58,0.87,1.97,24.11468766666667,-83.09,-82.8
1730020319780014828,1730020319779711008,5,-2.58,0.87,1.97,24.052149666666665,-81.32,-81.33
1730020319879606653,1730020319879344940,5,-2.58,0.87,1.97,23.964596666666665,-81.42,-82.6
1730020319979521107,1730020319979374170,5,-2.58,0.87,1.97,23.902058666666665,-82.51,-82.37
1730020320079646094,1730020320079418659,5,-2.58,0.87,1.97,23.852028333333333,-85.99,-86.46
1730020320179897382,1730020320179633855,5,-2.58,0.87,1.97,23.795743666666667,-81.62,-83.22
1730020320280197611,1730020320280028820,5,-2.58,0.87,1.97,23.739459,-84.15,-85.59
1730020320380040898,1730020320379867076,5,-2.58,0.87,1.97,23.658159333333334,-82.62,-83.24
1730020320480000265,1730020320479815244,5,-2.58,0.87,1.97,23.601875333333336,-81.63,-81.3
1730020320579960986,1730020320579798698,5,-2.58,0.87,1.97,23.508067999999998,-81.15,-81.12
1730020320679616730,1730020320679274320,5,-2.58,0.87,1.97,23.433022000000005,-82.81,-83.63
1730020320779428349,1730020320779329538,5,-2.58,0.87,1.97,23.332960666666665,-81.1,-81.07
1730020321276592373,1730020321276173114,5,-2.58,0.87,1.97,22.982748333333333,-80.74,-81.27
1730020321377868136,1730020321377579450,5,-2.58,0.87,1.97,22.88268766666667,-82.18,-81.78
1730020321477777917,1730020321477487325,5,-2.58,0.87,1.97,22.78262666666667,-81.08,-81.26
1730020321576490123,1730020321576080083,5,-2.58,0.87,1.97,22.701326666666663,-81.13,-81.26
1730020321676438398,1730020321676109075,5,-2.58,0.87,1.97,22.601265666666666,-80.82,-81.28
1730020321779130812,1730020321778966426,5,-2.58,0.87,1.97,22.513712666666667,-81.27,-82.19
1730020321878845254,1730020321878571510,5,-2.58,0.87,1.97,22.426159666666667,-81.19,-81.23
1730020321979747081,1730020321979601860,5,-2.58,0.87,1.97,22.338606,-82.21,-82.27
1730020322079369683,1730020322078991651,5,-2.58,0.87,1.97,22.251052333333334,-81.05,-81.4
1730020322179304728,1730020322178958177,5,-2.58,0.87,1.97,22.169752666666668,-81.38,-81.4
1730020322279187292,1730020322278849840,5,-2.58,0.87,1.97,22.088453333333334,-81.39,-83.2
1730020322379733209,1730020322379550695,5,-2.58,0.87,1.97,22.013407333333333,-81.38,-81.42
1730020322479708221,1730020322479455471,5,-2.58,0.87,1.97,21.913346666666666,-81.36,-81.69
1730020322579766936,1730020322579513311,5,-2.58,0.87,1.97,21.832047333333332,-82.17,-82.79
1730020322678792373,1730020322678532600,5,-2.58,0.87,1.97,21.738241,-82.26,-83.45
1730020322779152495,1730020322778750658,5,-2.58,0.87,1.97,21.681956333333332,-82.34,-82.49
1730020322878802152,1730020322878595829,5,-2.58,0.87,1.97,21.588148999999998,-82.24,-83.16
1730020322978657782,1730020322978470563,5,-2.58,0.87,1.97,21.513103,-84.29,-86.67
1730020323078965036,1730020323078788518,5,-2.58,0.87,1.97,21.400534333333336,-82.21,-82.09
1730020323178629294,1730020323178436040,5,-2.58,0.87,1.97,21.306727,-82.21,-82.1
1730020323279119084,1730020323278784275,5,-2.58,0.87,1.97,21.200412,-83.13,-83.61
1730020323379418024,1730020323379022359,5,-2.58,0.87,1.97,21.106605000000002,-82.87,-82.49
1730020323479202889,1730020323478834152,5,-2.58,0.87,1.97,21.006544333333334,-83.32,-83.03
1730020323579615907,1730020323579532861,5,-2.58,0.87,1.97,20.893975666666666,-83.62,-84.31
1730020323679208636,1730020323678916931,5,-2.58,0.87,1.97,20.793914666666666,-84.16,-85.14
1730020323777909427,1730020323777636051,5,-2.58,0.87,1.97,20.712615333333336,-83.47,-87.54
1730020323878091540,1730020323877653360,5,-2.58,0.87,1.97,20.631315999999998,-84.14,-86.49
1730020323977928861,1730020323977615594,5,-2.58,0.87,1.97,20.53125533333333,-84.61,-87.33
1730020324077787549,1730020324077508926,5,-2.58,0.87,1.97,20.41243233333333,-85.19,-87.69
1730020324177988183,1730020324177698135,5,-2.58,0.87,1.97,20.32487933333333,-88.49,-92.97
1730020324278037901,1730020324277827501,5,-2.58,0.87,1.97,20.243579999999998,-85.6,-88.15
1730020324378052887,1730020324377740859,5,-2.58,0.87,1.97,20.162280666666664,-84.77,-89.6
1730020324478153080,1730020324477736949,5,-2.58,0.87,1.97,20.06221933333333,-84.76,-89.26
1730020324577976358,1730020324577707290,5,-2.58,0.87,1.97,19.962158000000002,-84.59,-87.42
1730020324677886111,1730020324677539348,5,-2.58,0.87,1.97,19.874605,-84.71,-88.19
1730020324778396812,1730020324778179883,5,-2.58,0.87,1.97,19.799559666666667,-83.69,-84.94
1730020324876464687,1730020324876099824,5,-2.58,0.87,1.97,19.730767666666665,-89.13,-90.19
1730020324976869277,1730020324976094961,5,-2.58,0.87,1.97,19.661976,-82.38,-84.53
1730020325076606836,1730020325076135158,5,-2.58,0.87,1.97,19.58693,-81.85,-83.53
1730020325176869287,1730020325176101922,5,-2.58,0.87,1.97,19.505630666666665,-81.92,-84.59
1730020325276999413,1730020325276074409,5,-2.58,0.87,1.97,19.424330333333334,-81.67,-82.21
1730020325376811166,1730020325376138210,5,-2.58,0.87,1.97,19.343031,-81.29,-81.81
1730020325476875808,1730020325476122856,5,-2.58,0.87,1.97,19.255478,-81.07,-81.45
1730020325577149795,1730020325576146364,5,-2.58,0.87,1.97,19.086625333333334,-81.36,-81.71
1730020325676793464,1730020325676182270,5,-2.58,0.87,1.97,19.017833,-81.05,-81.24
1730020325776547152,1730020325776112079,5,-2.58,0.87,1.97,18.955295000000003,-82.77,-82.31
1730020325877066266,1730020325876141786,5,-2.58,0.87,1.97,18.86774133333333,-81.06,-81.25
1730020325982615738,1730020325981406211,5,-2.58,0.87,1.97,18.773934,-81.54,-81.83
1730020326080279866,1730020326079800367,5,-2.58,0.87,1.97,18.680126666666666,-81.21,-81.22
1730020326179765233,1730020326179402351,5,-2.58,0.87,1.97,18.598827333333332,-81.15,-81.31
1730020326279952520,1730020326279540777,5,-2.58,0.87,1.97,18.511274333333333,-81.1,-81.15
1730020326380584162,1730020326380292415,5,-2.58,0.87,1.97,18.43622866666667,-82.02,-81.46
1730020326480050751,1730020326479793071,5,-2.58,0.87,1.97,18.34242133333333,-80.96,-81.32
1730020326579950145,1730020326579597473,5,-2.58,0.87,1.97,18.267375333333334,-80.81,-81.21
1730020326680165109,1730020326679911613,5,-2.58,0.87,1.97,18.167314333333334,-80.7,-81.09
1730020326779830406,1730020326779536962,5,-2.58,0.87,1.97,18.092269333333334,-80.96,-80.96
1730020326877953404,1730020326877592802,5,-2.58,0.87,1.97,18.01097,-80.7,-81.01
1730020326978114904,1730020326977696657,5,-2.58,0.87,1.97,17.935924666666665,-80.15,-80.94
1730020327077747549,1730020327077514171,5,-2.58,0.87,1.97,17.873386333333332,-81.11,-81.25
1730020327179559193,1730020327179083585,5,-2.58,0.87,1.97,17.817102333333334,-82.04,-81.53
1730020327279469900,1730020327279292345,5,-2.58,0.87,1.97,17.754564333333335,-81.62,-81.47
1730020327379375809,1730020327379035949,5,-2.58,0.87,1.97,17.673265,-81.63,-81.67
1730020327479765771,1730020327479406595,5,-2.58,0.87,1.97,17.604472666666666,-82.02,-81.58
1730020327579101323,1730020327578878641,5,-2.58,0.87,1.97,17.548188,-83.05,-82.62
1730020327679213955,1730020327679001331,5,-2.58,0.87,1.97,17.498157666666668,-81.1,-81.34
1730020327779790021,1730020327779520273,5,-2.58,0.87,1.97,17.429366,-81.56,-81.56
1730020327879355155,1730020327879129886,5,-2.58,0.87,1.97,17.360574333333332,-83.9,-84.58
1730020327979379415,1730020327979082584,5,-2.58,0.87,1.97,17.304289666666666,-82.06,-82.68
1730020328078895840,1730020328078578948,5,-2.58,0.87,1.97,17.254259333333334,-81.87,-82.17
1730020328179032197,1730020328178831338,5,-2.58,0.87,1.97,17.191721333333334,-81.55,-81.59
1730020328279202296,1730020328278996229,5,-2.58,0.87,1.97,17.129182999999998,-81.8,-81.73
1730020328379282272,1730020328379018783,5,-2.58,0.87,1.97,17.054136999999997,-81.96,-82.37
1730020328479100136,1730020328478898525,5,-2.58,0.87,1.97,16.99785233333333,-82.4,-85.1
1730020328579048592,1730020328578936100,5,-2.58,0.87,1.97,16.922806666666666,-82.88,-85.04
1730020328678907588,1730020328678636074,5,-2.58,0.87,1.97,16.879029999999997,-82.33,-83.94
1730020328779116441,1730020328778895139,5,-2.58,0.87,1.97,16.803984666666665,-82.54,-83.8
1730020328879071708,1730020328878741264,5,-2.58,0.87,1.97,16.735193,-81.88,-82.43
1730020328978897662,1730020328978671550,5,-2.58,0.87,1.97,16.64764,-83.55,-85.38
1730020329079049370,1730020329078711509,5,-2.58,0.87,1.97,16.591355333333336,-82.96,-84.45
1730020329179109950,1730020329178832054,5,-2.58,0.87,1.97,16.541324666666668,-83.94,-85.86
1730020329279472822,1730020329279235601,5,-2.58,0.87,1.97,16.472532666666666,-85.52,-87.46
1730020329379315369,1730020329379057645,5,-2.58,0.87,1.97,16.403741,-84.44,-87.49
1730020329479230346,1730020329478923082,5,-2.58,0.87,1.97,16.309934000000002,-85.74,-86.43
1730020329578739941,1730020329578340291,5,-2.58,0.87,1.97,16.253649666666668,-84.41,-87.55
1730020329678933909,1730020329678752422,5,-2.58,0.87,1.97,16.184858000000002,-87.22,-92.51
1730020329779507998,1730020329779198646,5,-2.58,0.87,1.97,16.116066333333332,-84.98,-88.58
1730020329878782747,1730020329878477096,5,-2.58,0.87,1.97,16.047274666666667,-88.16,-91.52
1730020329978784687,1730020329978529691,5,-2.58,0.87,1.97,15.990990333333334,-84.18,-88.21
1730020330078756393,1730020330078601121,5,-2.58,0.87,1.97,15.947213666666668,-84.73,-85.22
1730020330178645409,1730020330178424358,5,-2.58,0.87,1.97,15.890929333333334,-83.71,-84.77
1730020330279106257,1730020330278846740,5,-2.58,0.87,1.97,15.828391333333334,-86.28,-87.98
1730020330378808666,1730020330378438711,5,-2.58,0.87,1.97,15.759599333333332,-84.74,-85.84
1730020330478858969,1730020330478610515,5,-2.58,0.87,1.97,15.703314999999998,-83.58,-84.43
1730020330578635292,1730020330578447818,5,-2.58,0.87,1.97,15.653284666666666,-83.58,-84.36
1730020330678927974,1730020330678557872,5,-2.58,0.87,1.97,15.615761999999998,-83.34,-85.44
1730020330778850763,1730020330778620004,5,-2.58,0.87,1.97,15.578239333333334,-81.92,-82.23
1730020330879437418,1730020330879251003,5,-2.58,0.87,1.97,15.521955,-82.85,-82.41
1730020330979465769,1730020330979291677,5,-2.58,0.87,1.97,15.453163000000002,-82.66,-83.0
1730020331079728258,1730020331079346656,5,-2.58,0.87,1.97,15.390625,-83.79,-84.81
1730020331179742318,1730020331179441690,5,-2.58,0.87,1.97,15.321832999999998,-83.04,-83.89
1730020331377854838,1730020331377563476,5,-2.58,0.87,1.97,15.259295,-81.92,-82.07
1730020331477697479,1730020331477454423,5,-2.58,0.87,1.97,15.171741666666668,-81.05,-81.5
1730020331577594708,1730020331577389478,5,-2.58,0.87,1.97,15.090442000000001,-80.44,-80.8
1730020331677658975,1730020331677449464,5,-2.58,0.87,1.97,15.027903666666667,-79.69,-80.6
1730020331777820778,1730020331777556180,5,-2.58,0.87,1.97,14.965365333333333,-81.0,-81.91
1730020331878146646,1730020331877842187,5,-2.58,0.87,1.97,14.896573333333334,-80.9,-81.12
1730020331979678989,1730020331979466915,5,-2.58,0.87,1.97,14.809020333333335,-80.65,-81.28
1730020332079776848,1730020332079532146,5,-2.58,0.87,1.97,14.721466999999999,-81.03,-81.17
1730020332780950892,1730020332780671119,5,-2.58,0.87,1.97,14.246177666666668,-81.57,-83.29
1730020333178494395,1730020333178323745,5,-2.58,0.87,1.97,13.833426000000001,-81.86,-81.75
1730020333279470579,1730020333279282569,5,-2.58,0.87,1.97,13.727111333333333,-81.94,-81.82
1730020333378160550,1730020333377816915,5,-2.58,0.87,1.97,13.652066,-84.61,-86.5
1730020333478104036,1730020333477635145,5,-2.58,0.87,1.97,13.539497666666668,-82.94,-82.79
1730020333576432052,1730020333576057195,5,-2.58,0.87,1.97,13.445690666666666,-82.91,-84.07
1730020333676499365,1730020333676077842,5,-2.58,0.87,1.97,13.345629333333335,-83.19,-83.85
1730020333776757164,1730020333776160001,5,-2.58,0.87,1.97,13.264329333333334,-86.58,-86.06
1730020333877114200,1730020333876168012,5,-2.58,0.87,1.97,13.176776000000002,-82.11,-82.25
1730020333976427463,1730020333976080417,5,-2.58,0.87,1.97,13.082969333333333,-82.17,-82.28
1730020334077465052,1730020334076127529,5,-2.58,0.87,1.97,12.989162666666667,-81.66,-84.11
1730020334176715190,1730020334176068305,5,-2.58,0.87,1.97,12.895355333333333,-83.92,-85.17
1730020334276482518,1730020334276092767,5,-2.58,0.87,1.97,12.801547999999999,-81.14,-81.96
1730020334376697938,1730020334376076698,5,-2.58,0.87,1.97,12.707740666666666,-80.78,-81.3
1730020334477978318,1730020334477599859,5,-2.58,0.87,1.97,12.507618666666666,-80.68,-81.0
1730020334576656578,1730020334576111316,5,-2.58,0.87,1.97,12.407557666666667,-80.61,-81.63
1730020334678121024,1730020334677881956,5,-2.58,0.87,1.97,12.332512,-81.07,-81.82
1730020334778518634,1730020334778056144,5,-2.58,0.87,1.97,12.238705000000001,-81.12,-81.86
1730020334876929729,1730020334876116514,5,-2.58,0.87,1.97,12.157405333333331,-82.01,-83.42
1730020334976598766,1730020334976095438,5,-2.58,0.87,1.97,12.044837,-80.91,-81.53
1730020335079968624,1730020335079689264,5,-2.58,0.87,1.97,11.957283666666667,-80.84,-81.37
1730020335179679091,1730020335179411888,5,-2.58,0.87,1.97,11.863476666666665,-81.27,-81.88
1730020335280944610,1730020335280664205,5,-2.58,0.87,1.97,11.794684666666667,-81.44,-82.29
1730020335379794790,1730020335379543542,5,-2.58,0.87,1.97,11.694623666666667,-81.42,-82.23
1730020335480042849,1730020335479846954,5,-2.58,0.87,1.97,11.607069999999998,-82.65,-83.21
1730020335580079044,1730020335579875469,5,-2.58,0.87,1.97,11.488247333333334,-82.44,-84.89
1730020335679212229,1730020335679122924,5,-2.58,0.87,1.97,11.369425,-84.47,-89.13
1730020335780313198,1730020335780097246,5,-2.58,0.87,1.97,11.244349333333332,-81.81,-89.07
1730020335879683519,1730020335879309415,5,-2.58,0.87,1.97,11.125527,-82.73,-87.35
1730020335979508437,1730020335979337215,5,-2.58,0.87,1.97,11.025466,-83.61,-85.4
1730020336076498947,1730020336076089859,5,-2.58,0.87,1.97,10.937912666666668,-84.75,-85.23
1730020336176635654,1730020336176075935,5,-2.58,0.87,1.97,10.856613333333334,-82.44,-82.64
1730020336277817766,1730020336276096820,5,-2.58,0.87,1.97,10.787821666666666,-82.25,-82.81
1730020336376624031,1730020336376130580,5,-2.58,0.87,1.97,10.700268000000001,-81.64,-83.21
1730020336476624874,1730020336476251363,5,-2.58,0.87,1.97,10.618968333333333,-83.46,-83.46
1730020336576448598,1730020336576103925,5,-2.58,0.87,1.97,10.537668666666667,-81.17,-82.24
1730020336676589541,1730020336676095247,5,-2.58,0.87,1.97,10.437607666666667,-80.84,-81.1
1730020336776786250,1730020336776137590,5,-2.58,0.87,1.97,10.362562333333335,-82.1,-82.13
1730020336879706615,1730020336879509210,5,-2.58,0.87,1.97,10.268755333333333,-81.99,-81.69
1730020336979952068,1730020336979549169,5,-2.58,0.87,1.97,10.199963666666667,-81.12,-81.84
1730020337080458513,1730020337080113649,5,-2.58,0.87,1.97,10.11241,-80.92,-82.31
1730020337179764471,1730020337179467678,5,-2.58,0.87,1.97,10.024856666666667,-81.38,-82.61
1730020337280335555,1730020337280087232,5,-2.58,0.87,1.97,9.887273,-85.95,-87.98
1730020337379935857,1730020337379654884,5,-2.58,0.87,1.97,9.730927666666666,-83.67,-89.94
1730020337479937166,1730020337479592561,5,-2.58,0.87,1.97,9.549566999999998,-81.75,-94.13
1730020337579777940,1730020337579446554,5,-2.58,0.87,1.97,9.405729333333333,-82.97,-93.7
1730020337679769589,1730020337679681062,5,-2.58,0.87,1.97,9.512044,-81.72,-81.95
1730020337780355461,1730020337779990196,5,-2.58,0.87,1.97,9.605851333333332,-81.79,-83.25
1730020337879588820,1730020337879297971,5,-2.58,0.87,1.97,9.655881666666666,-82.18,-82.89
1730020337979775822,1730020337979414224,5,-2.58,0.87,1.97,9.487029,-81.63,-82.04
1730020338080635231,1730020338080424308,5,-2.58,0.87,1.97,9.380714333333332,-81.14,-81.84
1730020338179743199,1730020338179474353,5,-2.58,0.87,1.97,9.311922333333333,-82.3,-82.06
1730020338280130921,1730020338279931068,5,-2.58,0.87,1.97,9.236876666666667,-81.37,-81.61
1730020338777655016,1730020338777422904,5,-2.58,0.87,1.97,8.792856333333333,-82.01,-91.6
1730020338877750371,1730020338877449274,5,-2.58,0.87,1.97,8.542703666666666,-81.51,-95.6
1730020338977849756,1730020338977421045,5,-2.58,0.87,1.97,8.298805333333334,-82.28,-87.49
1730020339077718865,1730020339077452659,5,-2.58,0.87,1.97,8.092429333333333,-81.33,-92.2
1730020339177738807,1730020339177453041,5,-2.58,0.87,1.97,8.161221333333334,-80.04,-82.02
1730020339279656543,1730020339279334545,5,-2.58,0.87,1.97,8.186236333333333,-81.58,-83.41
1730020339379590395,1730020339379351139,5,-2.58,0.87,1.97,8.204998000000002,-82.35,-83.0
1730020339478883789,1730020339478643417,5,-2.58,0.87,1.97,8.079921666666666,-80.74,-81.53
1730020339578728366,1730020339578457355,5,-2.58,0.87,1.97,7.992368333333334,-80.57,-82.22
1730020339678898201,1730020339678577899,5,-2.58,0.87,1.97,7.873545666666668,-81.14,-81.63
1730020339778873026,1730020339778689384,5,-2.58,0.87,1.97,7.729708,-82.68,-86.55
1730020339878980531,1730020339878633975,5,-2.58,0.87,1.97,7.579616333333334,-81.51,-85.46
1730020339978824795,1730020339978583812,5,-2.58,0.87,1.97,7.473301666666667,-81.58,-83.72
1730020340078793555,1730020340078696489,5,-2.58,0.87,1.97,7.398256,-81.24,-84.57
1730020340178988484,1730020340178533554,5,-2.58,0.87,1.97,7.316956666666667,-80.53,-82.9
1730020340277819261,1730020340277408361,5,-2.58,0.87,1.97,7.254418333333334,-79.88,-80.93
1730020340377843214,1730020340377490758,5,-2.58,0.87,1.97,7.173119,-80.23,-81.19
1730020340479000155,1730020340478736639,5,-2.58,0.87,1.97,7.110580666666667,-80.11,-81.12
1730020340577857592,1730020340577617168,5,-2.58,0.87,1.97,7.060550333333333,-81.33,-81.94
1730020340678015842,1730020340677549600,5,-2.58,0.87,1.97,7.004266,-80.05,-81.52
1730020340777767840,1730020340777543306,5,-2.58,0.87,1.97,6.935474333333333,-80.51,-81.15
1730020340877999130,1730020340877719402,5,-2.58,0.87,1.97,6.8416673333333335,-80.44,-81.62
1730020340976559860,1730020340976071834,5,-2.58,0.87,1.97,6.760367666666667,-80.08,-82.56
1730020341076581618,1730020341076075792,5,-2.58,0.87,1.97,6.672814333333334,-79.22,-80.76
1730020341176730355,1730020341176063299,5,-2.58,0.87,1.97,6.61653,-79.27,-81.01
1730020341276543292,1730020341276104450,5,-2.58,0.87,1.97,6.553992,-81.41,-81.6
1730020341376727781,1730020341376127004,5,-2.58,0.87,1.97,6.478946333333333,-79.52,-81.06
1730020341476616610,1730020341476087808,5,-2.58,0.87,1.97,6.378885333333334,-79.38,-80.46
1730020341577229378,1730020341576147556,5,-2.58,0.87,1.97,6.297585666666667,-79.06,-80.38
1730020341676485845,1730020341676063060,5,-2.58,0.87,1.97,6.266316666666667,-79.0,-80.94
1730020341776752017,1730020341776131153,5,-2.58,0.87,1.97,6.228794,-79.39,-80.77
1730020341876502423,1730020341876108884,5,-2.58,0.87,1.97,6.191271333333333,-79.25,-80.69
1730020341978031486,1730020341977920293,5,-2.58,0.87,1.97,6.122479333333334,-79.33,-81.17
1730020342178208907,1730020342177822828,5,-2.58,0.87,1.97,6.034926,-80.06,-80.99
1730020342278157319,1730020342277738809,5,-2.58,0.87,1.97,6.022418333333333,-79.3,-81.16
1730020342377671232,1730020342377544879,5,-2.58,0.87,1.97,6.041179666666667,-78.96,-80.88
1730020342478175381,1730020342477689266,5,-2.58,0.87,1.97,6.066194666666667,-79.28,-80.89
1730020342581306839,1730020342581026315,5,-2.58,0.87,1.97,6.116225333333333,-79.52,-80.63
1730020342679973032,1730020342679700851,5,-2.58,0.87,1.97,6.134986666666666,-79.23,-80.62
1730020342776412716,1730020342776070356,5,-2.58,0.87,1.97,6.185017333333334,-78.69,-80.49
1730020342876565734,1730020342876147747,5,-2.58,0.87,1.97,6.228794000000001,-80.96,-81.32
1730020342976672484,1730020342976076126,5,-2.58,0.87,1.97,6.291332,-79.29,-80.56
1730020343076506225,1730020343076075792,5,-2.58,0.87,1.97,6.3413623333333335,-79.47,-81.35
1730020343176522032,1730020343176076173,5,-2.58,0.87,1.97,6.385139,-79.49,-81.16
1730020343377859511,1730020343377652883,5,-2.58,0.87,1.97,6.447677333333334,-78.98,-80.74
1730020343477721429,1730020343477287530,5,-2.58,0.87,1.97,6.485200333333334,-79.24,-80.45
1730020343577846589,1730020343577550172,5,-2.58,0.87,1.97,6.510215333333334,-79.62,-81.23
1730020343679047636,1730020343678803205,5,-2.58,0.87,1.97,6.541484333333333,-79.49,-80.97
1730020343778801532,1730020343778547286,5,-2.58,0.87,1.97,6.604022333333333,-79.51,-81.01
1730020344176545280,1730020344176097631,5,-2.58,0.87,1.97,6.816652,-79.71,-80.54
1730020344277758119,1730020344277504205,5,-2.58,0.87,1.97,6.87919,-79.07,-80.61
1730020344378562865,1730020344378330945,5,-2.58,0.87,1.97,6.9479820000000005,-79.17,-80.92
1730020344478839456,1730020344478492736,5,-2.58,0.87,1.97,7.004266,-79.68,-81.02
1730020344578643630,1730020344578490734,5,-2.58,0.87,1.97,7.054296666666666,-79.01,-80.73
1730020344678716208,1730020344678439140,5,-2.58,0.87,1.97,7.1043270000000005,-79.24,-80.91
1730020344779063413,1730020344778768301,5,-2.58,0.87,1.97,7.173119333333333,-79.22,-80.52
1730020344877830439,1730020344877439975,5,-2.58,0.87,1.97,7.254418666666666,-79.19,-80.65
1730020344976541818,1730020344976155042,5,-2.58,0.87,1.97,7.3169569999999995,-79.28,-80.55
1730020345076442984,1730020345076106071,5,-2.58,0.87,1.97,7.373241,-79.65,-80.91
1730020345176521433,1730020345176082849,5,-2.58,0.87,1.97,7.4357793333333335,-79.54,-80.88
1730020345377711845,1730020345377418994,5,-2.58,0.87,1.97,7.560855333333333,-80.67,-83.73
1730020345477897515,1730020345477495908,5,-2.58,0.87,1.97,7.66717,-79.38,-81.8
1730020345577750244,1730020345577471971,5,-2.58,0.87,1.97,7.779738333333333,-79.37,-82.18
1730020345676609110,1730020345676068544,5,-2.58,0.87,1.97,7.842276333333333,-79.87,-82.76
1730020345776551531,1730020345776108264,5,-2.58,0.87,1.97,7.904814666666667,-80.08,-81.23
1730020345876711418,1730020345876106977,5,-2.58,0.87,1.97,7.961099,-79.42,-81.22
1730020345979625750,1730020345979445219,5,-2.58,0.87,1.97,8.01113,-79.18,-80.75
1730020346079764036,1730020346079443454,5,-2.58,0.87,1.97,8.117444666666666,-83.08,-83.61
1730020346181301199,1730020346181094408,5,-2.58,0.87,1.97,8.179983,-79.73,-81.06
1730020346279922366,1730020346279694795,5,-2.58,0.87,1.97,8.273789666666666,-79.47,-80.54
1730020346380263510,1730020346380073547,5,-2.58,0.87,1.97,8.336328,-79.67,-81.07
1730020346479858194,1730020346479670047,5,-2.58,0.87,1.97,8.423881333333332,-79.41,-81.55
1730020346580037709,1730020346579933881,5,-2.58,0.87,1.97,8.505181,-79.5,-82.29
1730020346680128994,1730020346679969549,5,-2.58,0.87,1.97,8.567719,-79.6,-83.09
1730020346779961255,1730020346779745578,5,-2.58,0.87,1.97,8.655272333333334,-79.77,-81.51
1730020346880035305,1730020346879814386,5,-2.58,0.87,1.97,8.742825666666667,-79.45,-81.51
1730020346980076088,1730020346979999065,5,-2.58,0.87,1.97,8.830379,-79.12,-80.83
1730020347081072549,1730020347080775022,5,-2.58,0.87,1.97,8.924186,-80.14,-81.84
1730020347179634259,1730020347179419994,5,-2.58,0.87,1.97,8.999232,-79.51,-80.79
1730020347279910322,1730020347279680967,5,-2.58,0.87,1.97,9.105546666666667,-79.77,-80.89
1730020347381035716,1730020347380913734,5,-2.58,0.87,1.97,9.180592333333333,-79.59,-81.26
1730020347480037601,1730020347479787826,5,-2.58,0.87,1.97,9.274399333333333,-79.8,-81.44
1730020347577843044,1730020347577588319,5,-2.58,0.87,1.97,9.361952666666665,-79.89,-80.92
1730020347677871710,1730020347677593708,5,-2.58,0.87,1.97,9.443252333333334,-79.94,-80.89
1730020347779187838,1730020347778982162,5,-2.58,0.87,1.97,9.518298,-80.2,-81.34
1730020347878741581,1730020347878587245,5,-2.58,0.87,1.97,9.599597666666668,-81.47,-81.77
1730020347978049772,1730020347977664470,5,-2.58,0.87,1.97,9.680897,-80.44,-81.64
1730020348077726648,1730020348077381134,5,-2.58,0.87,1.97,9.762196333333334,-80.32,-83.76
1730020348178261212,1730020348177952289,5,-2.58,0.87,1.97,9.849749666666666,-79.93,-81.85
1730020348277768289,1730020348277438163,5,-2.58,0.87,1.97,9.968572,-80.02,-81.51
1730020348379423467,1730020348379017829,5,-2.58,0.87,1.97,10.081140666666668,-79.52,-80.76
1730020348480331182,1730020348480002641,5,-2.58,0.87,1.97,10.174947666666666,-79.79,-81.18
1730020348579039387,1730020348578856468,5,-2.58,0.87,1.97,10.249993333333334,-79.85,-80.78
1730020348679267480,1730020348679146766,5,-2.58,0.87,1.97,10.350054333333333,-79.52,-80.71
1730020348779233145,1730020348779042005,5,-2.58,0.87,1.97,10.450115666666667,-80.14,-81.11
1730020348878922133,1730020348878684043,5,-2.58,0.87,1.97,10.562684666666668,-81.45,-81.65
1730020348979178201,1730020348978885650,5,-2.58,0.87,1.97,10.637730333333334,-80.24,-81.3
1730020349079101048,1730020349078808546,5,-2.58,0.87,1.97,10.737791,-79.67,-80.73
1730020349179095756,1730020349178690910,5,-2.58,0.87,1.97,10.819090333333333,-80.51,-81.21
1730020349280523288,1730020349280342340,5,-2.58,0.87,1.97,10.937912666666668,-80.59,-81.12
1730020349378236860,1730020349377859830,5,-2.58,0.87,1.97,11.012958666666668,-80.61,-84.05
1730020349477807040,1730020349477579355,5,-2.58,0.87,1.97,11.100512,-81.02,-85.27
1730020349577785384,1730020349577577114,5,-2.58,0.87,1.97,11.156796333333332,-81.57,-84.56
1730020349677722349,1730020349677513360,5,-2.58,0.87,1.97,11.244349333333334,-82.89,-85.63
1730020349777989180,1730020349777504205,5,-2.58,0.87,1.97,11.356918,-80.58,-82.17
1730020349879277774,1730020349878889799,5,-2.58,0.87,1.97,11.475740333333334,-80.23,-81.35
1730020349979075187,1730020349978854417,5,-2.58,0.87,1.97,11.588309,-80.01,-80.76
1730020350079033046,1730020350077725172,5,-2.58,0.87,1.97,11.700877333333333,-81.4,-81.62
1730020350176797680,1730020350176088809,5,-2.58,0.87,1.97,11.794684666666667,-79.76,-80.9
1730020350276933261,1730020350276169061,5,-2.58,0.87,1.97,11.869730333333331,-80.06,-80.74
1730020350376310699,1730020350376032590,5,-2.58,0.87,1.97,11.976045,-83.3,-84.16
1730020350479796141,1730020350479486227,5,-2.58,0.87,1.97,12.076105666666669,-80.52,-81.07
1730020350579660419,1730020350579360961,5,-2.58,0.87,1.97,12.169913000000001,-80.54,-81.26
1730020350679954022,1730020350679518222,5,-2.58,0.87,1.97,12.232451333333332,-80.75,-81.32
1730020351179497023,1730020351179223060,5,-2.58,0.87,1.97,12.663964333333334,-81.78,-85.95
1730020351279852216,1730020351279640913,5,-2.58,0.87,1.97,12.864086,-82.26,-86.3
1730020351379432110,1730020351379222154,5,-2.58,0.87,1.97,12.957893,-82.36,-86.0
1730020351478958685,1730020351478710412,5,-2.58,0.87,1.97,13.070461333333334,-82.28,-85.65
1730020351579863846,1730020351579613924,5,-2.58,0.87,1.97,13.208045333333333,-82.76,-84.68
1730020351676502909,1730020351676080942,5,-2.58,0.87,1.97,13.339375333333331,-83.65,-85.29
1730020351776710407,1730020351776136875,5,-2.58,0.87,1.97,13.501974333333331,-84.06,-84.95
1730020351876500361,1730020351876117229,5,-2.58,0.87,1.97,13.633304333333333,-81.5,-83.2
1730020351976635553,1730020351976109981,5,-2.58,0.87,1.97,13.770888,-81.06,-81.49
1730020352076589464,1730020352076095819,5,-2.58,0.87,1.97,13.852187666666666,-81.18,-81.82
1730020352176634232,1730020352176095724,5,-2.58,0.87,1.97,13.945994666666666,-81.3,-81.49
1730020352276757981,1730020352276164293,5,-2.58,0.87,1.97,14.039802,-81.62,-81.6
1730020352376557302,1730020352376154184,5,-2.58,0.87,1.97,14.127355333333334,-81.95,-81.85
1730020352476737403,1730020352476155042,5,-2.58,0.87,1.97,14.221162666666666,-81.82,-82.44
1730020352576422483,1730020352576062679,5,-2.58,0.87,1.97,14.314969666666668,-82.99,-85.07
1730020352676571083,1730020352676092147,5,-2.58,0.87,1.97,14.408776666666668,-82.72,-84.57
1730020352776684745,1730020352776104450,5,-2.58,0.87,1.97,14.502583666666666,-81.91,-83.18
1730020352876432163,1730020352876078844,5,-2.58,0.87,1.97,14.590137,-83.32,-82.95
1730020352976619128,1730020352976088047,5,-2.58,0.87,1.97,14.652675333333333,-80.88,-81.57
1730020353076517728,1730020353076148271,5,-2.58,0.87,1.97,14.690198333333333,-80.31,-80.65
1730020353176451488,1730020353176067829,5,-2.58,0.87,1.97,14.702706,-80.52,-80.73
1730020353276812171,1730020353276148796,5,-2.58,0.87,1.97,14.727721,-79.62,-81.01
1730020353376613154,1730020353376080274,5,-2.58,0.87,1.97,14.733974666666668,-79.82,-80.82
1730020353478103021,1730020353477712869,5,-2.58,0.87,1.97,14.733974666666668,-80.04,-80.86
1730020353577901900,1730020353577500104,5,-2.58,0.87,1.97,14.746482666666667,-83.01,-82.75
1730020353677872215,1730020353677538156,5,-2.58,0.87,1.97,14.746482666666667,-79.96,-81.32
1730020353777964829,1730020353777663230,5,-2.58,0.87,1.97,14.746482666666667,-80.25,-81.1
1730020353877527871,1730020353877287387,5,-2.58,0.87,1.97,14.715213333333333,-79.84,-80.82
1730020353977717683,1730020353977464437,5,-2.58,0.87,1.97,14.708959666666667,-80.22,-80.78
1730020354077825766,1730020354077467679,5,-2.58,0.87,1.97,14.683944333333335,-79.69,-80.79
1730020354177870686,1730020354177526473,5,-2.58,0.87,1.97,14.652675333333335,-79.44,-80.56
1730020354278289798,1730020354277884721,5,-2.58,0.87,1.97,14.633913666666666,-79.75,-80.74
1730020354377851985,1730020354377564907,5,-2.58,0.87,1.97,14.633913666666666,-79.77,-80.62
1730020354477932793,1730020354477546691,5,-2.58,0.87,1.97,14.62766,-79.64,-81.04
1730020354577733817,1730020354577527523,5,-2.58,0.87,1.97,14.62766,-82.06,-81.88
1730020354677800306,1730020354677692413,5,-2.58,0.87,1.97,14.621406333333335,-80.44,-81.24
1730020354777805870,1730020354777551174,5,-2.58,0.87,1.97,14.62766,-80.84,-81.1
1730020354877995413,1730020354877647638,5,-2.58,0.87,1.97,14.608898666666667,-80.73,-81.07
1730020354978079097,1730020354977708101,5,-2.58,0.87,1.97,14.577629333333334,-80.96,-81.31
1730020355077606250,1730020355077371120,5,-2.58,0.87,1.97,14.552614333333333,-81.11,-81.18
1730020355177780110,1730020355177539825,5,-2.58,0.87,1.97,14.515091333333332,-80.87,-81.39
1730020355276442531,1730020355276108026,5,-2.58,0.87,1.97,14.490076333333333,-80.66,-81.05
1730020355377687978,1730020355377500057,5,-2.58,0.87,1.97,14.452553333333334,-80.91,-83.24
1730020355479200373,1730020355478886604,5,-2.58,0.87,1.97,14.440046,-81.01,-83.02
1730020355576455741,1730020355576110601,5,-2.58,0.87,1.97,14.396269333333334,-80.93,-81.98
1730020355676465435,1730020355676105260,5,-2.58,0.87,1.97,14.352492666666668,-80.46,-81.46
1730020355776625509,1730020355776127815,5,-2.58,0.87,1.97,14.277446666666668,-80.7,-81.7
1730020355876959407,1730020355876359224,5,-2.58,0.87,1.97,14.233670000000002,-80.81,-81.12
1730020355977553734,1730020355977431535,5,-2.58,0.87,1.97,14.177385333333334,-81.02,-81.47
1730020356076657974,1730020356076127529,5,-2.58,0.87,1.97,14.127355,-80.64,-81.66
1730020356179909910,1730020356179625749,5,-2.58,0.87,1.97,14.058563333333334,-81.43,-81.47
1730020356276542948,1730020356276107072,5,-2.58,0.87,1.97,13.996025666666668,-81.99,-82.16
1730020356376682363,1730020356376283407,5,-2.58,0.87,1.97,13.939741333333332,-83.55,-83.22
1730020356476725282,1730020356476089000,5,-2.58,0.87,1.97,13.889710666666666,-81.28,-81.45
1730020356579573276,1730020356579364538,5,-2.58,0.87,1.97,13.83968,-81.47,-83.2
1730020356678773479,1730020356678578615,5,-2.58,0.87,1.97,13.777142,-82.12,-82.09
1730020356779436501,1730020356779234886,5,-2.58,0.87,1.97,13.702096333333335,-81.52,-82.17
1730020356878978638,1730020356878749132,5,-2.58,0.87,1.97,13.633304666666666,-81.11,-82.28
1730020356979409388,1730020356979090929,5,-2.58,0.87,1.97,13.545751333333333,-81.7,-82.43
1730020357079020885,1730020357078779458,5,-2.58,0.87,1.97,13.470705666666666,-82.8,-85.63
1730020357177935407,1730020357177695035,5,-2.58,0.87,1.97,13.383152333333333,-82.59,-83.93
1730020357278518168,1730020357278238296,5,-2.58,0.87,1.97,13.320614,-81.8,-84.24
1730020357378024315,1730020357377609729,5,-2.58,0.87,1.97,13.233060666666665,-81.69,-85.23
1730020357478351087,1730020357478002548,5,-2.58,0.87,1.97,13.170522333333333,-81.93,-83.43
1730020357578024892,1730020357577574729,5,-2.58,0.87,1.97,13.095477,-81.71,-84.43
1730020357678429384,1730020357678125381,5,-2.58,0.87,1.97,13.020431,-81.2,-82.76
1730020357778070769,1730020357777627229,5,-2.58,0.87,1.97,12.939131666666666,-81.1,-83.18
1730020357877854532,1730020357877734899,5,-2.58,0.87,1.97,12.870339666666666,-81.3,-83.95
1730020357978257850,1730020357977737188,5,-2.58,0.87,1.97,12.801548000000002,-81.15,-83.03
1730020358078180403,1730020358077985525,5,-2.58,0.87,1.97,12.726501999999998,-80.95,-81.35
1730020358178020827,1730020358177687406,5,-2.58,0.87,1.97,12.626441,-80.76,-81.3
1730020358277870539,1730020358277568578,5,-2.58,0.87,1.97,12.563903000000002,-83.75,-84.36
1730020358378606940,1730020358378361225,5,-2.58,0.87,1.97,12.470095999999998,-80.35,-81.23
1730020358478162693,1730020358477854728,5,-2.58,0.87,1.97,12.376289,-81.31,-81.46
1730020358578654324,1730020358578533887,5,-2.58,0.87,1.97,12.263720333333334,-80.62,-81.13
1730020358677981746,1730020358677726984,5,-2.58,0.87,1.97,12.169913333333334,-81.09,-81.67
1730020358778131145,1730020358777884721,5,-2.58,0.87,1.97,12.094867666666667,-80.86,-81.36
1730020358878070238,1730020358877688884,5,-2.58,0.87,1.97,12.007314333333332,-80.75,-83.3
1730020358978104789,1730020358977633476,5,-2.58,0.87,1.97,11.807192,-81.89,-82.42
1730020359078345425,1730020359077916860,5,-2.58,0.87,1.97,11.700877333333333,-81.3,-83.25
1730020359178711199,1730020359178297758,5,-2.58,0.87,1.97,11.594562666666667,-81.98,-84.12
1730020359278530064,1730020359278217315,5,-2.58,0.87,1.97,11.481994,-82.23,-84.03
1730020359377921124,1730020359377695798,5,-2.58,0.87,1.97,11.388186666666668,-82.22,-83.93
1730020359478307744,1730020359478074550,5,-2.58,0.87,1.97,11.306887333333334,-80.72,-81.73
1730020359577940830,1730020359577622890,5,-2.58,0.87,1.97,11.225588,-80.41,-81.22
1730020359677910118,1730020359677639961,5,-2.58,0.87,1.97,11.125527,-80.56,-81.31
1730020359779155010,1730020359778780221,5,-2.58,0.87,1.97,11.025465666666667,-80.82,-81.28
