%time,field.stamp,field.id,field.x,field.y,field.z,field.distanceFromTag,field.rssi,field.rssi_fp
1730017526478939636,1730017526478717088,12,-2.58,-0.87,1.97,4.315128666666666,-78.45,-81.32
1730017526579853152,1730017526579643964,12,-2.58,-0.87,1.97,4.302620999999999,-79.25,-81.34
1730017526679487834,1730017526679260969,12,-2.58,-0.87,1.97,4.302620999999999,-78.6,-81.03
1730017526779011561,1730017526778790473,12,-2.58,-0.87,1.97,4.290113333333333,-78.38,-80.53
1730017526878297747,1730017526878218650,12,-2.58,-0.87,1.97,4.2838596666666655,-78.51,-81.08
1730017526978696240,1730017526978242874,12,-2.58,-0.87,1.97,4.290113333333333,-78.57,-80.87
1730017527078649348,1730017527078350782,12,-2.58,-0.87,1.97,4.290113333333333,-78.63,-80.72
1730017527178337575,1730017527178134202,12,-2.58,-0.87,1.97,4.308874666666667,-78.87,-80.78
1730017527278343015,1730017527278192996,12,-2.58,-0.87,1.97,4.302620999999999,-78.38,-80.44
1730017527378975191,1730017527378664493,12,-2.58,-0.87,1.97,4.315128666666666,-78.52,-80.77
1730017527480150182,1730017527479795932,12,-2.58,-0.87,1.97,4.302620999999999,-78.97,-81.09
1730017527579531098,1730017527579218626,12,-2.58,-0.87,1.97,4.308874666666667,-78.6,-80.99
1730017527678256933,1730017527678099155,12,-2.58,-0.87,1.97,4.308874666666667,-78.92,-80.87
1730017527778473900,1730017527778238058,12,-2.58,-0.87,1.97,4.302620999999999,-78.58,-80.59
1730017527878428521,1730017527878222703,12,-2.58,-0.87,1.97,4.308874666666666,-78.73,-80.9
1730017527978781229,1730017527978418588,12,-2.58,-0.87,1.97,4.296367,-78.8,-81.06
1730017528078975605,1730017528078706741,12,-2.58,-0.87,1.97,4.308874333333333,-78.37,-80.45
1730017528178298568,1730017528178019762,12,-2.58,-0.87,1.97,4.315128333333333,-78.34,-81.06
1730017528277674597,1730017528277402162,12,-2.58,-0.87,1.97,4.315128333333333,-78.9,-81.23
1730017528377435545,1730017528377284288,12,-2.58,-0.87,1.97,4.302620999999999,-78.54,-80.57
1730017528477502269,1730017528477226018,12,-2.58,-0.87,1.97,4.2838596666666655,-78.13,-80.51
1730017528577763603,1730017528577389240,12,-2.58,-0.87,1.97,4.296367333333333,-78.64,-80.66
1730017528677637039,1730017528677356719,12,-2.58,-0.87,1.97,4.302620999999999,-78.72,-80.97
1730017528777716086,1730017528777381658,12,-2.58,-0.87,1.97,4.308874666666667,-78.19,-80.79
1730017528877675886,1730017528877461433,12,-2.58,-0.87,1.97,4.296367,-78.88,-81.13
1730017528978346505,1730017528977963209,12,-2.58,-0.87,1.97,4.321382333333333,-78.7,-80.62
1730017529177850667,1730017529177611589,12,-2.58,-0.87,1.97,4.352651333333333,-79.56,-80.85
1730017529276467920,1730017529276060819,12,-2.58,-0.87,1.97,4.358905,-79.02,-81.16
1730017529377723908,1730017529377575159,12,-2.58,-0.87,1.97,4.327635999999999,-78.74,-80.62
1730017529477486470,1730017529477344989,12,-2.58,-0.87,1.97,4.296367,-78.37,-80.9
1730017529578658226,1730017529578366279,12,-2.58,-0.87,1.97,4.296366999999999,-78.53,-80.77
1730017529677678283,1730017529677381992,12,-2.58,-0.87,1.97,4.302620666666667,-78.15,-80.48
1730017529778091492,1730017529777613639,12,-2.58,-0.87,1.97,4.296367,-78.87,-80.59
1730017529876442949,1730017529876085758,12,-2.58,-0.87,1.97,4.277605666666666,-78.49,-80.75
1730017529978535719,1730017529978091001,12,-2.58,-0.87,1.97,4.302620666666667,-79.15,-81.12
1730017530078919156,1730017530078689098,12,-2.58,-0.87,1.97,4.333889666666667,-78.3,-80.7
1730017530179042435,1730017530178754568,12,-2.58,-0.87,1.97,4.340143666666667,-78.64,-80.81
1730017530279274510,1730017530279145002,12,-2.58,-0.87,1.97,4.340143666666667,-79.12,-80.94
1730017530378984822,1730017530378741025,12,-2.58,-0.87,1.97,4.315128666666666,-78.52,-80.54
1730017530477640725,1730017530477456331,12,-2.58,-0.87,1.97,4.308874666666666,-78.8,-80.68
1730017530576572021,1730017530576076507,12,-2.58,-0.87,1.97,4.296367,-78.19,-80.52
1730017530678514200,1730017530678323984,12,-2.58,-0.87,1.97,4.265097666666667,-79.17,-80.82
1730017530779914009,1730017530779349565,12,-2.58,-0.87,1.97,4.258844,-79.58,-80.96
1730017530876560352,1730017530876065015,12,-2.58,-0.87,1.97,4.271351666666667,-78.91,-80.73
1730017530976486376,1730017530976061344,12,-2.58,-0.87,1.97,4.315128333333333,-78.47,-81.02
1730017531076486613,1730017531076075315,12,-2.58,-0.87,1.97,4.315128333333333,-78.44,-80.65
1730017531176434731,1730017531176059722,12,-2.58,-0.87,1.97,4.308874333333333,-78.78,-80.62
1730017531277805138,1730017531277596950,12,-2.58,-0.87,1.97,4.302620666666667,-78.16,-80.62
1730017531377885842,1730017531377463340,12,-2.58,-0.87,1.97,4.321382,-78.59,-80.65
1730017531477613175,1730017531477352380,12,-2.58,-0.87,1.97,4.327636,-78.35,-80.54
1730017531576624198,1730017531576067924,12,-2.58,-0.87,1.97,4.327636,-78.82,-81.16
1730017531679268501,1730017531679033041,12,-2.58,-0.87,1.97,4.302620999999999,-78.46,-80.88
1730017531780272644,1730017531779977798,12,-2.58,-0.87,1.97,4.308874666666666,-78.28,-80.62
1730017531880274356,1730017531879995346,12,-2.58,-0.87,1.97,4.327636,-78.58,-80.66
1730017531979144705,1730017531978950500,12,-2.58,-0.87,1.97,4.340143333333333,-79.01,-81.01
1730017532079935368,1730017532079712152,12,-2.58,-0.87,1.97,4.308874333333333,-78.46,-80.46
1730017532179438801,1730017532179248809,12,-2.58,-0.87,1.97,4.290113,-79.03,-80.75
1730017532279403255,1730017532279335737,12,-2.58,-0.87,1.97,4.277605666666666,-78.85,-80.83
1730017532379293354,1730017532379132270,12,-2.58,-0.87,1.97,4.271351999999999,-78.62,-80.65
1730017532479096243,1730017532478963613,12,-2.58,-0.87,1.97,4.265098333333333,-78.58,-80.59
1730017532578814366,1730017532578681945,12,-2.58,-0.87,1.97,4.265098333333333,-79.23,-81.1
1730017532676473069,1730017532676079034,12,-2.58,-0.87,1.97,4.290113333333333,-78.47,-80.69
1730017532776398860,1730017532776080608,12,-2.58,-0.87,1.97,4.290113333333333,-79.08,-80.63
1730017532876483972,1730017532876082181,12,-2.58,-0.87,1.97,4.296367,-79.13,-80.88
1730017532976527201,1730017532976102352,12,-2.58,-0.87,1.97,4.296366999999999,-79.18,-80.63
1730017533076602549,1730017533076112031,12,-2.58,-0.87,1.97,4.302620666666667,-78.99,-80.83
1730017533176444940,1730017533176120758,12,-2.58,-0.87,1.97,4.302620666666667,-78.89,-80.79
1730017533276700105,1730017533276187658,12,-2.58,-0.87,1.97,4.296367,-78.88,-80.75
1730017533376494931,1730017533376096248,12,-2.58,-0.87,1.97,4.308874666666667,-78.52,-80.84
1730017533476477977,1730017533476094007,12,-2.58,-0.87,1.97,4.315128333333333,-78.73,-80.8
1730017533576444777,1730017533576093435,12,-2.58,-0.87,1.97,4.327636,-78.92,-80.87
1730017533676494027,1730017533676084995,12,-2.58,-0.87,1.97,4.333889666666667,-78.39,-80.64
1730017533776403353,1730017533776093721,12,-2.58,-0.87,1.97,4.358905,-78.61,-80.78
1730017533876534387,1730017533876121520,12,-2.58,-0.87,1.97,4.377666333333333,-78.31,-80.79
1730017533976530867,1730017533976093769,12,-2.58,-0.87,1.97,4.371412666666667,-78.66,-81.02
1730017534076529740,1730017534076096057,12,-2.58,-0.87,1.97,4.33389,-78.36,-80.7
1730017534176601062,1730017534176155090,12,-2.58,-0.87,1.97,4.302620999999999,-78.41,-80.58
1730017534276572343,1730017534276102542,12,-2.58,-0.87,1.97,4.277605666666666,-78.89,-81.06
1730017534376686122,1730017534376133680,12,-2.58,-0.87,1.97,4.283859333333333,-78.52,-80.84
1730017534476528697,1730017534476096630,12,-2.58,-0.87,1.97,4.308874666666667,-78.25,-81.3
1730017534576420901,1730017534576097488,12,-2.58,-0.87,1.97,4.340143666666667,-78.81,-80.71
1730017534676471252,1730017534676094532,12,-2.58,-0.87,1.97,4.371412666666667,-78.85,-80.78
1730017534776479329,1730017534776092052,12,-2.58,-0.87,1.97,4.371412666666667,-79.64,-81.09
1730017534876374226,1730017534876086711,12,-2.58,-0.87,1.97,4.377666666666667,-78.89,-80.41
1730017534977461744,1730017534977236509,12,-2.58,-0.87,1.97,4.396428,-78.37,-80.38
1730017535376498357,1730017535376103162,12,-2.58,-0.87,1.97,4.427697,-78.68,-80.59
1730017535476462051,1730017535476075887,12,-2.58,-0.87,1.97,4.496488666666667,-78.62,-80.7
1730017535576517582,1730017535576061964,12,-2.58,-0.87,1.97,4.552773,-79.6,-80.83
1730017535676466518,1730017535676084756,12,-2.58,-0.87,1.97,4.621565,-78.83,-80.7
1730017535776597798,1730017535776114940,12,-2.58,-0.87,1.97,4.671595666666666,-78.5,-80.6
1730017535879609618,1730017535879551410,12,-2.58,-0.87,1.97,4.709118666666666,-78.51,-80.53
1730017535980328964,1730017535980085611,12,-2.58,-0.87,1.97,4.746641333333333,-78.81,-81.1
1730017536078256059,1730017536078127861,12,-2.58,-0.87,1.97,4.784164,-78.8,-80.57
1730017536178638984,1730017536178469181,12,-2.58,-0.87,1.97,4.852956,-79.39,-81.18
1730017536276597965,1730017536276110172,12,-2.58,-0.87,1.97,4.877971333333334,-78.67,-80.92
1730017536376455444,1730017536376052379,12,-2.58,-0.87,1.97,4.902986666666667,-78.66,-80.61
1730017536476349969,1730017536476065874,12,-2.58,-0.87,1.97,4.940509333333334,-79.2,-80.68
1730017536576635787,1730017536576095819,12,-2.58,-0.87,1.97,4.965524666666667,-78.27,-81.09
1730017536677443980,1730017536676093578,12,-2.58,-0.87,1.97,5.015555333333333,-78.12,-80.69
1730017536777538454,1730017536776126384,12,-2.58,-0.87,1.97,5.040570666666667,-78.86,-81.07
1730017536876735422,1730017536876121997,12,-2.58,-0.87,1.97,5.109362333333333,-78.68,-80.63
1730017536976342776,1730017536976120233,12,-2.58,-0.87,1.97,5.153139,-79.25,-81.07
1730017537076506607,1730017537076052665,12,-2.58,-0.87,1.97,5.190661666666667,-78.76,-80.74
1730017537176302201,1730017537176085710,12,-2.58,-0.87,1.97,5.271961333333333,-80.35,-80.91
1730017537276320267,1730017537276062965,12,-2.58,-0.87,1.97,5.372022,-80.24,-80.67
1730017537376443406,1730017537376068830,12,-2.58,-0.87,1.97,5.440814,-79.53,-81.85
1730017537476553235,1730017537476103067,12,-2.58,-0.87,1.97,5.503352,-82.61,-87.99
1730017537576686092,1730017537576072454,12,-2.58,-0.87,1.97,5.522113333333333,-79.08,-80.72
1730017537676824144,1730017537676100015,12,-2.58,-0.87,1.97,5.5658900000000004,-80.97,-81.06
1730017537776609067,1730017537776078224,12,-2.58,-0.87,1.97,5.572143666666666,-79.34,-80.68
1730017537876493692,1730017537876071214,12,-2.58,-0.87,1.97,5.609666666666667,-78.96,-80.61
1730017537976618764,1730017537976087093,12,-2.58,-0.87,1.97,5.734742999999999,-79.41,-81.27
1730017538076389984,1730017538076083660,12,-2.58,-0.87,1.97,5.784773333333334,-79.07,-81.08
1730017538177937723,1730017538177525758,12,-2.58,-0.87,1.97,5.841057666666667,-78.45,-80.8
1730017538278859148,1730017538278672218,12,-2.58,-0.87,1.97,5.916103333333333,-78.9,-80.8
1730017538378437725,1730017538378306627,12,-2.58,-0.87,1.97,5.997403000000001,-79.53,-81.45
1730017538478267464,1730017538478082656,12,-2.58,-0.87,1.97,6.084956333333333,-79.04,-80.61
1730017538578363844,1730017538578198671,12,-2.58,-0.87,1.97,6.160002000000001,-79.9,-81.16
1730017538678813987,1730017538678564310,12,-2.58,-0.87,1.97,6.253809,-79.15,-82.72
1730017538778870532,1730017538778663635,12,-2.58,-0.87,1.97,6.3476159999999995,-79.78,-80.92
1730017538878542010,1730017538878333091,12,-2.58,-0.87,1.97,6.447677,-79.49,-81.27
1730017538977618777,1730017538977347612,12,-2.58,-0.87,1.97,6.535230666666666,-79.48,-81.11
1730017539077341601,1730017539077176809,12,-2.58,-0.87,1.97,6.616530333333333,-79.34,-80.98
1730017539177491619,1730017539177243471,12,-2.58,-0.87,1.97,6.685322333333333,-79.18,-80.73
1730017539277793336,1730017539277441978,12,-2.58,-0.87,1.97,6.7666216666666665,-79.09,-80.94
1730017539377504339,1730017539377265930,12,-2.58,-0.87,1.97,6.847921,-79.32,-81.09
1730017539477407585,1730017539477298498,12,-2.58,-0.87,1.97,6.941728,-79.29,-80.93
1730017539577586088,1730017539577287435,12,-2.58,-0.87,1.97,7.0292813333333335,-79.4,-80.74
1730017539677573171,1730017539677269935,12,-2.58,-0.87,1.97,7.116834666666667,-79.45,-80.69
1730017539777921339,1730017539777281999,12,-2.58,-0.87,1.97,7.198134333333333,-79.47,-81.1
1730017539877418026,1730017539877314090,12,-2.58,-0.87,1.97,7.291941666666666,-78.94,-80.5
1730017539977400387,1730017539977205753,12,-2.58,-0.87,1.97,7.385748666666667,-79.29,-80.72
1730017540077737496,1730017540077471256,12,-2.58,-0.87,1.97,7.498317,-79.32,-81.78
1730017540177492336,1730017540177392721,12,-2.58,-0.87,1.97,7.573362333333333,-78.55,-80.45
1730017540277141747,1730017540276117801,12,-2.58,-0.87,1.97,7.660915666666667,-79.27,-81.04
1730017540376514906,1730017540376102924,12,-2.58,-0.87,1.97,7.748469,-80.05,-83.13
1730017540476532280,1730017540476081848,12,-2.58,-0.87,1.97,7.879799333333334,-80.02,-82.23
1730017540576492274,1730017540576105833,12,-2.58,-0.87,1.97,7.979860666666667,-79.36,-80.89
1730017541279594184,1730017541279309511,12,-2.58,-0.87,1.97,8.567719,-79.24,-80.63
1730017541378609542,1730017541378369331,12,-2.58,-0.87,1.97,8.680287666666667,-80.42,-80.82
1730017541478386168,1730017541478196620,12,-2.58,-0.87,1.97,8.774095,-79.32,-80.79
1730017541579020154,1730017541578824758,12,-2.58,-0.87,1.97,8.880409666666667,-79.58,-80.61
1730017541679247885,1730017541678961038,12,-2.58,-0.87,1.97,8.967963,-79.32,-80.87
1730017541779522616,1730017541779211282,12,-2.58,-0.87,1.97,9.074277333333333,-80.02,-80.93
1730017541879290221,1730017541879094123,12,-2.58,-0.87,1.97,9.174338333333333,-79.25,-80.58
1730017541979566167,1730017541979309320,12,-2.58,-0.87,1.97,9.280653,-79.38,-80.68
1730017542079132063,1730017542078942060,12,-2.58,-0.87,1.97,9.386968,-79.29,-82.01
1730017542179025962,1730017542178797006,12,-2.58,-0.87,1.97,9.487029,-79.58,-80.45
1730017542279636359,1730017542279445409,12,-2.58,-0.87,1.97,9.574582333333334,-79.98,-81.05
1730017542379363473,1730017542379112720,12,-2.58,-0.87,1.97,9.668389666666668,-79.87,-80.79
1730017542479308505,1730017542479014873,12,-2.58,-0.87,1.97,9.768450666666666,-80.42,-81.18
1730017542676478104,1730017542676065206,12,-2.58,-0.87,1.97,9.931049333333334,-79.6,-81.02
1730017542776549239,1730017542776079654,12,-2.58,-0.87,1.97,10.068633,-79.47,-80.49
1730017542876505168,1730017542876134872,12,-2.58,-0.87,1.97,10.218724666666667,-79.38,-80.9
1730017542976433495,1730017542976102590,12,-2.58,-0.87,1.97,10.318786000000001,-79.85,-81.13
1730017543076518765,1730017543076070547,12,-2.58,-0.87,1.97,10.437608666666668,-79.28,-80.71
1730017543176356185,1730017543176086187,12,-2.58,-0.87,1.97,10.587699666666667,-83.64,-85.42
1730017543281746723,1730017543281524181,12,-2.58,-0.87,1.97,10.687760333333335,-79.75,-81.1
1730017543379127081,1730017543378911733,12,-2.58,-0.87,1.97,10.769059666666669,-80.49,-81.08
1730017543476528305,1730017543476077318,12,-2.58,-0.87,1.97,10.819090333333333,-79.98,-81.13
1730017543576393014,1730017543576087951,12,-2.58,-0.87,1.97,10.919151333333332,-80.13,-81.83
1730017543677673909,1730017543677386760,12,-2.58,-0.87,1.97,11.03172,-79.68,-80.65
1730017543777539392,1730017543777336835,12,-2.58,-0.87,1.97,11.144288666666666,-79.78,-80.71
1730017543876463470,1730017543876118898,12,-2.58,-0.87,1.97,11.263111333333333,-80.76,-81.24
1730017543976512428,1730017543976102828,12,-2.58,-0.87,1.97,11.369425999999999,-80.36,-81.75
1730017544076405965,1730017544076048374,12,-2.58,-0.87,1.97,11.500755666666668,-80.17,-81.71
1730017544176355063,1730017544176073551,12,-2.58,-0.87,1.97,11.600816333333333,-80.49,-80.95
1730017544279259662,1730017544279055833,12,-2.58,-0.87,1.97,11.700877333333333,-79.88,-80.96
1730017544378161906,1730017544378017902,12,-2.58,-0.87,1.97,11.800938666666667,-83.14,-84.25
1730017544478515651,1730017544478297948,12,-2.58,-0.87,1.97,11.907253666666668,-80.09,-80.98
1730017544608655463,1730017544608473300,12,-2.58,-0.87,1.97,12.019822,-79.77,-80.87
1730017544678590718,1730017544678323268,12,-2.58,-0.87,1.97,12.113628666666665,-80.27,-81.09
1730017544778458063,1730017544778289079,12,-2.58,-0.87,1.97,12.213689333333335,-80.25,-80.83
1730017544878464339,1730017544878249883,12,-2.58,-0.87,1.97,12.320003999999999,-80.33,-80.74
1730017544978748421,1730017544978424787,12,-2.58,-0.87,1.97,12.451334333333334,-80.22,-81.13
1730017545078769767,1730017545078603029,12,-2.58,-0.87,1.97,12.582664666666666,-79.88,-80.65
1730017545178183515,1730017545178046941,12,-2.58,-0.87,1.97,12.682726,-80.43,-81.15
1730017545278400999,1730017545278170347,12,-2.58,-0.87,1.97,12.764025333333334,-80.42,-81.54
1730017545378635351,1730017545378369092,12,-2.58,-0.87,1.97,12.839070666666666,-80.83,-81.71
1730017545478829052,1730017545478635072,12,-2.58,-0.87,1.97,12.957892666666666,-81.07,-82.91
1730017545578415741,1730017545578208208,12,-2.58,-0.87,1.97,13.076715,-81.37,-83.61
1730017545678485992,1730017545678200244,12,-2.58,-0.87,1.97,13.195537666666667,-84.07,-85.22
1730017545778313395,1730017545778109550,12,-2.58,-0.87,1.97,13.301852666666667,-81.25,-84.19
1730017545878456288,1730017545878183364,12,-2.58,-0.87,1.97,13.414421333333332,-81.23,-81.65
1730017545978487751,1730017545978291273,12,-2.58,-0.87,1.97,13.508228333333333,-80.68,-81.29
1730017546078293624,1730017546078080654,12,-2.58,-0.87,1.97,13.620797000000001,-80.58,-81.16
1730017546177505430,1730017546177232742,12,-2.58,-0.87,1.97,13.720858,-80.41,-81.53
1730017546278929124,1730017546278646707,12,-2.58,-0.87,1.97,13.845934,-80.25,-81.78
1730017546377687743,1730017546377344369,12,-2.58,-0.87,1.97,13.958502333333334,-80.3,-81.19
1730017546477723326,1730017546477592229,12,-2.58,-0.87,1.97,14.071070999999998,-80.65,-80.79
1730017546577585364,1730017546577316522,12,-2.58,-0.87,1.97,14.189893666666668,-79.96,-80.62
1730017546678686599,1730017546678179979,12,-2.58,-0.87,1.97,14.302462333333333,-80.53,-81.19
1730017546778247959,1730017546777997016,12,-2.58,-0.87,1.97,14.415031,-79.96,-81.02
1730017546877393759,1730017546877141475,12,-2.58,-0.87,1.97,14.521345666666667,-80.76,-81.08
1730017546977364032,1730017546977158308,12,-2.58,-0.87,1.97,14.602645,-79.97,-80.66
1730017547077566751,1730017547077360868,12,-2.58,-0.87,1.97,14.690198333333333,-80.16,-81.43
1730017547177745346,1730017547177438259,12,-2.58,-0.87,1.97,14.777751666666667,-80.52,-80.76
1730017547276525276,1730017547276053905,12,-2.58,-0.87,1.97,14.896574000000001,-81.04,-81.79
1730017547378219771,1730017547377195358,12,-2.58,-0.87,1.97,15.015396333333333,-80.52,-80.78
1730017547477602947,1730017547477410316,12,-2.58,-0.87,1.97,15.127964666666665,-80.84,-81.66
1730017547577464753,1730017547577236652,12,-2.58,-0.87,1.97,15.259294666666667,-82.14,-82.36
1730017547677350519,1730017547677089929,12,-2.58,-0.87,1.97,15.378116666666665,-87.86,-87.86
1730017547776363833,1730017547776058673,12,-2.58,-0.87,1.97,15.509447,-84.85,-87.66
1730017547876478643,1730017547876081228,12,-2.58,-0.87,1.97,15.622016,-81.82,-83.1
1730017547977450864,1730017547977216243,12,-2.58,-0.87,1.97,15.728331000000003,-83.47,-84.8
1730017548377850886,1730017548377219676,12,-2.58,-0.87,1.97,16.191111333333332,-80.78,-82.06
1730017548477769618,1730017548477481365,12,-2.58,-0.87,1.97,16.353709999999996,-81.12,-81.7
1730017548578547710,1730017548578348875,12,-2.58,-0.87,1.97,16.466279333333336,-82.3,-83.7
1730017548678016356,1730017548677530527,12,-2.58,-0.87,1.97,16.58510166666667,-81.56,-81.96
1730017548777567491,1730017548777402162,12,-2.58,-0.87,1.97,16.69767033333333,-80.99,-82.88
1730017548878904071,1730017548878682613,12,-2.58,-0.87,1.97,16.828999999999997,-81.03,-82.27
1730017548977470258,1730017548977200269,12,-2.58,-0.87,1.97,16.935314666666667,-82.81,-82.84
1730017549078611866,1730017549078334808,12,-2.58,-0.87,1.97,17.04162966666667,-81.03,-82.32
1730017549178349999,1730017549178078651,12,-2.58,-0.87,1.97,17.135437,-80.95,-80.99
1730017549278233342,1730017549277936697,12,-2.58,-0.87,1.97,17.235498,-80.55,-81.37
1730017549378098716,1730017549377978086,12,-2.58,-0.87,1.97,17.329305333333334,-81.18,-81.16
1730017549478664928,1730017549478489637,12,-2.58,-0.87,1.97,17.423112,-80.91,-81.17
1730017549578117299,1730017549577932834,12,-2.58,-0.87,1.97,17.535680333333335,-80.88,-80.86
1730017549676391291,1730017549676049232,12,-2.58,-0.87,1.97,17.641994666666665,-80.8,-81.25
1730017549776359892,1730017549776051282,12,-2.58,-0.87,1.97,17.748309666666668,-81.05,-81.19
1730017549876516376,1730017549876058340,12,-2.58,-0.87,1.97,17.848370666666668,-81.23,-81.52
1730017549976492944,1730017549976079940,12,-2.58,-0.87,1.97,17.973446666666664,-81.11,-81.28
1730017550076490508,1730017550076058387,12,-2.58,-0.87,1.97,18.098523,-82.4,-82.1
1730017550176481940,1730017550176055908,12,-2.58,-0.87,1.97,18.229853333333335,-80.6,-80.71
1730017550276488903,1730017550276089191,12,-2.58,-0.87,1.97,18.329914333333335,-81.36,-81.17
1730017550376416365,1730017550376071214,12,-2.58,-0.87,1.97,18.423721333333333,-80.63,-80.91
1730017550476413950,1730017550476063013,12,-2.58,-0.87,1.97,18.523782333333333,-80.77,-80.82
1730017550576567954,1730017550576076745,12,-2.58,-0.87,1.97,18.630097333333335,-80.94,-81.16
1730017550676533672,1730017550676098108,12,-2.58,-0.87,1.97,18.755173666666668,-82.26,-82.46
1730017550776447085,1730017550776095151,12,-2.58,-0.87,1.97,18.87399566666667,-81.74,-83.31
1730017550876419105,1730017550876045942,12,-2.58,-0.87,1.97,18.999072,-82.12,-82.33
1730017550976646895,1730017550976085424,12,-2.58,-0.87,1.97,19.105386333333332,-82.16,-82.43
1730017551076598780,1730017551076066255,12,-2.58,-0.87,1.97,19.211701333333334,-82.27,-82.51
1730017551176487490,1730017551176109552,12,-2.58,-0.87,1.97,19.318015666666664,-83.41,-83.81
1730017551276421941,1730017551276031732,12,-2.58,-0.87,1.97,19.418077333333333,-84.19,-85.53
1730017551376469024,1730017551376075983,12,-2.58,-0.87,1.97,19.511884333333334,-84.44,-86.46
1730017551476583951,1730017551476097106,12,-2.58,-0.87,1.97,19.58693,-84.28,-86.42
1730017551576520002,1730017551576092720,12,-2.58,-0.87,1.97,19.699498333333334,-84.24,-85.88
1730017551676298280,1730017551676112890,12,-2.58,-0.87,1.97,19.79330566666667,-85.38,-86.99
1730017551776520882,1730017551776069164,12,-2.58,-0.87,1.97,19.918381999999998,-85.39,-87.97
1730017551876514156,1730017551876065731,12,-2.58,-0.87,1.97,20.024696333333335,-86.29,-87.67
1730017551977550265,1730017551977293968,12,-2.58,-0.87,1.97,20.149772666666667,-85.01,-85.84
1730017552077489503,1730017552077121973,12,-2.58,-0.87,1.97,20.268595,-84.82,-85.48
1730017552177475903,1730017552177193164,12,-2.58,-0.87,1.97,20.399925,-83.55,-84.28
1730017552278233439,1730017552277985095,12,-2.58,-0.87,1.97,20.531254999999998,-89.59,-89.7
1730017552378146588,1730017552378015518,12,-2.58,-0.87,1.97,20.662585333333336,-84.68,-86.57
1730017552477471338,1730017552477180957,12,-2.58,-0.87,1.97,20.76264666666667,-83.19,-84.71
1730017552578523165,1730017552578272581,12,-2.58,-0.87,1.97,20.862707333333333,-82.91,-84.63
1730017552678609024,1730017552678383350,12,-2.58,-0.87,1.97,20.969021666666666,-83.43,-85.32
1730017552778382255,1730017552778135299,12,-2.58,-0.87,1.97,21.094098,-81.73,-83.18
1730017552878309885,1730017552877941131,12,-2.58,-0.87,1.97,21.20666633333333,-81.86,-82.94
1730017552978461733,1730017552978173494,12,-2.58,-0.87,1.97,21.319235,-81.33,-81.49
1730017553078486873,1730017553078220844,12,-2.58,-0.87,1.97,21.419295666666667,-81.75,-81.91
1730017553176473849,1730017553176049232,12,-2.58,-0.87,1.97,21.544372,-81.29,-81.52
1730017553276518182,1730017553276059627,12,-2.58,-0.87,1.97,21.650687,-81.14,-81.31
1730017553376375724,1730017553376050233,12,-2.58,-0.87,1.97,21.73824,-80.84,-81.69
1730017553476566875,1730017553476091623,12,-2.58,-0.87,1.97,21.819539666666667,-80.36,-81.19
1730017553576542175,1730017553576083898,12,-2.58,-0.87,1.97,21.894585333333335,-80.89,-81.21
1730017553676515795,1730017553676113367,12,-2.58,-0.87,1.97,22.000900333333334,-80.49,-81.15
1730017553776490163,1730017553776087760,12,-2.58,-0.87,1.97,22.113468666666666,-81.16,-81.63
1730017554176475672,1730017554176070690,12,-2.58,-0.87,1.97,22.52622033333333,-80.69,-81.43
1730017554279182640,1730017554279034852,12,-2.58,-0.87,1.97,22.645042333333333,-80.7,-80.99
1730017554378355963,1730017554378187417,12,-2.58,-0.87,1.97,22.757610999999997,-81.78,-83.36
1730017554477316968,1730017554477090835,12,-2.58,-0.87,1.97,22.863926000000003,-81.36,-81.95
1730017554578138402,1730017554577967882,12,-2.58,-0.87,1.97,22.951478999999996,-81.09,-81.65
1730017554778862719,1730017554778522729,12,-2.58,-0.87,1.97,23.10157,-81.26,-83.09
1730017554878690305,1730017554878485441,12,-2.58,-0.87,1.97,23.251661,-87.14,-86.58
1730017554978976932,1730017554978792667,12,-2.58,-0.87,1.97,23.370484,-80.66,-81.45
1730017555079331842,1730017555079139947,12,-2.58,-0.87,1.97,23.451783666666667,-81.33,-83.66
1730017555179076813,1730017555178949356,12,-2.58,-0.87,1.97,23.501814333333332,-81.46,-84.03
1730017555278989006,1730017555278759002,12,-2.58,-0.87,1.97,23.57686,-80.81,-81.37
1730017555377589651,1730017555377263784,12,-2.58,-0.87,1.97,23.614382666666668,-81.36,-81.72
1730017555477422108,1730017555477204561,12,-2.58,-0.87,1.97,23.664413666666665,-80.94,-83.47
1730017555577459400,1730017555577169656,12,-2.58,-0.87,1.97,23.664413666666665,-81.38,-81.63
1730017555677542368,1730017555677214384,12,-2.58,-0.87,1.97,23.670667666666663,-81.06,-81.03
1730017555777329249,1730017555777136325,12,-2.58,-0.87,1.97,23.658159666666666,-81.45,-83.59
1730017555877847102,1730017555877634048,12,-2.58,-0.87,1.97,23.689429,-81.2,-82.65
1730017555977424265,1730017555977187633,12,-2.58,-0.87,1.97,23.720698333333335,-81.33,-81.24
1730017556077438333,1730017556077198028,12,-2.58,-0.87,1.97,23.758221000000002,-81.6,-81.78
1730017556177957206,1730017556177494287,12,-2.58,-0.87,1.97,23.795743666666667,-82.99,-82.95
1730017556278113883,1730017556277205705,12,-2.58,-0.87,1.97,23.827012666666665,-81.09,-81.42
1730017556378715991,1730017556377285480,12,-2.58,-0.87,1.97,23.870789666666667,-81.52,-81.6
1730017556477719706,1730017556477347373,12,-2.58,-0.87,1.97,23.91456633333333,-81.52,-81.61
1730017556577482964,1730017556577229738,12,-2.58,-0.87,1.97,23.977104333333333,-83.17,-82.94
1730017556677622047,1730017556677522420,12,-2.58,-0.87,1.97,24.033388333333335,-82.19,-82.22
1730017556777556682,1730017556777266740,12,-2.58,-0.87,1.97,24.108433666666667,-82.06,-83.21
1730017556877399112,1730017556877109527,12,-2.58,-0.87,1.97,24.164717666666665,-82.17,-82.9
1730017556977561922,1730017556977348566,12,-2.58,-0.87,1.97,24.23351,-81.81,-83.21
1730017557077374555,1730017557077120065,12,-2.58,-0.87,1.97,24.289794666666666,-81.78,-82.3
1730017557177511465,1730017557177193880,12,-2.58,-0.87,1.97,24.371094,-82.04,-84.2
1730017557277429738,1730017557277246952,12,-2.58,-0.87,1.97,24.48366233333333,-81.98,-82.34
1730017557377415750,1730017557377203702,12,-2.58,-0.87,1.97,24.508678,-81.51,-82.2
1730017557477623368,1730017557477358818,12,-2.58,-0.87,1.97,24.558708333333332,-83.53,-84.44
1730017557577485080,1730017557577217578,12,-2.58,-0.87,1.97,24.602485,-81.48,-81.43
1730017557677297372,1730017557677195310,12,-2.58,-0.87,1.97,24.633754,-82.09,-81.95
1730017557777365808,1730017557777210950,12,-2.58,-0.87,1.97,24.614992666666666,-81.86,-81.93
1730017557877267650,1730017557877148151,12,-2.58,-0.87,1.97,24.614992666666666,-83.27,-83.15
1730017557977551235,1730017557977163553,12,-2.58,-0.87,1.97,24.614992666666666,-82.36,-82.4
1730017558077569416,1730017558077191591,12,-2.58,-0.87,1.97,24.633754,-87.8,-89.6
1730017558177356735,1730017558177177190,12,-2.58,-0.87,1.97,24.621246333333332,-82.43,-82.23
1730017558277539686,1730017558277368545,12,-2.58,-0.87,1.97,24.602485,-82.75,-84.19
1730017558377390663,1730017558377133131,12,-2.58,-0.87,1.97,24.564961666666665,-83.12,-84.47
1730017558477451656,1730017558477182149,12,-2.58,-0.87,1.97,24.533692666666667,-84.0,-84.08
1730017558577404093,1730017558577140569,12,-2.58,-0.87,1.97,24.521185000000003,-83.14,-83.19
1730017558677398839,1730017558677088975,12,-2.58,-0.87,1.97,24.508678000000003,-82.55,-83.03
1730017558777356372,1730017558777108430,12,-2.58,-0.87,1.97,24.514931333333337,-83.8,-83.52
1730017558877347487,1730017558877110958,12,-2.58,-0.87,1.97,24.496169999999996,-82.36,-82.89
1730017558977341609,1730017558977116584,12,-2.58,-0.87,1.97,24.50242366666667,-84.48,-85.36
1730017559077558309,1730017559077285528,12,-2.58,-0.87,1.97,24.48366233333333,-82.04,-82.48
1730017559177522888,1730017559177185058,12,-2.58,-0.87,1.97,24.489916000000004,-81.43,-81.51
1730017559277733098,1730017559277485132,12,-2.58,-0.87,1.97,24.489916000000004,-82.34,-83.03
1730017559377393956,1730017559377168416,12,-2.58,-0.87,1.97,24.51493166666667,-84.5,-84.26
1730017559477258015,1730017559477104425,12,-2.58,-0.87,1.97,24.50242366666667,-81.91,-83.27
1730017559576342808,1730017559576081037,12,-2.58,-0.87,1.97,24.471154666666667,-82.37,-82.63
1730017559676369421,1730017559676063299,12,-2.58,-0.87,1.97,24.43988566666667,-81.63,-81.33
1730017559776473415,1730017559776068449,12,-2.58,-0.87,1.97,24.408616666666664,-82.49,-82.41
1730017559876611311,1730017559876108646,12,-2.58,-0.87,1.97,24.383601,-81.15,-81.45
1730017559976564448,1730017559976080656,12,-2.58,-0.87,1.97,24.327316333333332,-81.74,-82.12
1730017560677764858,1730017560677573919,12,-2.58,-0.87,1.97,24.064657,-81.34,-81.24
1730017560776492183,1730017560776110172,12,-2.58,-0.87,1.97,23.983357,-81.24,-81.35
1730017560878158765,1730017560877968549,12,-2.58,-0.87,1.97,23.92707233333333,-81.13,-80.89
1730017560979245302,1730017560978487014,12,-2.58,-0.87,1.97,23.833266,-82.21,-82.44
1730017561076531717,1730017561076065301,12,-2.58,-0.87,1.97,23.789489333333332,-81.29,-81.43
1730017561176545103,1730017561176059484,12,-2.58,-0.87,1.97,23.726951,-81.54,-82.23
1730017561276630897,1730017561276134252,12,-2.58,-0.87,1.97,23.68317466666667,-81.06,-81.21
1730017561376530174,1730017561376071453,12,-2.58,-0.87,1.97,23.608129333333334,-81.71,-82.12
1730017561476687430,1730017561476120233,12,-2.58,-0.87,1.97,23.52683,-81.6,-81.76
1730017561576553091,1730017561576048135,12,-2.58,-0.87,1.97,23.458037666666666,-82.14,-81.7
1730017561676325812,1730017561676067829,12,-2.58,-0.87,1.97,23.382991666666666,-81.06,-81.22
1730017561776436117,1730017561776076793,12,-2.58,-0.87,1.97,23.326707,-82.04,-81.8
1730017561876583674,1730017561876061677,12,-2.58,-0.87,1.97,23.264169,-81.93,-81.82
1730017561976543638,1730017561976062059,12,-2.58,-0.87,1.97,23.20788466666667,-81.3,-83.23
1730017562076544122,1730017562076107978,12,-2.58,-0.87,1.97,23.139093000000003,-81.67,-81.46
1730017562176406002,1730017562176057815,12,-2.58,-0.87,1.97,23.05779366666667,-82.21,-81.83
1730017562276689184,1730017562276084423,12,-2.58,-0.87,1.97,22.989002,-80.88,-81.26
1730017562376334473,1730017562376065969,12,-2.58,-0.87,1.97,22.90144833333333,-80.88,-81.19
1730017562476332099,1730017562476067543,12,-2.58,-0.87,1.97,22.813895000000002,-80.88,-80.9
1730017562576400208,1730017562576056003,12,-2.58,-0.87,1.97,22.726342,-81.39,-81.43
1730017562676395962,1730017562676059484,12,-2.58,-0.87,1.97,22.645042666666665,-80.83,-81.18
1730017562776403308,1730017562776040554,12,-2.58,-0.87,1.97,22.576251,-81.72,-81.69
1730017562876323717,1730017562876056671,12,-2.58,-0.87,1.97,22.501205,-80.97,-81.16
1730017563276434290,1730017563276068449,12,-2.58,-0.87,1.97,22.226037666666667,-82.13,-82.06
1730017563376390214,1730017563376067399,12,-2.58,-0.87,1.97,22.163499333333334,-85.57,-87.15
1730017563476527758,1730017563476103067,12,-2.58,-0.87,1.97,22.100961,-81.61,-81.75
1730017563576409070,1730017563576047420,12,-2.58,-0.87,1.97,22.007153666666667,-81.99,-82.39
1730017563678639656,1730017563678491353,12,-2.58,-0.87,1.97,21.9196,-81.98,-83.37
1730017563778514291,1730017563778379440,12,-2.58,-0.87,1.97,21.832046333333334,-82.27,-82.55
1730017563879541261,1730017563879415512,12,-2.58,-0.87,1.97,21.757001333333335,-82.28,-83.43
1730017563978344083,1730017563978155851,12,-2.58,-0.87,1.97,21.681956,-81.95,-82.08
1730017564078723587,1730017564078541040,12,-2.58,-0.87,1.97,21.619418,-82.28,-82.67
1730017564178137238,1730017564177878379,12,-2.58,-0.87,1.97,21.531864333333335,-82.7,-84.15
1730017564278268486,1730017564278198719,12,-2.58,-0.87,1.97,21.438057333333333,-83.05,-84.28
1730017564378466711,1730017564378246545,12,-2.58,-0.87,1.97,21.350504333333333,-82.86,-84.88
1730017564478242404,1730017564478017568,12,-2.58,-0.87,1.97,21.256697,-83.43,-85.5
1730017564577907818,1730017564577690362,12,-2.58,-0.87,1.97,21.175397333333336,-83.41,-85.66
1730017564678562311,1730017564678385257,12,-2.58,-0.87,1.97,21.075335999999997,-84.87,-85.94
1730017564778496715,1730017564778234720,12,-2.58,-0.87,1.97,20.987783,-84.5,-86.18
1730017564976252402,1730017564976084709,12,-2.58,-0.87,1.97,20.868960333333334,-84.93,-87.77
1730017565076778609,1730017565076053857,12,-2.58,-0.87,1.97,20.762646,-84.81,-85.86
1730017565176845770,1730017565176080703,12,-2.58,-0.87,1.97,20.656331,-84.65,-87.31
1730017565276711459,1730017565276074171,12,-2.58,-0.87,1.97,20.575031666666664,-85.06,-88.3
1730017565376522782,1730017565376056671,12,-2.58,-0.87,1.97,20.493732,-84.99,-88.65
1730017565476826644,1730017565476132154,12,-2.58,-0.87,1.97,20.406178999999998,-88.13,-89.64
1730017565578159613,1730017565577881574,12,-2.58,-0.87,1.97,20.306118,-85.97,-89.76
1730017565678432393,1730017565678252220,12,-2.58,-0.87,1.97,20.231072,-85.47,-87.18
1730017565778390018,1730017565778081893,12,-2.58,-0.87,1.97,20.131011333333333,-84.84,-86.44
1730017565877651849,1730017565876053094,12,-2.58,-0.87,1.97,20.087234666666664,-84.08,-85.09
1730017565977486258,1730017565977133035,12,-2.58,-0.87,1.97,19.999681666666667,-83.65,-84.51
1730017566077401640,1730017566077021837,12,-2.58,-0.87,1.97,19.930889333333333,-84.83,-86.03
1730017566177218671,1730017566176973342,12,-2.58,-0.87,1.97,19.855844,-83.81,-84.16
1730017566277683837,1730017566277385711,12,-2.58,-0.87,1.97,19.780798333333333,-83.3,-83.52
1730017566377877664,1730017566377513408,12,-2.58,-0.87,1.97,19.71826,-82.81,-84.24
1730017566478033851,1730017566477454185,12,-2.58,-0.87,1.97,19.611945000000002,-82.0,-83.28
1730017566576653078,1730017566576093435,12,-2.58,-0.87,1.97,19.536899000000002,-81.92,-82.22
1730017566678569619,1730017566678272247,12,-2.58,-0.87,1.97,19.43683833333333,-81.92,-82.23
1730017566778280193,1730017566777927160,12,-2.58,-0.87,1.97,19.355539,-81.62,-81.81
1730017566877745418,1730017566877367973,12,-2.58,-0.87,1.97,19.255478333333333,-81.68,-82.52
1730017566977589194,1730017566977296590,12,-2.58,-0.87,1.97,19.180432333333332,-81.59,-81.86
1730017567078070387,1730017567077600479,12,-2.58,-0.87,1.97,19.099132666666666,-81.32,-81.57
1730017567177461318,1730017567177177667,12,-2.58,-0.87,1.97,19.011579,-81.09,-82.38
1730017567277322858,1730017567277076005,12,-2.58,-0.87,1.97,18.911518333333333,-81.81,-82.26
1730017567377701664,1730017567377273797,12,-2.58,-0.87,1.97,18.830219000000003,-80.85,-80.92
1730017567477415022,1730017567477177143,12,-2.58,-0.87,1.97,18.736412333333334,-80.67,-81.23
1730017567577590908,1730017567577142953,12,-2.58,-0.87,1.97,18.655112666666664,-80.68,-82.39
1730017567677405236,1730017567677163124,12,-2.58,-0.87,1.97,18.542543999999996,-80.53,-81.14
1730017567777286633,1730017567777145147,12,-2.58,-0.87,1.97,18.461244,-81.4,-82.25
1730017567878027026,1730017567877734899,12,-2.58,-0.87,1.97,18.367437,-80.56,-81.33
1730017567978856576,1730017567978712081,12,-2.58,-0.87,1.97,18.28613766666667,-79.7,-80.55
1730017568076459005,1730017568076079368,12,-2.58,-0.87,1.97,18.211092333333337,-83.46,-82.99
1730017568176529167,1730017568176059484,12,-2.58,-0.87,1.97,18.117285,-80.58,-81.18
1730017568276576221,1730017568276137590,12,-2.58,-0.87,1.97,18.035985,-80.3,-80.73
1730017568376507895,1730017568376046657,12,-2.58,-0.87,1.97,17.923416333333336,-80.02,-80.67
1730017568577986166,1730017568577861547,12,-2.58,-0.87,1.97,17.810847666666668,-81.44,-81.73
1730017568679294742,1730017568678998231,12,-2.58,-0.87,1.97,17.66701,-81.04,-80.97
1730017568777581218,1730017568777328729,12,-2.58,-0.87,1.97,17.541933666666665,-80.47,-80.99
1730017568876206688,1730017568876064062,12,-2.58,-0.87,1.97,17.441873,-80.67,-81.22
1730017568976382532,1730017568976091146,12,-2.58,-0.87,1.97,17.360573666666667,-80.38,-81.58
1730017569079211268,1730017569078870773,12,-2.58,-0.87,1.97,17.26676666666667,-80.43,-81.42
1730017569177601408,1730017569177228450,12,-2.58,-0.87,1.97,17.179213,-80.66,-81.05
1730017569276554280,1730017569276170253,12,-2.58,-0.87,1.97,17.104167666666665,-80.81,-82.32
1730017569376480975,1730017569376069545,12,-2.58,-0.87,1.97,17.035375666666667,-81.64,-82.15
1730017569476944009,1730017569476179361,12,-2.58,-0.87,1.97,16.98534533333333,-81.64,-83.42
1730017569576243155,1730017569576060056,12,-2.58,-0.87,1.97,16.910299333333334,-81.88,-82.63
1730017569676474446,1730017569676054000,12,-2.58,-0.87,1.97,16.841506999999996,-82.09,-82.5
1730017569777627876,1730017569777526855,12,-2.58,-0.87,1.97,16.747699666666666,-83.43,-85.02
1730017569977984363,1730017569977808952,12,-2.58,-0.87,1.97,16.641384666666667,-82.52,-84.23
1730017570376387859,1730017570376064538,12,-2.58,-0.87,1.97,16.253649333333332,-82.56,-87.18
1730017570476484911,1730017570476043462,12,-2.58,-0.87,1.97,16.184857666666666,-83.36,-85.18
1730017570577939126,1730017570577682018,12,-2.58,-0.87,1.97,16.122320333333334,-82.77,-85.22
1730017570677806873,1730017570677570343,12,-2.58,-0.87,1.97,16.05352866666667,-83.66,-87.03
1730017570777167574,1730017570776949167,12,-2.58,-0.87,1.97,15.972229333333336,-84.35,-85.81
1730017570876143754,1730017570876055479,12,-2.58,-0.87,1.97,15.903437333333335,-84.45,-86.69
1730017570976500800,1730017570976063728,12,-2.58,-0.87,1.97,15.759599666666666,-83.56,-86.13
1730017571076502296,1730017571076151132,12,-2.58,-0.87,1.97,15.690807999999999,-83.64,-87.16
1730017571176432496,1730017571176056861,12,-2.58,-0.87,1.97,15.634523666666666,-86.89,-90.19
1730017571276558431,1730017571276080369,12,-2.58,-0.87,1.97,15.565731666666666,-84.09,-84.62
1730017571376631392,1730017571376067638,12,-2.58,-0.87,1.97,15.515701,-84.0,-84.47
1730017571476427585,1730017571476058959,12,-2.58,-0.87,1.97,15.453162666666666,-82.28,-82.71
1730017571576599606,1730017571576051473,12,-2.58,-0.87,1.97,15.403132333333334,-81.9,-81.92
1730017571676478351,1730017571676082134,12,-2.58,-0.87,1.97,15.334340333333332,-82.1,-82.0
1730017571776422754,1730017571776061296,12,-2.58,-0.87,1.97,15.290563666666666,-82.05,-81.62
1730017571876636338,1730017571876169204,12,-2.58,-0.87,1.97,15.234279333333333,-82.19,-81.99
1730017571977358332,1730017571976989507,12,-2.58,-0.87,1.97,15.171741333333332,-82.26,-81.82
1730017572077238641,1730017572077037334,12,-2.58,-0.87,1.97,15.109203,-81.85,-83.26
1730017572177025305,1730017572176870822,12,-2.58,-0.87,1.97,15.046664999999999,-81.74,-83.54
1730017572277137452,1730017572276908636,12,-2.58,-0.87,1.97,14.984127,-81.05,-81.18
1730017572377049805,1730017572376904487,12,-2.58,-0.87,1.97,14.902827666666667,-81.21,-81.27
1730017572478171761,1730017572477876186,12,-2.58,-0.87,1.97,14.840289333333333,-81.36,-81.45
1730017572577088288,1730017572576875448,12,-2.58,-0.87,1.97,14.784005,-81.55,-81.64
1730017572678024553,1730017572677304983,12,-2.58,-0.87,1.97,14.733974666666667,-81.38,-83.06
1730017572777015517,1730017572776880502,12,-2.58,-0.87,1.97,14.658929333333333,-81.01,-81.22
1730017572877250377,1730017572876940965,12,-2.58,-0.87,1.97,14.615152666666665,-81.8,-81.51
1730017572977114300,1730017572976894140,12,-2.58,-0.87,1.97,14.546360666666667,-81.49,-82.19
1730017573077078158,1730017573077005386,12,-2.58,-0.87,1.97,14.471315000000002,-81.41,-81.67
1730017573177107674,1730017573176901102,12,-2.58,-0.87,1.97,14.371254,-80.19,-81.46
1730017573277195077,1730017573276879549,12,-2.58,-0.87,1.97,14.314969666666668,-80.02,-82.0
1730017573377094349,1730017573376868963,12,-2.58,-0.87,1.97,14.283700666666666,-84.74,-85.93
1730017573477249896,1730017573476989030,12,-2.58,-0.87,1.97,14.227416333333332,-80.95,-81.67
1730017573577938043,1730017573577661275,12,-2.58,-0.87,1.97,14.177385999999998,-82.14,-83.68
1730017573678059767,1730017573677730083,12,-2.58,-0.87,1.97,14.133609,-81.93,-84.53
1730017573777939730,1730017573777693748,12,-2.58,-0.87,1.97,14.102339999999998,-82.79,-82.88
1730017573877014021,1730017573876919269,12,-2.58,-0.87,1.97,14.046055666666666,-82.59,-83.28
1730017573977443819,1730017573977096080,12,-2.58,-0.87,1.97,13.97101,-82.56,-82.4
1730017574077337574,1730017574077027797,12,-2.58,-0.87,1.97,13.914725666666667,-82.92,-82.95
1730017574176487834,1730017574176054716,12,-2.58,-0.87,1.97,13.845933666666667,-83.67,-83.97
1730017574276497130,1730017574276102542,12,-2.58,-0.87,1.97,13.783395666666665,-84.18,-85.36
1730017574377512544,1730017574377174377,12,-2.58,-0.87,1.97,13.720857666666667,-83.69,-85.63
1730017574477098812,1730017574476871490,12,-2.58,-0.87,1.97,13.664573333333331,-84.16,-85.15
1730017574576157090,1730017574576063632,12,-2.58,-0.87,1.97,13.583274000000001,-84.77,-85.82
1730017574676491977,1730017574676056861,12,-2.58,-0.87,1.97,13.495721000000001,-84.92,-87.58
1730017574776555696,1730017574776059865,12,-2.58,-0.87,1.97,13.401914,-84.59,-86.93
1730017574876490401,1730017574876062393,12,-2.58,-0.87,1.97,13.345629666666667,-83.92,-85.18
1730017574978587437,1730017574978371381,12,-2.58,-0.87,1.97,13.264329666666667,-85.34,-85.77
1730017575079232417,1730017575079001188,12,-2.58,-0.87,1.97,13.208045666666665,-86.17,-86.95
1730017575178808426,1730017575178570032,12,-2.58,-0.87,1.97,13.120492333333333,-85.63,-87.82
1730017575278342750,1730017575278183698,12,-2.58,-0.87,1.97,13.051700666666667,-85.16,-87.38
1730017575378282067,1730017575378119945,12,-2.58,-0.87,1.97,12.957893333333333,-85.02,-85.56
1730017575576543540,1730017575576049804,12,-2.58,-0.87,1.97,12.826563,-86.01,-87.1
1730017575676339993,1730017575676082134,12,-2.58,-0.87,1.97,12.701486666666668,-87.42,-87.69
1730017575777250000,1730017575776181459,12,-2.58,-0.87,1.97,12.588918,-85.24,-87.58
1730017575876801497,1730017575876078844,12,-2.58,-0.87,1.97,12.520126333333332,-85.69,-86.43
1730017575976472091,1730017575976059198,12,-2.58,-0.87,1.97,12.451334333333334,-84.81,-85.02
1730017576076439068,1730017576076095581,12,-2.58,-0.87,1.97,12.376288666666667,-85.97,-88.38
1730017576178614954,1730017576178374290,12,-2.58,-0.87,1.97,12.301242666666667,-84.29,-84.84
1730017576278422431,1730017576278259992,12,-2.58,-0.87,1.97,12.232451,-90.08,-91.53
1730017576378903818,1730017576378619432,12,-2.58,-0.87,1.97,12.151151333333333,-85.24,-85.33
1730017576478480013,1730017576478289604,12,-2.58,-0.87,1.97,12.076106000000001,-85.04,-84.68
1730017576578616366,1730017576578404188,12,-2.58,-0.87,1.97,11.969791333333333,-85.04,-84.8
1730017576679206703,1730017576678949356,12,-2.58,-0.87,1.97,11.875984333333335,-85.17,-85.5
1730017576778520373,1730017576778221607,12,-2.58,-0.87,1.97,11.775923333333333,-88.04,-90.73
1730017576878706586,1730017576878499507,12,-2.58,-0.87,1.97,11.663354333333336,-85.49,-87.27
1730017577076367790,1730017577076058626,12,-2.58,-0.87,1.97,11.500755333333336,-87.25,-90.91
1730017577176485502,1730017577176067352,12,-2.58,-0.87,1.97,11.331902333333332,-87.16,-93.07
1730017577276488033,1730017577276062011,12,-2.58,-0.87,1.97,11.194318666666666,-88.54,-94.85
1730017577376345163,1730017577376052379,12,-2.58,-0.87,1.97,11.113019,-86.72,-90.34
1730017577476449596,1730017577476067304,12,-2.58,-0.87,1.97,11.031719333333333,-86.48,-90.75
1730017577576434610,1730017577576061725,12,-2.58,-0.87,1.97,10.956674000000001,-86.3,-90.05
1730017577678450594,1730017577678228378,12,-2.58,-0.87,1.97,10.887882,-96.9,-97.49
1730017577778656258,1730017577778341054,12,-2.58,-0.87,1.97,10.819090333333335,-88.54,-89.95
1730017577878486038,1730017577878289699,12,-2.58,-0.87,1.97,10.731536666666669,-88.94,-90.24
1730017577978463855,1730017577978333473,12,-2.58,-0.87,1.97,10.618968333333333,-89.16,-91.78
1730017578078686784,1730017578078526735,12,-2.58,-0.87,1.97,10.518907333333333,-86.96,-92.61
1730017578178342837,1730017578178185224,12,-2.58,-0.87,1.97,10.425100333333333,-87.54,-91.84
1730017578876352228,1730017578876063823,12,-2.58,-0.87,1.97,9.805973333333334,-83.37,-87.24
1730017578976276673,1730017578976071596,12,-2.58,-0.87,1.97,9.680897,-84.86,-89.8
1730017579077897472,1730017579077816247,12,-2.58,-0.87,1.97,9.612105,-83.75,-86.45
1730017579178613470,1730017579178348064,12,-2.58,-0.87,1.97,9.518298,-90.04,-93.45
1730017579278400844,1730017579278245449,12,-2.58,-0.87,1.97,9.424491000000002,-84.27,-91.75
1730017579377999850,1730017579377767324,12,-2.58,-0.87,1.97,9.293161333333334,-83.84,-90.59
1730017579476316142,1730017579476082801,12,-2.58,-0.87,1.97,9.218115333333332,-83.36,-86.53
1730017579576359768,1730017579576072454,12,-2.58,-0.87,1.97,9.168084666666667,-82.84,-87.68
1730017579677302427,1730017579677049160,12,-2.58,-0.87,1.97,9.124307666666667,-82.8,-86.79
1730017579777674129,1730017579777548789,12,-2.58,-0.87,1.97,9.030500666666667,-81.86,-85.07
1730017579876487833,1730017579876091718,12,-2.58,-0.87,1.97,8.949201333333333,-80.93,-82.99
1730017579976295690,1730017579976079702,12,-2.58,-0.87,1.97,8.867902,-80.63,-82.42
1730017580076400209,1730017580076069831,12,-2.58,-0.87,1.97,8.805363999999999,-83.86,-85.58
1730017580176346038,1730017580176070928,12,-2.58,-0.87,1.97,8.717810666666667,-80.89,-82.37
1730017580276419710,1730017580276103734,12,-2.58,-0.87,1.97,8.642765000000002,-81.12,-81.6
1730017580377975934,1730017580377776861,12,-2.58,-0.87,1.97,8.542704,-81.04,-83.59
1730017580476377411,1730017580476086616,12,-2.58,-0.87,1.97,8.461404333333332,-82.64,-83.87
1730017580577450498,1730017580576965332,12,-2.58,-0.87,1.97,8.355089333333334,-80.62,-83.16
1730017580676314788,1730017580676074504,12,-2.58,-0.87,1.97,8.261282,-79.81,-83.69
1730017580776347085,1730017580776067733,12,-2.58,-0.87,1.97,8.167474666666667,-80.07,-83.81
1730017580876304411,1730017580876077413,12,-2.58,-0.87,1.97,8.098683000000001,-80.93,-82.67
1730017580976411676,1730017580976070880,12,-2.58,-0.87,1.97,8.029891,-78.93,-81.91
1730017581080288636,1730017581080020666,12,-2.58,-0.87,1.97,7.948591666666666,-79.5,-80.74
1730017581178016289,1730017581177809715,12,-2.58,-0.87,1.97,7.861038333333333,-79.8,-81.13
1730017581277777746,1730017581277419805,12,-2.58,-0.87,1.97,7.785992666666666,-79.72,-80.56
1730017581377110304,1730017581376864194,12,-2.58,-0.87,1.97,7.704693,-79.65,-80.66
1730017581477923096,1730017581477520465,12,-2.58,-0.87,1.97,7.617139666666667,-79.29,-80.83
1730017581577460870,1730017581577048301,12,-2.58,-0.87,1.97,7.542094000000001,-80.01,-80.68
1730017581677392142,1730017581677213668,12,-2.58,-0.87,1.97,7.4670483333333335,-79.69,-80.61
1730017581777359954,1730017581777086019,12,-2.58,-0.87,1.97,7.423271666666667,-79.46,-81.11
1730017581877278605,1730017581877111196,12,-2.58,-0.87,1.97,7.3419723333333335,-79.61,-80.87
1730017581977291462,1730017581976911306,12,-2.58,-0.87,1.97,7.279433999999999,-79.59,-80.6
1730017582077281586,1730017582077001333,12,-2.58,-0.87,1.97,7.185626666666667,-79.59,-80.37
1730017582177298449,1730017582177013397,12,-2.58,-0.87,1.97,7.098073333333333,-79.11,-80.64
1730017582278098283,1730017582277694463,12,-2.58,-0.87,1.97,7.054296666666667,-79.56,-80.68
1730017582377533050,1730017582376945257,12,-2.58,-0.87,1.97,6.998012333333334,-79.67,-81.03
1730017582477242248,1730017582477043390,12,-2.58,-0.87,1.97,6.966743,-79.68,-80.69
1730017582577260290,1730017582577041149,12,-2.58,-0.87,1.97,6.897951333333334,-78.7,-80.91
1730017582677042652,1730017582676970481,12,-2.58,-0.87,1.97,6.835413333333334,-78.75,-80.42
1730017582777187943,1730017582777033805,12,-2.58,-0.87,1.97,6.754114,-78.75,-80.55
1730017582877200863,1730017582876965999,12,-2.58,-0.87,1.97,6.691576,-79.23,-80.74
1730017582976445794,1730017582976073503,12,-2.58,-0.87,1.97,6.629038,-78.85,-81.23
1730017583076155378,1730017583076056480,12,-2.58,-0.87,1.97,6.5977689999999996,-78.84,-80.51
1730017583176862605,1730017583176115036,12,-2.58,-0.87,1.97,6.541484666666666,-79.48,-80.75
1730017583276520054,1730017583276057481,12,-2.58,-0.87,1.97,6.435169666666667,-79.42,-80.62
1730017583376438586,1730017583375949144,12,-2.58,-0.87,1.97,6.385139,-78.84,-80.82
1730017583478781789,1730017583478560209,12,-2.58,-0.87,1.97,6.322600666666666,-78.72,-80.7
1730017583578378762,1730017583578210830,12,-2.58,-0.87,1.97,6.266316333333333,-79.37,-81.23
1730017583678621871,1730017583678461790,12,-2.58,-0.87,1.97,6.191270666666667,-79.06,-80.51
1730017583778724963,1730017583778533697,12,-2.58,-0.87,1.97,6.160001666666666,-78.98,-80.94
1730017583879408877,1730017583879061222,12,-2.58,-0.87,1.97,6.128732666666667,-79.44,-80.94
1730017583978875993,1730017583978615283,12,-2.58,-0.87,1.97,6.103717666666667,-80.04,-81.44
1730017584079287157,1730017584079109907,12,-2.58,-0.87,1.97,6.078702333333333,-78.99,-80.85
1730017584178775884,1730017584178539276,12,-2.58,-0.87,1.97,6.066194666666667,-79.21,-80.71
1730017584576369101,1730017584576053142,12,-2.58,-0.87,1.97,6.228794000000001,-79.09,-80.44
1730017584676641107,1730017584676119327,12,-2.58,-0.87,1.97,6.291332,-79.63,-80.75
1730017584776400603,1730017584776069164,12,-2.58,-0.87,1.97,6.3413623333333335,-78.88,-80.51
1730017584876700852,1730017584876117467,12,-2.58,-0.87,1.97,6.397646666666667,-79.08,-80.96
1730017584979190181,1730017584978875398,12,-2.58,-0.87,1.97,6.435169666666667,-78.8,-80.39
1730017585079045077,1730017585078908205,12,-2.58,-0.87,1.97,6.503961666666666,-79.2,-80.76
1730017585178081691,1730017585177867889,12,-2.58,-0.87,1.97,6.579007333333333,-79.44,-80.62
1730017585278149493,1730017585277953624,12,-2.58,-0.87,1.97,6.647799333333334,-80.01,-80.83
1730017585378048769,1730017585377808809,12,-2.58,-0.87,1.97,6.716591333333334,-79.2,-80.81
1730017585477683553,1730017585477363824,12,-2.58,-0.87,1.97,6.772875666666667,-79.25,-80.41
1730017585578760166,1730017585578319311,12,-2.58,-0.87,1.97,6.847921333333333,-79.42,-81.07
1730017585676493914,1730017585676096439,12,-2.58,-0.87,1.97,6.904205666666667,-79.46,-80.78
1730017585776444274,1730017585776076078,12,-2.58,-0.87,1.97,6.972997333333333,-79.14,-81.1
1730017585876507244,1730017585876075744,12,-2.58,-0.87,1.97,7.023027666666667,-79.05,-80.66
1730017585978273900,1730017585976053476,12,-2.58,-0.87,1.97,7.098072999999999,-79.36,-80.91
1730017586076425320,1730017586076076507,12,-2.58,-0.87,1.97,7.179372666666666,-79.33,-81.21
1730017586176345548,1730017586176058053,12,-2.58,-0.87,1.97,7.279433666666667,-78.44,-81.02
1730017586278265312,1730017586278024196,12,-2.58,-0.87,1.97,7.366987333333333,-79.56,-81.3
1730017586377510747,1730017586377096652,12,-2.58,-0.87,1.97,7.4420329999999995,-79.16,-81.29
1730017586478169867,1730017586477927207,12,-2.58,-0.87,1.97,7.510825,-79.37,-80.6
1730017586577804062,1730017586577610492,12,-2.58,-0.87,1.97,7.5733630000000005,-79.29,-80.48
1730017586677876686,1730017586677597284,12,-2.58,-0.87,1.97,7.6546623333333335,-80.1,-80.9
1730017586777953857,1730017586777728796,12,-2.58,-0.87,1.97,7.729708,-79.62,-80.49
1730017586877691818,1730017586877482175,12,-2.58,-0.87,1.97,7.817261333333334,-79.73,-80.91
1730017586978021680,1730017586977756738,12,-2.58,-0.87,1.97,7.898561,-79.55,-81.96
1730017587078112356,1730017587077930688,12,-2.58,-0.87,1.97,7.992368,-79.15,-81.68
1730017587178362332,1730017587178193092,12,-2.58,-0.87,1.97,8.086175333333333,-78.71,-80.74
1730017587277966926,1730017587277719497,12,-2.58,-0.87,1.97,8.186236666666668,-81.56,-82.02
1730017587377205600,1730017587376960515,12,-2.58,-0.87,1.97,8.261282666666666,-79.41,-80.72
1730017587477855161,1730017587477595806,12,-2.58,-0.87,1.97,8.342582,-78.73,-80.66
1730017587578090735,1730017587577886581,12,-2.58,-0.87,1.97,8.40512,-78.76,-80.49
1730017587678020321,1730017587677722930,12,-2.58,-0.87,1.97,8.480165666666666,-78.95,-80.9
1730017587777777992,1730017587777563333,12,-2.58,-0.87,1.97,8.53645,-79.73,-81.21
1730017587878082784,1730017587877898216,12,-2.58,-0.87,1.97,8.605241666666666,-79.76,-81.32
1730017587978362930,1730017587978242874,12,-2.58,-0.87,1.97,8.692794999999998,-79.79,-82.87
1730017588077968826,1730017588077766895,12,-2.58,-0.87,1.97,8.792856,-79.64,-82.42
1730017588178377361,1730017588178002357,12,-2.58,-0.87,1.97,8.880409333333334,-80.45,-82.08
1730017588277816310,1730017588277571678,12,-2.58,-0.87,1.97,8.974216666666665,-78.49,-80.82
1730017588377786502,1730017588377539157,12,-2.58,-0.87,1.97,9.061770000000001,-78.87,-80.64
1730017588477870309,1730017588477664947,12,-2.58,-0.87,1.97,9.168085,-78.9,-80.66
1730017588577899057,1730017588577610492,12,-2.58,-0.87,1.97,9.249384333333333,-80.39,-81.28
1730017588677881380,1730017588677631378,12,-2.58,-0.87,1.97,9.32443,-79.61,-81.14
1730017588778201862,1730017588778095960,12,-2.58,-0.87,1.97,9.393221666666665,-79.36,-80.57
1730017588877836788,1730017588877588272,12,-2.58,-0.87,1.97,9.468267333333333,-79.47,-80.64
1730017588977596322,1730017588977521181,12,-2.58,-0.87,1.97,9.580836,-81.14,-83.17
1730017589077652506,1730017589077587604,12,-2.58,-0.87,1.97,9.674643333333334,-80.37,-83.85
1730017589178023972,1730017589177759885,12,-2.58,-0.87,1.97,9.780958333333333,-81.33,-84.61
1730017589278223996,1730017589277972459,12,-2.58,-0.87,1.97,9.856004,-79.26,-81.44
1730017589377235388,1730017589377123355,12,-2.58,-0.87,1.97,9.987333666666666,-79.59,-81.04
1730017589477163153,1730017589477015495,12,-2.58,-0.87,1.97,10.106155999999999,-79.62,-81.06
1730017589577479070,1730017589577012062,12,-2.58,-0.87,1.97,10.218724666666665,-79.25,-80.85
1730017589677483827,1730017589677243232,12,-2.58,-0.87,1.97,10.281263000000001,-79.24,-80.84
1730017589777436632,1730017589777048587,12,-2.58,-0.87,1.97,10.362562333333335,-79.69,-81.33
1730017589877791608,1730017589877558708,12,-2.58,-0.87,1.97,10.456369666666667,-79.14,-80.56
1730017590377964943,1730017590377895355,12,-2.58,-0.87,1.97,10.969181666666666,-85.24,-86.94
1730017590478094208,1730017590477767944,12,-2.58,-0.87,1.97,11.131780666666666,-83.28,-86.05
1730017590577380187,1730017590576937198,12,-2.58,-0.87,1.97,11.200572666666668,-84.87,-87.11
1730017590677446485,1730017590677173614,12,-2.58,-0.87,1.97,11.238095333333334,-84.73,-87.87
1730017590778589445,1730017590778340101,12,-2.58,-0.87,1.97,11.331902666666666,-84.55,-86.35
1730017590876402989,1730017590876102447,12,-2.58,-0.87,1.97,11.438217333333334,-83.95,-85.57
1730017590977087515,1730017590976848840,12,-2.58,-0.87,1.97,11.594562666666667,-82.16,-83.18
1730017591077591222,1730017591077263832,12,-2.58,-0.87,1.97,11.888491333333334,-83.09,-85.23
1730017591177644948,1730017591177340984,12,-2.58,-0.87,1.97,12.013567666666667,-82.17,-83.1
1730017591277625272,1730017591277175903,12,-2.58,-0.87,1.97,12.126136,-80.35,-80.84
1730017591377613661,1730017591377400875,12,-2.58,-0.87,1.97,12.188674333333333,-80.41,-81.09
1730017591477257831,1730017591477116107,12,-2.58,-0.87,1.97,12.26372,-80.54,-80.87
1730017591576298989,1730017591576071262,12,-2.58,-0.87,1.97,12.351273333333333,-81.45,-81.78
1730017591676249655,1730017591676059961,12,-2.58,-0.87,1.97,12.470095666666666,-82.65,-84.41
1730017591778830615,1730017591778738021,12,-2.58,-0.87,1.97,12.607679333333332,-83.13,-83.83
1730017591879530612,1730017591879392862,12,-2.58,-0.87,1.97,12.732755666666668,-84.69,-86.79
1730017591976324861,1730017591976052045,12,-2.58,-0.87,1.97,12.820309,-85.85,-89.7
1730017592076571118,1730017592076079845,12,-2.58,-0.87,1.97,12.864086,-87.2,-91.49
1730017592178293936,1730017592178029775,12,-2.58,-0.87,1.97,12.914116333333332,-87.09,-90.98
1730017592278375914,1730017592278108358,12,-2.58,-0.87,1.97,12.995416,-87.53,-92.85
1730017592378017228,1730017592377801656,12,-2.58,-0.87,1.97,13.101730333333334,-86.85,-89.82
1730017592478591704,1730017592478385686,12,-2.58,-0.87,1.97,13.220553,-86.6,-87.63
1730017592578773911,1730017592578538179,12,-2.58,-0.87,1.97,13.364390333333333,-85.15,-86.9
1730017592679278779,1730017592679034709,12,-2.58,-0.87,1.97,13.501974333333331,-84.11,-85.81
1730017592779264051,1730017592779083251,12,-2.58,-0.87,1.97,13.645811666666667,-83.75,-85.65
1730017592878819498,1730017592878613471,12,-2.58,-0.87,1.97,13.783395666666665,-83.96,-85.39
1730017592978643482,1730017592978417158,12,-2.58,-0.87,1.97,13.914725666666667,-83.72,-84.12
1730017593078530014,1730017593078374385,12,-2.58,-0.87,1.97,14.027294333333332,-84.11,-84.09
1730017593178583607,1730017593178331613,12,-2.58,-0.87,1.97,14.114847666666668,-84.28,-84.32
1730017593278662492,1730017593278407335,12,-2.58,-0.87,1.97,14.214908666666666,-84.47,-84.58
1730017593378475121,1730017593378293037,12,-2.58,-0.87,1.97,14.327477333333334,-84.68,-85.69
1730017593478913418,1730017593478723287,12,-2.58,-0.87,1.97,14.446299666666667,-90.82,-90.57
1730017593578863825,1730017593578613996,12,-2.58,-0.87,1.97,14.558868000000002,-84.02,-86.19
1730017593678974387,1730017593678794384,12,-2.58,-0.87,1.97,14.652675,-84.08,-85.38
1730017593778544864,1730017593778349399,12,-2.58,-0.87,1.97,14.746482333333333,-85.5,-87.36
1730017593878453822,1730017593878289937,12,-2.58,-0.87,1.97,14.865304666666667,-84.87,-86.97
1730017593978537199,1730017593978307247,12,-2.58,-0.87,1.97,14.965366000000001,-88.09,-89.49
1730017594078736936,1730017594078496694,12,-2.58,-0.87,1.97,15.065427,-88.18,-90.49
1730017594178791632,1730017594178507804,12,-2.58,-0.87,1.97,15.140472666666668,-89.73,-92.15
1730017594279761069,1730017594279514789,12,-2.58,-0.87,1.97,15.240533333333333,-85.03,-88.35
1730017594378915359,1730017594378654479,12,-2.58,-0.87,1.97,15.321832666666667,-89.66,-96.97
1730017594478671697,1730017594478482246,12,-2.58,-0.87,1.97,15.415640000000002,-85.09,-91.76
1730017594578466003,1730017594578244209,12,-2.58,-0.87,1.97,15.465670333333334,-85.68,-95.71
1730017594678746751,1730017594678496599,12,-2.58,-0.87,1.97,15.521954666666666,-87.78,-91.29
1730017594778398784,1730017594778183460,12,-2.58,-0.87,1.97,15.559477666666666,-86.55,-89.61
1730017594878581591,1730017594878448724,12,-2.58,-0.87,1.97,15.609508333333332,-82.89,-86.33
1730017594978604907,1730017594978398323,12,-2.58,-0.87,1.97,15.653284999999999,-83.04,-86.62
1730017595079082552,1730017595078819990,12,-2.58,-0.87,1.97,15.684554,-82.13,-86.69
1730017595178751491,1730017595178452014,12,-2.58,-0.87,1.97,15.722076666666666,-84.08,-85.42
1730017595278478977,1730017595278243780,12,-2.58,-0.87,1.97,15.740838333333334,-81.88,-85.73
1730017595378326824,1730017595378124952,12,-2.58,-0.87,1.97,15.778360999999999,-83.03,-84.55
1730017595576373416,1730017595576056718,12,-2.58,-0.87,1.97,15.797122666666667,-82.8,-86.54
1730017595676349248,1730017595676055669,12,-2.58,-0.87,1.97,15.809629999999999,-83.19,-86.02
1730017595776378185,1730017595776066780,12,-2.58,-0.87,1.97,15.797122333333334,-82.19,-82.62
1730017595876485922,1730017595876079320,12,-2.58,-0.87,1.97,15.797122333333334,-83.49,-83.3
1730017595977649930,1730017595977147817,12,-2.58,-0.87,1.97,15.797122333333334,-80.71,-82.17
1730017596077327158,1730017596077075004,12,-2.58,-0.87,1.97,15.784614666666668,-81.59,-81.97
1730017596178440624,1730017596178226709,12,-2.58,-0.87,1.97,15.759599666666666,-80.19,-81.3
1730017596278383227,1730017596278223276,12,-2.58,-0.87,1.97,15.740838333333334,-80.8,-82.33
1730017596378434375,1730017596378218650,12,-2.58,-0.87,1.97,15.728330999999999,-80.42,-82.06
1730017596478488762,1730017596478318452,12,-2.58,-0.87,1.97,15.709569333333334,-81.48,-82.26
1730017596578404014,1730017596578246116,12,-2.58,-0.87,1.97,15.690807666666666,-80.15,-81.26
1730017596678232767,1730017596678025245,12,-2.58,-0.87,1.97,15.6783,-81.47,-82.32
1730017596778049757,1730017596777845621,12,-2.58,-0.87,1.97,15.672046,-80.69,-81.82
1730017596878068800,1730017596877997875,12,-2.58,-0.87,1.97,15.665792333333334,-81.89,-83.31
1730017596977308615,1730017596976988077,12,-2.58,-0.87,1.97,15.628269666666668,-82.39,-82.83
1730017597077473706,1730017597076994657,12,-2.58,-0.87,1.97,15.597001,-83.19,-85.94
1730017597177150217,1730017597176860809,12,-2.58,-0.87,1.97,15.559478,-83.81,-85.4
1730017597277095390,1730017597276869773,12,-2.58,-0.87,1.97,15.540716333333334,-84.0,-86.22
1730017597377190220,1730017597376879215,12,-2.58,-0.87,1.97,15.509447,-84.41,-87.26
1730017597476559437,1730017597476070642,12,-2.58,-0.87,1.97,15.471924333333334,-83.92,-85.74
1730017597576391204,1730017597576056480,12,-2.58,-0.87,1.97,15.415640000000002,-83.02,-84.56
1730017597676557704,1730017597676129102,12,-2.58,-0.87,1.97,15.359356,-84.58,-87.16
