%time,field.stamp,field.id,field.x,field.y,field.z,field.distanceFromTag,field.rssi,field.rssi_fp
1730017526476509255,1730017526476064920,5,-2.58,0.87,1.97,5.734743000000001,-79.12,-80.7
1730017526576510459,1730017526576101064,5,-2.58,0.87,1.97,5.734743000000001,-79.54,-80.94
1730017526676586083,1730017526676108121,5,-2.58,0.87,1.97,5.734743000000001,-78.81,-80.6
1730017526776650870,1730017526776085615,5,-2.58,0.87,1.97,5.734743000000001,-79.29,-80.83
1730017526879211909,1730017526878981590,5,-2.58,0.87,1.97,5.747250666666667,-79.51,-80.61
1730017526979955468,1730017526979601144,5,-2.58,0.87,1.97,5.753504666666667,-79.61,-80.86
1730017527079746565,1730017527079497814,5,-2.58,0.87,1.97,5.753504666666667,-79.16,-80.92
1730017527179035461,1730017527178822755,5,-2.58,0.87,1.97,5.747250666666666,-78.66,-80.72
1730017527279046505,1730017527278895616,5,-2.58,0.87,1.97,5.759758333333333,-79.78,-81.03
1730017527379616811,1730017527379422903,5,-2.58,0.87,1.97,5.759758333333333,-79.21,-81.16
1730017527481384148,1730017527480907678,5,-2.58,0.87,1.97,5.759758333333333,-79.07,-80.53
1730017527580306469,1730017527580085992,5,-2.58,0.87,1.97,5.740996666666667,-79.47,-80.87
1730017527678884430,1730017527678727149,5,-2.58,0.87,1.97,5.747250333333334,-78.98,-80.79
1730017527779119639,1730017527778920173,5,-2.58,0.87,1.97,5.728489,-79.56,-81.04
1730017527879180074,1730017527878974437,5,-2.58,0.87,1.97,5.728489,-79.12,-80.85
1730017527979680710,1730017527979466199,5,-2.58,0.87,1.97,5.7159813333333345,-79.37,-81.02
1730017528080024246,1730017528079792499,5,-2.58,0.87,1.97,5.722235,-78.8,-80.66
1730017528179319135,1730017528178973197,5,-2.58,0.87,1.97,5.7347426666666665,-79.3,-80.98
1730017528278504213,1730017528278301954,5,-2.58,0.87,1.97,5.740996666666667,-78.86,-80.53
1730017528378429631,1730017528378128528,5,-2.58,0.87,1.97,5.740996666666667,-79.24,-81.1
1730017528478614009,1730017528478379487,5,-2.58,0.87,1.97,5.753504333333335,-79.03,-80.88
1730017528578590418,1730017528578410148,5,-2.58,0.87,1.97,5.753504333333333,-79.23,-80.48
1730017528678474032,1730017528678314208,5,-2.58,0.87,1.97,5.759758333333333,-79.81,-80.95
1730017528778665749,1730017528778360605,5,-2.58,0.87,1.97,5.753504666666667,-79.08,-80.88
1730017528878788898,1730017528878528356,5,-2.58,0.87,1.97,5.747250666666667,-79.27,-80.8
1730017528979165563,1730017528978772878,5,-2.58,0.87,1.97,5.766012000000001,-78.84,-80.74
1730017529078101549,1730017529077448129,5,-2.58,0.87,1.97,5.753504333333333,-79.59,-80.8
1730017529178775987,1730017529178604602,5,-2.58,0.87,1.97,5.759758333333333,-79.06,-80.65
1730017529278091560,1730017529277556180,5,-2.58,0.87,1.97,5.734743000000001,-78.87,-80.59
1730017529378792222,1730017529378651142,5,-2.58,0.87,1.97,5.728489000000001,-79.45,-80.91
1730017529478600953,1730017529478396892,5,-2.58,0.87,1.97,5.747250333333334,-79.19,-80.89
1730017529579264530,1730017529579082012,5,-2.58,0.87,1.97,5.759758000000001,-78.69,-80.78
1730017530277818519,1730017530277164459,5,-2.58,0.87,1.97,5.753504333333333,-78.75,-81.11
1730017530376541664,1730017530376121997,5,-2.58,0.87,1.97,5.778519666666667,-78.88,-80.56
1730017530478724355,1730017530478507757,5,-2.58,0.87,1.97,5.759758333333333,-79.13,-80.42
1730017530578644233,1730017530578481674,5,-2.58,0.87,1.97,5.722235333333334,-79.35,-81.11
1730017530679698816,1730017530679309129,5,-2.58,0.87,1.97,5.734743000000001,-78.78,-80.71
1730017530776375129,1730017530776077747,5,-2.58,0.87,1.97,5.740997,-78.6,-81.11
1730017530877748790,1730017530877421855,5,-2.58,0.87,1.97,5.753504666666667,-78.94,-80.75
1730017530977739962,1730017530977355957,5,-2.58,0.87,1.97,5.759758333333333,-78.56,-80.68
1730017531077576814,1730017531077316522,5,-2.58,0.87,1.97,5.766012,-78.72,-80.67
1730017531177585358,1730017531177354812,5,-2.58,0.87,1.97,5.747250333333334,-79.51,-80.62
1730017531278977276,1730017531278805732,5,-2.58,0.87,1.97,5.7347426666666665,-79.36,-81.22
1730017531378561514,1730017531378413915,5,-2.58,0.87,1.97,5.722235,-79.14,-80.57
1730017531478371088,1730017531478156328,5,-2.58,0.87,1.97,5.728489000000001,-79.15,-80.83
1730017531577525047,1730017531577290058,5,-2.58,0.87,1.97,5.722235333333334,-79.0,-80.59
1730017531676478035,1730017531676088333,5,-2.58,0.87,1.97,5.734742999999999,-79.53,-80.91
1730017531776598658,1730017531776122093,5,-2.58,0.87,1.97,5.747250666666666,-79.32,-80.8
1730017531876243488,1730017531876056671,5,-2.58,0.87,1.97,5.747250666666666,-79.15,-80.4
1730017531976474723,1730017531976078271,5,-2.58,0.87,1.97,5.734743000000001,-79.12,-80.66
1730017532076506596,1730017532076092243,5,-2.58,0.87,1.97,5.722235333333334,-78.94,-80.72
1730017532176492763,1730017532176092624,5,-2.58,0.87,1.97,5.728489000000001,-79.17,-80.94
1730017532276543256,1730017532276162624,5,-2.58,0.87,1.97,5.734743000000001,-78.8,-80.53
1730017532376374070,1730017532376045227,5,-2.58,0.87,1.97,5.734743000000001,-78.65,-80.51
1730017532476491613,1730017532476074934,5,-2.58,0.87,1.97,5.740997,-79.11,-80.83
1730017532576519560,1730017532576089620,5,-2.58,0.87,1.97,5.740997,-79.98,-80.96
1730017532677401688,1730017532677220106,5,-2.58,0.87,1.97,5.740997,-79.17,-80.92
1730017532777608211,1730017532777405977,5,-2.58,0.87,1.97,5.747250666666666,-78.58,-81.0
1730017532877706452,1730017532877445220,5,-2.58,0.87,1.97,5.747250666666666,-79.92,-81.23
1730017532977479225,1730017532977274656,5,-2.58,0.87,1.97,5.753504333333333,-79.21,-80.88
1730017533077577511,1730017533077279090,5,-2.58,0.87,1.97,5.753504333333333,-79.13,-80.86
1730017533177941350,1730017533177502155,5,-2.58,0.87,1.97,5.753504333333333,-79.5,-81.09
1730017533277712100,1730017533277615547,5,-2.58,0.87,1.97,5.759758333333333,-79.3,-80.87
1730017533377381278,1730017533377188205,5,-2.58,0.87,1.97,5.759758333333333,-79.16,-80.96
1730017533477560143,1730017533477325677,5,-2.58,0.87,1.97,5.759758333333333,-79.22,-80.66
1730017533577613810,1730017533577396392,5,-2.58,0.87,1.97,5.753504333333333,-79.89,-81.08
1730017533677586533,1730017533677356719,5,-2.58,0.87,1.97,5.759758333333333,-79.05,-80.62
1730017533777919796,1730017533777576208,5,-2.58,0.87,1.97,5.778519666666667,-79.4,-81.1
1730017533877587529,1730017533877284049,5,-2.58,0.87,1.97,5.759758333333333,-79.27,-80.68
1730017533977555001,1730017533977378606,5,-2.58,0.87,1.97,5.753504333333333,-78.58,-80.5
1730017534077733499,1730017534077343702,5,-2.58,0.87,1.97,5.728489,-79.34,-80.76
1730017534177573710,1730017534177475929,5,-2.58,0.87,1.97,5.747250333333334,-79.02,-80.91
1730017534277445877,1730017534277268648,5,-2.58,0.87,1.97,5.728489,-79.25,-80.52
1730017534377725053,1730017534377508640,5,-2.58,0.87,1.97,5.740996666666667,-79.31,-81.21
1730017534477622691,1730017534477336406,5,-2.58,0.87,1.97,5.753504333333333,-79.41,-81.74
1730017534577556370,1730017534577273130,5,-2.58,0.87,1.97,5.766012,-79.38,-80.69
1730017534677933650,1730017534677577257,5,-2.58,0.87,1.97,5.772265999999999,-79.1,-80.93
1730017534777506279,1730017534777325630,5,-2.58,0.87,1.97,5.791027333333333,-78.74,-80.91
1730017534877505696,1730017534877215862,5,-2.58,0.87,1.97,5.82855,-78.82,-80.64
1730017534978310283,1730017534978073596,5,-2.58,0.87,1.97,5.853565,-78.83,-80.67
1730017535076551439,1730017535076142311,5,-2.58,0.87,1.97,5.853565,-79.77,-81.09
1730017535176744899,1730017535176098585,5,-2.58,0.87,1.97,5.853565,-79.41,-81.21
1730017535277712249,1730017535277429819,5,-2.58,0.87,1.97,5.866072666666667,-79.26,-80.75
1730017535777912093,1730017535777569532,5,-2.58,0.87,1.97,5.984895333333333,-78.75,-80.51
1730017535876721989,1730017535876103639,5,-2.58,0.87,1.97,6.034925666666666,-79.29,-80.7
1730017535979480878,1730017535979293346,5,-2.58,0.87,1.97,6.0974639999999996,-79.2,-80.84
1730017536076536173,1730017536076081991,5,-2.58,0.87,1.97,6.1287329999999995,-78.64,-80.64
1730017536176617140,1730017536176090478,5,-2.58,0.87,1.97,6.134987,-79.33,-80.88
1730017536277692196,1730017536277488708,5,-2.58,0.87,1.97,6.128733,-79.41,-80.64
1730017536377993139,1730017536377655506,5,-2.58,0.87,1.97,6.1600019999999995,-79.44,-80.82
1730017536477860555,1730017536477680206,5,-2.58,0.87,1.97,6.210032333333333,-79.04,-80.48
1730017536577925719,1730017536577621698,5,-2.58,0.87,1.97,6.278824333333334,-79.31,-80.88
1730017536680461776,1730017536677763223,5,-2.58,0.87,1.97,6.3726313333333335,-82.25,-83.53
1730017536778299220,1730017536777991771,5,-2.58,0.87,1.97,6.4164080000000006,-89.01,-94.7
1730017536877780055,1730017536877454042,5,-2.58,0.87,1.97,6.560245666666667,-83.4,-85.29
1730017536978087326,1730017536977422237,5,-2.58,0.87,1.97,6.572753333333332,-86.74,-95.34
1730017537077620055,1730017537077411413,5,-2.58,0.87,1.97,6.622784,-83.0,-86.92
1730017537177549414,1730017537177290678,5,-2.58,0.87,1.97,6.566499666666666,-81.31,-81.64
1730017537277684921,1730017537277368545,5,-2.58,0.87,1.97,6.616530333333333,-80.45,-80.76
1730017537377647191,1730017537377359151,5,-2.58,0.87,1.97,6.635291666666667,-82.82,-82.81
1730017537477806019,1730017537477582454,5,-2.58,0.87,1.97,6.641545333333333,-79.6,-80.94
1730017537577542331,1730017537577266693,5,-2.58,0.87,1.97,6.641545333333333,-78.67,-80.42
1730017537677805736,1730017537677626371,5,-2.58,0.87,1.97,6.679068333333333,-78.81,-81.21
1730017537777769970,1730017537777534484,5,-2.58,0.87,1.97,6.7353526666666665,-78.64,-80.48
1730017537877584545,1730017537877272129,5,-2.58,0.87,1.97,6.791636999999999,-78.91,-80.66
1730017537977424808,1730017537977325677,5,-2.58,0.87,1.97,6.8291596666666665,-79.03,-80.79
1730017538077640017,1730017538077185630,5,-2.58,0.87,1.97,6.910459,-79.1,-80.56
1730017538379163019,1730017538378973245,5,-2.58,0.87,1.97,7.01052,-79.39,-80.56
1730017538478967874,1730017538478841543,5,-2.58,0.87,1.97,7.1043270000000005,-79.08,-80.71
1730017538579157570,1730017538578969717,5,-2.58,0.87,1.97,7.210641666666667,-78.99,-81.09
1730017538679739360,1730017538679360866,5,-2.58,0.87,1.97,7.254418333333334,-79.05,-80.62
1730017538779578144,1730017538779356956,5,-2.58,0.87,1.97,7.310703,-78.53,-80.93
1730017538879722729,1730017538879378080,5,-2.58,0.87,1.97,7.354479666666667,-79.15,-80.7
1730017538978327581,1730017538978178024,5,-2.58,0.87,1.97,7.4420329999999995,-79.45,-80.91
1730017539078163757,1730017539077968358,5,-2.58,0.87,1.97,7.523332333333333,-79.73,-80.97
1730017539178205657,1730017539178008079,5,-2.58,0.87,1.97,7.6108856666666655,-79.57,-80.78
1730017539278566582,1730017539278484821,5,-2.58,0.87,1.97,7.704692666666666,-79.86,-80.71
1730017539378277721,1730017539378043651,5,-2.58,0.87,1.97,7.798499666666667,-79.18,-80.8
1730017539478471887,1730017539478199720,5,-2.58,0.87,1.97,7.886053,-79.79,-81.23
1730017539578338273,1730017539578104496,5,-2.58,0.87,1.97,7.942337333333334,-79.34,-80.78
1730017539678216241,1730017539678039550,5,-2.58,0.87,1.97,8.004876000000001,-79.33,-80.79
1730017539778478609,1730017539778140306,5,-2.58,0.87,1.97,8.073668,-79.07,-80.92
1730017539878566421,1730017539878352880,5,-2.58,0.87,1.97,8.148714,-79.99,-81.51
1730017539978295655,1730017539978038787,5,-2.58,0.87,1.97,8.248774666666666,-78.69,-80.77
1730017540078969482,1730017540078705072,5,-2.58,0.87,1.97,8.330074333333334,-79.1,-81.64
1730017540179020007,1730017540178771495,5,-2.58,0.87,1.97,8.417627666666666,-79.89,-82.67
1730017540277907456,1730017540277523756,5,-2.58,0.87,1.97,8.486419666666668,-79.15,-82.99
1730017540377745620,1730017540377421855,5,-2.58,0.87,1.97,8.592734333333333,-79.41,-80.99
1730017540477706086,1730017540477334260,5,-2.58,0.87,1.97,8.692795,-83.05,-83.56
1730017540577981248,1730017540577383756,5,-2.58,0.87,1.97,8.780348333333334,-79.23,-80.75
1730017540676477866,1730017540676129341,5,-2.58,0.87,1.97,8.861648,-79.58,-80.7
1730017540778487304,1730017540778349399,5,-2.58,0.87,1.97,8.930439999999999,-79.35,-80.49
1730017540876510174,1730017540876057386,5,-2.58,0.87,1.97,9.011739666666665,-79.2,-80.63
1730017540976354912,1730017540976055860,5,-2.58,0.87,1.97,9.074277666666667,-79.09,-80.48
1730017541076434569,1730017541076105356,5,-2.58,0.87,1.97,9.174338666666666,-80.15,-82.05
1730017541176794618,1730017541176105499,5,-2.58,0.87,1.97,9.261892000000001,-78.99,-80.93
1730017541276254763,1730017541276059865,5,-2.58,0.87,1.97,9.368206666666667,-78.97,-81.3
1730017541376517001,1730017541376077651,5,-2.58,0.87,1.97,9.443252333333332,-80.28,-83.16
1730017541479322133,1730017541478977203,5,-2.58,0.87,1.97,9.524551666666666,-79.42,-82.51
1730017541578375425,1730017541578153610,5,-2.58,0.87,1.97,9.599597666666666,-79.65,-80.9
1730017541677560254,1730017541677306890,5,-2.58,0.87,1.97,9.718420333333334,-83.51,-85.69
1730017541778155359,1730017541777466058,5,-2.58,0.87,1.97,9.818481,-79.23,-81.05
1730017541877836284,1730017541877503156,5,-2.58,0.87,1.97,9.906034333333332,-79.17,-80.85
1730017541977960371,1730017541977543592,5,-2.58,0.87,1.97,9.968572,-79.48,-80.9
1730017542077622643,1730017542077310800,5,-2.58,0.87,1.97,10.031110333333334,-78.85,-80.54
1730017542177461692,1730017542177221775,5,-2.58,0.87,1.97,10.212471,-78.86,-80.56
1730017542277764320,1730017542277541637,5,-2.58,0.87,1.97,10.343801,-79.1,-80.68
1730017542377644627,1730017542377307176,5,-2.58,0.87,1.97,10.443861666666667,-79.21,-80.55
1730017542477784194,1730017542477532148,5,-2.58,0.87,1.97,10.543922666666667,-79.41,-81.07
1730017542577937645,1730017542577471733,5,-2.58,0.87,1.97,10.631476000000001,-79.36,-80.73
1730017542678529676,1730017542678168535,5,-2.58,0.87,1.97,10.737790666666667,-79.34,-81.22
1730017542778952711,1730017542778849124,5,-2.58,0.87,1.97,10.806582333333333,-79.19,-81.13
1730017542878631402,1730017542878334522,5,-2.58,0.87,1.97,10.900389333333335,-80.4,-82.07
1730017542978753417,1730017542978604555,5,-2.58,0.87,1.97,10.975435333333332,-79.92,-81.32
1730017543078635190,1730017543078387737,5,-2.58,0.87,1.97,11.081750333333332,-79.87,-81.27
1730017543178360775,1730017543178221464,5,-2.58,0.87,1.97,11.175557666666668,-79.79,-82.16
1730017543277522428,1730017543277267932,5,-2.58,0.87,1.97,11.275618333333334,-80.42,-81.16
1730017543377721151,1730017543377427816,5,-2.58,0.87,1.97,11.363171666666666,-79.42,-80.87
1730017543877886734,1730017543877522230,5,-2.58,0.87,1.97,11.813445999999999,-80.25,-80.69
1730017543978768933,1730017543978551149,5,-2.58,0.87,1.97,11.963537666666667,-79.54,-80.61
1730017544078280062,1730017544078151941,5,-2.58,0.87,1.97,12.088614,-79.56,-80.51
1730017544177760906,1730017544177509307,5,-2.58,0.87,1.97,12.188674999999998,-80.73,-81.29
1730017544277602483,1730017544277197360,5,-2.58,0.87,1.97,12.282482000000002,-79.38,-80.88
1730017544378904459,1730017544378698348,5,-2.58,0.87,1.97,12.376288666666667,-79.48,-80.72
1730017544479205007,1730017544479057550,5,-2.58,0.87,1.97,12.457588000000001,-79.81,-80.76
1730017544609595705,1730017544609347343,5,-2.58,0.87,1.97,12.570156666666668,-80.34,-81.11
1730017544679137902,1730017544679059982,5,-2.58,0.87,1.97,12.676471666666666,-79.82,-81.73
1730017544779392381,1730017544779108762,5,-2.58,0.87,1.97,12.789040333333332,-80.08,-81.49
1730017544879066087,1730017544878995895,5,-2.58,0.87,1.97,12.876593666666666,-79.8,-80.9
1730017544979472170,1730017544979199171,5,-2.58,0.87,1.97,12.982908333333334,-80.75,-80.92
1730017545079765733,1730017545079425334,5,-2.58,0.87,1.97,13.082969,-80.94,-81.29
1730017545178793849,1730017545178706884,5,-2.58,0.87,1.97,13.151760666666666,-80.63,-81.29
1730017545279018314,1730017545278840303,5,-2.58,0.87,1.97,13.245568,-80.42,-82.36
1730017545379206064,1730017545379117012,5,-2.58,0.87,1.97,13.345629333333333,-80.05,-81.07
1730017545479525242,1730017545479319810,5,-2.58,0.87,1.97,13.483213333333333,-80.02,-81.15
1730017545579006324,1730017545578882217,5,-2.58,0.87,1.97,13.583274000000001,-80.12,-81.27
1730017545679142801,1730017545679004192,5,-2.58,0.87,1.97,13.702096333333335,-79.97,-80.77
1730017545779135412,1730017545778844118,5,-2.58,0.87,1.97,13.820918666666666,-80.4,-81.02
1730017545878942665,1730017545878800392,5,-2.58,0.87,1.97,13.945995000000002,-79.92,-81.42
1730017545979219572,1730017545979049921,5,-2.58,0.87,1.97,14.052309666666668,-79.8,-81.03
1730017546078988415,1730017546078703880,5,-2.58,0.87,1.97,14.152370666666668,-79.91,-80.74
1730017546176533879,1730017546176083803,5,-2.58,0.87,1.97,14.233670333333334,-80.3,-81.04
1730017546276847971,1730017546276262283,5,-2.58,0.87,1.97,14.327477333333334,-80.11,-80.82
1730017546376433757,1730017546376062154,5,-2.58,0.87,1.97,14.427538,-80.08,-80.86
1730017546478851888,1730017546478589296,5,-2.58,0.87,1.97,14.533852666666666,-80.27,-81.15
1730017546578647718,1730017546578433990,5,-2.58,0.87,1.97,14.64642133333333,-80.08,-80.46
1730017546679219090,1730017546678903341,5,-2.58,0.87,1.97,14.765244000000001,-80.53,-80.95
1730017546778852179,1730017546778634071,5,-2.58,0.87,1.97,14.884066333333331,-80.46,-80.91
1730017546878152058,1730017546877897977,5,-2.58,0.87,1.97,14.990381,-80.58,-80.92
1730017546978293734,1730017546977949142,5,-2.58,0.87,1.97,15.090441999999998,-81.54,-83.86
1730017547078467350,1730017547078206062,5,-2.58,0.87,1.97,15.184249,-80.79,-81.38
1730017547178386102,1730017547178252696,5,-2.58,0.87,1.97,15.290563666666666,-81.96,-83.97
1730017547277260245,1730017547277139902,5,-2.58,0.87,1.97,15.384370666666667,-82.04,-84.24
1730017547378289992,1730017547378010511,5,-2.58,0.87,1.97,15.496939333333332,-82.19,-83.78
1730017547478454125,1730017547478215456,5,-2.58,0.87,1.97,15.584492666666668,-82.82,-82.99
1730017547578272401,1730017547577970266,5,-2.58,0.87,1.97,15.690807333333334,-85.53,-86.22
1730017547678081221,1730017547677792310,5,-2.58,0.87,1.97,15.784614666666664,-82.6,-83.22
1730017547777538829,1730017547777252674,5,-2.58,0.87,1.97,15.897183333333333,-84.81,-86.62
1730017547877960318,1730017547877367973,5,-2.58,0.87,1.97,16.003497666666664,-82.05,-83.06
1730017547978259806,1730017547977958679,5,-2.58,0.87,1.97,16.128573333333332,-86.28,-87.84
1730017548076542376,1730017548076079368,5,-2.58,0.87,1.97,16.234887666666665,-81.26,-81.74
1730017548178380296,1730017548178194999,5,-2.58,0.87,1.97,16.353710666666668,-85.96,-87.64
1730017548277584168,1730017548277309656,5,-2.58,0.87,1.97,16.447517666666666,-81.07,-82.59
1730017548378754100,1730017548378451347,5,-2.58,0.87,1.97,16.553832666666665,-80.79,-81.1
1730017548478648163,1730017548478445529,5,-2.58,0.87,1.97,16.641385666666665,-80.54,-81.03
1730017548579178033,1730017548579073429,5,-2.58,0.87,1.97,16.753954333333333,-81.52,-81.26
1730017548678512548,1730017548678420782,5,-2.58,0.87,1.97,16.866522666666665,-80.43,-81.54
1730017548778351557,1730017548778228521,5,-2.58,0.87,1.97,16.972837666666663,-80.41,-81.1
1730017548876514213,1730017548876067161,5,-2.58,0.87,1.97,17.085406333333335,-83.98,-84.33
1730017549076444061,1730017549076055049,5,-2.58,0.87,1.97,17.241751666666666,-80.03,-80.78
1730017549176364207,1730017549176023483,5,-2.58,0.87,1.97,17.410603999999996,-80.52,-82.23
1730017549276479628,1730017549276056766,5,-2.58,0.87,1.97,17.56694933333333,-81.18,-81.08
1730017549376546176,1730017549376028060,5,-2.58,0.87,1.97,17.673264333333332,-80.52,-80.88
1730017549476694830,1730017549476055383,5,-2.58,0.87,1.97,17.77957933333333,-80.81,-81.11
1730017549576359909,1730017549576061964,5,-2.58,0.87,1.97,17.87964,-80.79,-80.93
1730017549678237529,1730017549678041696,5,-2.58,0.87,1.97,17.985954333333336,-80.61,-81.06
1730017549778284149,1730017549778074741,5,-2.58,0.87,1.97,18.092269333333334,-80.29,-81.2
1730017549878187288,1730017549877992153,5,-2.58,0.87,1.97,18.198584333333333,-80.91,-82.71
1730017549978244323,1730017549977978229,5,-2.58,0.87,1.97,18.317407,-80.9,-81.16
1730017550078426967,1730017550078150749,5,-2.58,0.87,1.97,18.423721333333333,-81.18,-81.19
1730017550178322569,1730017550178056240,5,-2.58,0.87,1.97,18.54254333333333,-81.47,-82.93
1730017550279054000,1730017550278104543,5,-2.58,0.87,1.97,18.655112,-82.22,-82.28
1730017550378255581,1730017550378077030,5,-2.58,0.87,1.97,18.78018833333333,-81.72,-82.12
1730017550478091171,1730017550477967023,5,-2.58,0.87,1.97,18.880249666666668,-82.02,-82.09
1730017550578223586,1730017550577958345,5,-2.58,0.87,1.97,18.980310333333332,-82.0,-81.83
1730017550678276426,1730017550678036451,5,-2.58,0.87,1.97,19.06160966666667,-83.1,-83.85
1730017550778328574,1730017550778063297,5,-2.58,0.87,1.97,19.167924000000003,-82.67,-82.58
1730017550878086029,1730017550877874135,5,-2.58,0.87,1.97,19.267985,-82.81,-82.66
1730017550978259197,1730017550978005409,5,-2.58,0.87,1.97,19.399314999999998,-84.39,-84.27
1730017551078614179,1730017551078445672,5,-2.58,0.87,1.97,19.511883666666666,-86.29,-86.42
1730017551178311659,1730017551178074598,5,-2.58,0.87,1.97,19.618198666666668,-83.34,-84.99
1730017551278114242,1730017551277986288,5,-2.58,0.87,1.97,19.699498000000002,-84.22,-86.19
1730017551378394821,1730017551378127336,5,-2.58,0.87,1.97,19.787051666666667,-83.94,-85.79
1730017551478267566,1730017551478126287,5,-2.58,0.87,1.97,19.887112333333334,-83.92,-85.07
1730017551578193868,1730017551577980756,5,-2.58,0.87,1.97,20.012188666666663,-82.85,-83.83
1730017551678256648,1730017551678049564,5,-2.58,0.87,1.97,20.118503,-82.92,-84.78
1730017551778097010,1730017551777922391,5,-2.58,0.87,1.97,20.237325666666667,-82.77,-84.15
1730017552276378583,1730017552276075363,5,-2.58,0.87,1.97,20.762646,-81.46,-81.51
1730017552376503763,1730017552376057147,5,-2.58,0.87,1.97,20.90648333333333,-81.94,-81.9
1730017552476521856,1730017552476073741,5,-2.58,0.87,1.97,21.012798333333333,-81.12,-81.4
1730017552576382971,1730017552576068878,5,-2.58,0.87,1.97,21.119113333333335,-82.29,-83.68
1730017552676653977,1730017552676112174,5,-2.58,0.87,1.97,21.231682000000003,-80.63,-81.22
1730017552778892070,1730017552778731584,5,-2.58,0.87,1.97,21.344250666666667,-81.36,-83.17
1730017552878847138,1730017552878720998,5,-2.58,0.87,1.97,21.431803666666667,-80.32,-81.01
1730017552979156019,1730017552978891372,5,-2.58,0.87,1.97,21.506849000000003,-80.65,-81.27
1730017553079088610,1730017553078867673,5,-2.58,0.87,1.97,21.600656333333333,-80.31,-80.92
1730017553177429843,1730017553177167415,5,-2.58,0.87,1.97,21.700717666666662,-80.77,-82.61
1730017553277496093,1730017553277222871,5,-2.58,0.87,1.97,21.800779000000002,-80.35,-81.08
1730017553377539512,1730017553377253532,5,-2.58,0.87,1.97,21.91334733333333,-81.25,-81.16
1730017553477715169,1730017553477258443,5,-2.58,0.87,1.97,22.132230333333336,-80.62,-80.93
1730017553577410928,1730017553577194452,5,-2.58,0.87,1.97,22.238544666666666,-80.33,-81.13
1730017553677398918,1730017553677241086,5,-2.58,0.87,1.97,22.344859666666665,-80.28,-81.14
1730017553777561488,1730017553777208566,5,-2.58,0.87,1.97,22.457428000000004,-80.74,-80.91
1730017553876577179,1730017553876051664,5,-2.58,0.87,1.97,22.563743,-81.54,-81.37
1730017553976175859,1730017553976017951,5,-2.58,0.87,1.97,22.67631133333333,-80.75,-80.82
1730017554076473335,1730017554076062679,5,-2.58,0.87,1.97,22.770118666666665,-80.63,-80.98
1730017554177468504,1730017554177165985,5,-2.58,0.87,1.97,22.857672333333337,-81.28,-82.2
1730017554276519762,1730017554276100873,5,-2.58,0.87,1.97,22.963987333333336,-81.1,-81.09
1730017554378992048,1730017554378917694,5,-2.58,0.87,1.97,23.076556,-81.81,-81.81
1730017554478782887,1730017554478502511,5,-2.58,0.87,1.97,23.189124666666668,-81.82,-81.81
1730017554576471518,1730017554576071023,5,-2.58,0.87,1.97,23.276677666666668,-81.06,-81.41
1730017554677407501,1730017554677213668,5,-2.58,0.87,1.97,23.382992,-89.22,-89.32
1730017554777484328,1730017554777138710,5,-2.58,0.87,1.97,23.48930633333333,-81.8,-81.84
1730017554877364596,1730017554877124071,5,-2.58,0.87,1.97,23.601875000000003,-81.67,-81.65
1730017554977445624,1730017554977248668,5,-2.58,0.87,1.97,23.67066733333333,-81.08,-81.16
1730017555077973204,1730017555077669382,5,-2.58,0.87,1.97,23.733205333333334,-83.11,-84.14
1730017555177444419,1730017555177146196,5,-2.58,0.87,1.97,23.776982333333336,-82.12,-82.0
1730017555277560727,1730017555277333498,5,-2.58,0.87,1.97,23.827012666666665,-81.44,-81.3
1730017555378873613,1730017555378743410,5,-2.58,0.87,1.97,23.870789666666667,-82.49,-82.76
1730017555478846439,1730017555478635311,5,-2.58,0.87,1.97,23.88329733333333,-81.99,-81.73
1730017555578622911,1730017555578448534,5,-2.58,0.87,1.97,23.88329733333333,-81.18,-81.93
1730017555678774488,1730017555678592443,5,-2.58,0.87,1.97,23.88955066666667,-82.47,-82.12
1730017555778880518,1730017555778708457,5,-2.58,0.87,1.97,23.92081966666667,-86.99,-87.5
1730017555879652058,1730017555879391908,5,-2.58,0.87,1.97,23.958342333333334,-82.24,-82.11
1730017555978762133,1730017555978675127,5,-2.58,0.87,1.97,23.964596666666665,-81.57,-81.93
1730017556079017267,1730017556078858852,5,-2.58,0.87,1.97,23.995865666666663,-81.7,-81.35
1730017556179300546,1730017556179084777,5,-2.58,0.87,1.97,24.045896,-82.2,-81.98
1730017556279005261,1730017556278790712,5,-2.58,0.87,1.97,24.11468766666667,-81.88,-81.66
1730017556379179510,1730017556378935337,5,-2.58,0.87,1.97,24.164718000000004,-82.1,-82.75
1730017556479070851,1730017556478792905,5,-2.58,0.87,1.97,24.195987000000002,-81.91,-81.74
1730017556578686463,1730017556578579664,5,-2.58,0.87,1.97,24.24601733333333,-82.67,-82.36
1730017556679412939,1730017556679318189,5,-2.58,0.87,1.97,24.302301333333332,-82.57,-82.42
1730017556778812612,1730017556778591156,5,-2.58,0.87,1.97,24.377347333333333,-83.67,-83.39
1730017556879049770,1730017556878688335,5,-2.58,0.87,1.97,24.452393333333333,-82.51,-83.05
1730017556979095437,1730017556978841781,5,-2.58,0.87,1.97,24.508678,-82.98,-84.39
1730017557078700334,1730017557078513622,5,-2.58,0.87,1.97,24.57746966666667,-83.05,-84.23
1730017557479054216,1730017557478897094,5,-2.58,0.87,1.97,24.783844666666667,-83.3,-83.05
1730017557579002784,1730017557578699111,5,-2.58,0.87,1.97,24.80886,-82.65,-82.24
1730017557678833892,1730017557678733110,5,-2.58,0.87,1.97,24.833875000000003,-83.51,-84.29
1730017557778324304,1730017557778078317,5,-2.58,0.87,1.97,24.877652,-83.93,-83.52
1730017557878293096,1730017557878091096,5,-2.58,0.87,1.97,24.883905666666667,-83.64,-83.61
1730017557978326067,1730017557978064537,5,-2.58,0.87,1.97,24.883905666666667,-83.03,-82.67
1730017558078242754,1730017558078038692,5,-2.58,0.87,1.97,24.852636333333333,-83.95,-84.83
1730017558178376259,1730017558178229093,5,-2.58,0.87,1.97,24.846382666666667,-85.89,-87.46
1730017558278366726,1730017558278170108,5,-2.58,0.87,1.97,24.840129,-83.61,-85.11
1730017558378177980,1730017558377925634,5,-2.58,0.87,1.97,24.827621333333337,-85.02,-86.42
1730017558478220280,1730017558477956056,5,-2.58,0.87,1.97,24.815113666666665,-85.15,-87.32
1730017558578264887,1730017558577990770,5,-2.58,0.87,1.97,24.802606,-86.81,-86.29
1730017558678020228,1730017558677825689,5,-2.58,0.87,1.97,24.783844666666667,-84.19,-85.19
1730017558778109407,1730017558777875423,5,-2.58,0.87,1.97,24.790099,-85.15,-86.77
1730017558878022674,1730017558877845287,5,-2.58,0.87,1.97,24.777591333333334,-85.36,-85.87
1730017558977961587,1730017558977828025,5,-2.58,0.87,1.97,24.783845,-84.83,-85.89
1730017559078456567,1730017559078150749,5,-2.58,0.87,1.97,24.765083,-82.8,-82.53
1730017559178484215,1730017559178222417,5,-2.58,0.87,1.97,24.740067999999997,-81.91,-82.12
1730017559278445129,1730017559278259992,5,-2.58,0.87,1.97,24.721306666666667,-82.35,-82.43
1730017559378175863,1730017559377984523,5,-2.58,0.87,1.97,24.721306666666667,-83.58,-83.26
1730017559478347091,1730017559478075504,5,-2.58,0.87,1.97,24.727560333333333,-82.23,-82.06
1730017559577539327,1730017559577207803,5,-2.58,0.87,1.97,24.727560333333333,-82.47,-82.43
1730017559677422114,1730017559677188873,5,-2.58,0.87,1.97,24.683784,-81.91,-82.56
1730017559777355767,1730017559777128219,5,-2.58,0.87,1.97,24.66502266666667,-82.96,-83.23
1730017559877661465,1730017559877360820,5,-2.58,0.87,1.97,24.614992333333333,-83.22,-83.45
1730017559977444437,1730017559977191209,5,-2.58,0.87,1.97,24.583723333333335,-81.8,-81.94
1730017560076360361,1730017560076057910,5,-2.58,0.87,1.97,24.546200666666667,-82.74,-84.04
1730017560176421475,1730017560176061630,5,-2.58,0.87,1.97,24.514931333333333,-81.35,-81.93
1730017560277388261,1730017560277197837,5,-2.58,0.87,1.97,24.48366233333333,-81.84,-82.04
1730017560377382030,1730017560377100706,5,-2.58,0.87,1.97,24.452393333333333,-81.38,-81.8
1730017560476397160,1730017560476093769,5,-2.58,0.87,1.97,24.433632333333332,-84.66,-85.18
1730017560578128243,1730017560577935457,5,-2.58,0.87,1.97,24.396109,-81.58,-81.85
1730017560678976945,1730017560678390741,5,-2.58,0.87,1.97,24.352332,-81.98,-81.91
1730017560777652138,1730017560777206420,5,-2.58,0.87,1.97,24.289793666666668,-81.67,-81.62
1730017560876562516,1730017560876067876,5,-2.58,0.87,1.97,24.233509666666663,-82.13,-82.07
1730017560977431695,1730017560977109432,5,-2.58,0.87,1.97,24.158464,-81.22,-81.28
1730017561077675225,1730017561077262878,5,-2.58,0.87,1.97,24.114687333333336,-82.37,-81.86
1730017561177432132,1730017561177074432,5,-2.58,0.87,1.97,24.020879999999995,-81.4,-82.75
1730017561277296698,1730017561277186870,5,-2.58,0.87,1.97,23.97084933333333,-81.59,-81.45
1730017561377339392,1730017561377041339,5,-2.58,0.87,1.97,23.908310999999998,-81.91,-81.69
1730017561477846429,1730017561477601528,5,-2.58,0.87,1.97,23.845772999999998,-80.95,-81.67
1730017561577535800,1730017561577261924,5,-2.58,0.87,1.97,23.76447366666667,-82.15,-81.85
1730017561677658931,1730017561677415132,5,-2.58,0.87,1.97,23.689428333333336,-81.67,-83.09
1730017561777411255,1730017561777281999,5,-2.58,0.87,1.97,23.614383,-81.2,-81.34
1730017561877567927,1730017561877381801,5,-2.58,0.87,1.97,23.539337,-81.0,-80.92
1730017561977520014,1730017561977279901,5,-2.58,0.87,1.97,23.464291333333335,-80.7,-81.19
1730017562077461374,1730017562077298402,5,-2.58,0.87,1.97,23.420514666666666,-81.75,-83.38
1730017562177303396,1730017562177112579,5,-2.58,0.87,1.97,23.351722999999996,-81.45,-81.48
1730017562277803804,1730017562277541399,5,-2.58,0.87,1.97,23.32670733333333,-82.99,-84.75
1730017562377432213,1730017562377262592,5,-2.58,0.87,1.97,23.245407666666665,-81.97,-83.61
1730017562477428119,1730017562477161884,5,-2.58,0.87,1.97,23.176616,-80.75,-82.21
1730017562578190946,1730017562577142000,5,-2.58,0.87,1.97,23.070301666666666,-81.1,-80.97
1730017562707676058,1730017562707413196,5,-2.58,0.87,1.97,23.00151,-81.82,-81.91
1730017562777316784,1730017562777117490,5,-2.58,0.87,1.97,22.932718333333337,-81.76,-81.61
1730017562877381650,1730017562877139568,5,-2.58,0.87,1.97,22.851419000000003,-81.52,-82.0
1730017562976411628,1730017562976055145,5,-2.58,0.87,1.97,22.76386533333333,-81.99,-82.12
1730017563076694497,1730017563076070308,5,-2.58,0.87,1.97,7.460794333333335,-82.21,-82.53
1730017563176563849,1730017563176091909,5,-2.58,0.87,1.97,7.398256,-83.91,-83.84
1730017563377476216,1730017563377188920,5,-2.58,0.87,1.97,7.298195333333333,-81.38,-81.25
1730017563477490652,1730017563477215766,5,-2.58,0.87,1.97,22.444921000000004,-81.76,-81.64
1730017563577348639,1730017563577091217,5,-2.58,0.87,1.97,22.36362166666667,-85.32,-84.7
1730017563677568542,1730017563677223682,5,-2.58,0.87,1.97,22.31984466666667,-81.31,-81.42
1730017563776310396,1730017563776056766,5,-2.58,0.87,1.97,22.238545,-81.9,-83.66
1730017563876444362,1730017563876114845,5,-2.58,0.87,1.97,22.157245666666668,-81.76,-83.2
1730017563979000803,1730017563978784561,5,-2.58,0.87,1.97,22.06969266666667,-81.8,-81.66
1730017564079241724,1730017564079137563,5,-2.58,0.87,1.97,22.000900333333334,-81.6,-83.97
1730017564178600437,1730017564178468465,5,-2.58,0.87,1.97,21.9196,-82.62,-82.95
1730017564279098088,1730017564278969526,5,-2.58,0.87,1.97,21.863315666666665,-81.61,-81.82
1730017564379106061,1730017564378966331,5,-2.58,0.87,1.97,21.78201633333333,-81.61,-81.79
1730017564478848500,1730017564478705167,5,-2.58,0.87,1.97,21.706971,-82.09,-82.41
1730017564578710199,1730017564578524351,5,-2.58,0.87,1.97,21.625671333333333,-83.44,-83.46
1730017564679505058,1730017564679225444,5,-2.58,0.87,1.97,21.550626000000005,-82.24,-84.02
1730017564779061764,1730017564778889656,5,-2.58,0.87,1.97,21.48183366666667,-83.12,-84.8
1730017564977499816,1730017564977289915,5,-2.58,0.87,1.97,21.356757333333334,-83.06,-83.9
1730017565077575835,1730017565077300310,5,-2.58,0.87,1.97,21.237934666666664,-82.94,-83.87
1730017565177723006,1730017565177493095,5,-2.58,0.87,1.97,21.100351333333332,-83.79,-85.68
1730017565277652241,1730017565277194738,5,-2.58,0.87,1.97,21.012798333333333,-83.9,-84.71
1730017565377264472,1730017565377035379,5,-2.58,0.87,1.97,20.931499,-84.76,-85.84
1730017565477762213,1730017565477479457,5,-2.58,0.87,1.97,20.875214333333332,-84.6,-85.61
1730017565578731469,1730017565578480482,5,-2.58,0.87,1.97,20.800168333333332,-85.19,-86.49
1730017565679068736,1730017565678841114,5,-2.58,0.87,1.97,20.718868666666665,-84.67,-86.69
1730017565776330479,1730017565776073932,5,-2.58,0.87,1.97,20.631315666666666,-86.34,-87.35
1730017565877597043,1730017565877246141,5,-2.58,0.87,1.97,20.556269999999998,-85.28,-86.63
1730017566077910440,1730017566077716112,5,-2.58,0.87,1.97,20.437448,-85.05,-87.61
1730017566177962438,1730017566177759408,5,-2.58,0.87,1.97,20.312371666666667,-86.35,-91.22
1730017566278677798,1730017566278475284,5,-2.58,0.87,1.97,20.18729533333333,-85.69,-89.44
1730017566378568396,1730017566378293514,5,-2.58,0.87,1.97,20.099741666666663,-85.67,-89.06
1730017566478686096,1730017566478466272,5,-2.58,0.87,1.97,20.03095,-85.88,-87.86
1730017566578224135,1730017566577837705,5,-2.58,0.87,1.97,19.949650666666667,-84.93,-88.46
1730017566679178864,1730017566679022789,5,-2.58,0.87,1.97,19.899620333333335,-85.29,-86.47
1730017566778730629,1730017566778652667,5,-2.58,0.87,1.97,19.818320999999997,-84.26,-86.5
1730017566878861015,1730017566878546714,5,-2.58,0.87,1.97,19.762037000000003,-84.66,-85.63
1730017566978360282,1730017566978131055,5,-2.58,0.87,1.97,19.668229666666665,-86.07,-88.08
1730017567078729645,1730017567078573942,5,-2.58,0.87,1.97,19.593183666666665,-82.26,-84.25
1730017567178445476,1730017567178130388,5,-2.58,0.87,1.97,19.511884,-82.55,-83.22
1730017567278092108,1730017567277850389,5,-2.58,0.87,1.97,19.461853666666666,-82.64,-82.56
1730017567378450809,1730017567378199577,5,-2.58,0.87,1.97,19.386807666666666,-81.46,-82.09
1730017567478334974,1730017567478180170,5,-2.58,0.87,1.97,19.286747000000002,-81.07,-81.63
1730017567578282822,1730017567578071117,5,-2.58,0.87,1.97,19.19293966666667,-81.22,-81.33
1730017567678183720,1730017567677971363,5,-2.58,0.87,1.97,19.099132666666666,-80.83,-81.67
1730017567778006497,1730017567777812004,5,-2.58,0.87,1.97,19.030340333333335,-81.12,-82.88
1730017567878722456,1730017567878489494,5,-2.58,0.87,1.97,18.94278733333333,-81.04,-81.07
1730017567976412044,1730017567976077318,5,-2.58,0.87,1.97,18.87399566666667,-81.2,-81.15
1730017568077285408,1730017568076998710,5,-2.58,0.87,1.97,18.78644266666667,-80.75,-80.87
1730017568177472285,1730017568177159309,5,-2.58,0.87,1.97,18.692635666666664,-81.25,-81.71
1730017568277474976,1730017568277217626,5,-2.58,0.87,1.97,18.605082666666664,-81.02,-81.11
1730017568377193402,1730017568377068758,5,-2.58,0.87,1.97,18.523782999999998,-81.21,-81.24
1730017568476834078,1730017568476056575,5,-2.58,0.87,1.97,18.429975666666667,-81.24,-81.26
1730017568576515056,1730017568576086997,5,-2.58,0.87,1.97,18.336168333333333,-80.94,-82.16
1730017568676409296,1730017568676141500,5,-2.58,0.87,1.97,18.229853333333335,-81.15,-81.42
1730017568776457077,1730017568776057243,5,-2.58,0.87,1.97,18.161061666666665,-80.89,-80.99
1730017568877936332,1730017568877268075,5,-2.58,0.87,1.97,18.104777,-83.91,-83.69
1730017568977457432,1730017568977208852,5,-2.58,0.87,1.97,18.054746666666666,-80.5,-80.77
1730017569078419085,1730017569078022480,5,-2.58,0.87,1.97,17.973446999999997,-80.56,-81.26
1730017569178319268,1730017569178158521,5,-2.58,0.87,1.97,17.89214766666667,-80.84,-81.07
1730017569277563403,1730017569277081012,5,-2.58,0.87,1.97,17.804593999999998,-81.67,-81.85
1730017569377434411,1730017569376966476,5,-2.58,0.87,1.97,17.748309666666668,-81.38,-81.44
1730017569477592715,1730017569477350234,5,-2.58,0.87,1.97,17.673263666666667,-82.19,-83.23
1730017569577213599,1730017569577010393,5,-2.58,0.87,1.97,17.616979666666666,-81.65,-81.77
1730017569677149454,1730017569676965951,5,-2.58,0.87,1.97,17.548188,-81.21,-82.11
1730017569778461279,1730017569778215408,5,-2.58,0.87,1.97,17.48565066666667,-81.3,-81.45
1730017569877290475,1730017569877114295,5,-2.58,0.87,1.97,17.42311266666667,-82.18,-82.04
1730017569978695653,1730017569978531122,5,-2.58,0.87,1.97,17.354320333333334,-81.26,-81.58
1730017570076480128,1730017570076043605,5,-2.58,0.87,1.97,17.291782,-82.38,-84.52
1730017570276321060,1730017570276079893,5,-2.58,0.87,1.97,17.191721333333334,-81.13,-81.93
1730017570377170049,1730017570376918077,5,-2.58,0.87,1.97,17.091660333333333,-81.71,-82.2
1730017570477333890,1730017570477084875,5,-2.58,0.87,1.97,16.98534533333333,-82.79,-85.36
1730017570578589383,1730017570578404426,5,-2.58,0.87,1.97,16.916553,-87.52,-88.55
1730017570678428479,1730017570678194284,5,-2.58,0.87,1.97,16.866522666666665,-82.83,-83.69
1730017570778594811,1730017570778356075,5,-2.58,0.87,1.97,16.791477,-82.59,-84.94
1730017570877995214,1730017570877791404,5,-2.58,0.87,1.97,16.735193,-82.86,-85.46
1730017570978304035,1730017570978065967,5,-2.58,0.87,1.97,16.641385666666668,-83.53,-84.74
1730017571078315856,1730017571078053712,5,-2.58,0.87,1.97,16.572593666666666,-84.09,-84.49
1730017571178345575,1730017571177539110,5,-2.58,0.87,1.97,16.497547666666666,-84.63,-86.65
1730017571278028985,1730017571277755737,5,-2.58,0.87,1.97,16.447517333333334,-84.47,-87.53
1730017571377978745,1730017571377720117,5,-2.58,0.87,1.97,16.372471666666666,-84.64,-87.56
1730017571477832047,1730017571477715730,5,-2.58,0.87,1.97,16.29742566666667,-85.2,-86.83
1730017571578072211,1730017571577798604,5,-2.58,0.87,1.97,16.228634,-86.24,-90.08
1730017571678300162,1730017571678000211,5,-2.58,0.87,1.97,16.191111333333335,-85.39,-85.55
1730017571778106741,1730017571777946949,5,-2.58,0.87,1.97,16.134827666666666,-87.02,-91.57
1730017571878246763,1730017571878017187,5,-2.58,0.87,1.97,16.08479733333333,-84.74,-85.77
1730017571978729343,1730017571978535413,5,-2.58,0.87,1.97,16.034767,-84.42,-88.38
1730017572078450433,1730017572078305006,5,-2.58,0.87,1.97,15.984736666666668,-83.65,-84.04
1730017572178777672,1730017572178254365,5,-2.58,0.87,1.97,15.940960000000002,-86.45,-86.45
1730017572278416487,1730017572278092145,5,-2.58,0.87,1.97,15.897183333333333,-84.46,-86.05
1730017572378305113,1730017572378110408,5,-2.58,0.87,1.97,15.847152666666666,-84.2,-85.54
1730017572479512249,1730017572479352235,5,-2.58,0.87,1.97,15.790868666666666,-84.18,-84.72
1730017572578333377,1730017572578114032,5,-2.58,0.87,1.97,15.734584333333332,-83.19,-83.41
1730017572678955870,1730017572678779840,5,-2.58,0.87,1.97,15.697061666666665,-82.44,-83.23
1730017572778374646,1730017572778259277,5,-2.58,0.87,1.97,15.653284666666666,-82.53,-84.29
1730017572878724656,1730017572878107309,5,-2.58,0.87,1.97,15.603254333333334,-83.92,-84.45
1730017572978400407,1730017572978177309,5,-2.58,0.87,1.97,15.534462333333332,-83.36,-83.19
1730017573078514578,1730017573078280687,5,-2.58,0.87,1.97,15.478178,-82.58,-82.38
1730017573178305335,1730017573178125858,5,-2.58,0.87,1.97,15.409386,-82.13,-82.31
1730017573278613917,1730017573278349161,5,-2.58,0.87,1.97,15.359355666666668,-81.16,-81.7
1730017573378384072,1730017573378169536,5,-2.58,0.87,1.97,15.315579333333332,-82.43,-82.3
1730017573576280576,1730017573576066970,5,-2.58,0.87,1.97,15.259295,-81.05,-81.42
1730017573676302203,1730017573676075458,5,-2.58,0.87,1.97,15.196757,-80.82,-81.41
1730017573776346312,1730017573776070356,5,-2.58,0.87,1.97,15.127964999999998,-81.27,-81.35
1730017573876417649,1730017573876102209,5,-2.58,0.87,1.97,15.071680666666666,-80.93,-81.83
1730017573976658693,1730017573976071596,5,-2.58,0.87,1.97,15.015396333333333,-81.02,-81.46
1730017574076458570,1730017574076064586,5,-2.58,0.87,1.97,14.934096666666667,-81.06,-81.0
1730017574177136057,1730017574176854133,5,-2.58,0.87,1.97,14.865304666666667,-81.06,-81.04
1730017574277441611,1730017574277227878,5,-2.58,0.87,1.97,14.796512666666667,-80.73,-81.31
1730017574378236063,1730017574377989530,5,-2.58,0.87,1.97,14.740228333333334,-80.66,-80.93
1730017574477778717,1730017574477535009,5,-2.58,0.87,1.97,14.690198,-81.75,-81.38
1730017574577010078,1730017574576921701,5,-2.58,0.87,1.97,14.627659666666666,-80.93,-81.14
1730017574677281229,1730017574676965951,5,-2.58,0.87,1.97,14.546360333333334,-81.39,-82.37
1730017574777396449,1730017574777070283,5,-2.58,0.87,1.97,14.465061,-82.24,-81.96
1730017574877293778,1730017574877016544,5,-2.58,0.87,1.97,14.408776666666668,-82.34,-83.54
1730017574976395732,1730017574976060390,5,-2.58,0.87,1.97,14.346238666666666,-81.46,-81.97
1730017575076630734,1730017575076067924,5,-2.58,0.87,1.97,14.271193000000002,-81.8,-81.29
1730017575176483245,1730017575176109552,5,-2.58,0.87,1.97,14.171132333333333,-82.42,-82.46
1730017575276409671,1730017575276049137,5,-2.58,0.87,1.97,14.10234,-82.8,-83.89
1730017575376411271,1730017575376055717,5,-2.58,0.87,1.97,14.027293999999998,-83.06,-82.79
1730017575476273725,1730017575476096868,5,-2.58,0.87,1.97,13.964756,-82.71,-82.21
1730017575577130702,1730017575576927661,5,-2.58,0.87,1.97,13.877202666666667,-82.63,-82.3
1730017575677524713,1730017575677234411,5,-2.58,0.87,1.97,13.777142,-83.05,-84.31
1730017575777647753,1730017575777231693,5,-2.58,0.87,1.97,13.577020333333332,-83.45,-85.99
1730017575878123714,1730017575877824068,5,-2.58,0.87,1.97,13.489467,-83.99,-86.3
1730017575977322265,1730017575977052688,5,-2.58,0.87,1.97,13.358137,-87.31,-89.89
1730017576077255373,1730017576076991796,5,-2.58,0.87,1.97,13.251822333333331,-84.07,-88.41
1730017576176467833,1730017576176065206,5,-2.58,0.87,1.97,13.133000000000001,-83.93,-88.15
1730017576276453724,1730017576276073217,5,-2.58,0.87,1.97,13.051700666666667,-83.66,-87.76
1730017576376490849,1730017576376104354,5,-2.58,0.87,1.97,12.957893333333331,-82.71,-86.79
1730017576476345185,1730017576476045370,5,-2.58,0.87,1.97,12.876593666666666,-82.68,-85.29
1730017576576504163,1730017576576066017,5,-2.58,0.87,1.97,12.807801666666668,-82.96,-85.33
1730017576676719571,1730017576676063299,5,-2.58,0.87,1.97,12.751517333333332,-81.59,-84.34
1730017576776274382,1730017576776058912,5,-2.58,0.87,1.97,12.682725333333332,-81.69,-84.34
1730017576876155717,1730017576876057624,5,-2.58,0.87,1.97,12.601425666666666,-81.66,-81.93
1730017576976365644,1730017576976066350,5,-2.58,0.87,1.97,12.507618666666668,-81.79,-82.23
1730017577077284984,1730017577076867818,5,-2.58,0.87,1.97,12.420065333333332,-81.12,-81.4
1730017577177172229,1730017577176928281,5,-2.58,0.87,1.97,12.326258333333334,-81.73,-82.42
1730017577277253869,1730017577277015209,5,-2.58,0.87,1.97,12.238705000000001,-81.83,-83.16
1730017577377307186,1730017577377017498,5,-2.58,0.87,1.97,12.157405666666667,-83.06,-84.99
1730017577477535363,1730017577477258920,5,-2.58,0.87,1.97,12.069852333333335,-81.89,-82.43
1730017577577112181,1730017577576946258,5,-2.58,0.87,1.97,11.988552666666665,-81.08,-81.88
1730017577676434026,1730017577676053285,5,-2.58,0.87,1.97,11.888491666666667,-81.73,-82.4
1730017577776348546,1730017577776060581,5,-2.58,0.87,1.97,11.800938333333335,-83.22,-83.18
1730017577876360272,1730017577876065731,5,-2.58,0.87,1.97,11.713385,-81.73,-82.32
1730017577976354448,1730017577976045608,5,-2.58,0.87,1.97,11.625831333333332,-82.51,-83.32
1730017578076472812,1730017578076071977,5,-2.58,0.87,1.97,11.488247333333334,-91.42,-93.02
1730017578176281200,1730017578176064252,5,-2.58,0.87,1.97,11.350663666666668,-84.88,-87.08
1730017578276273590,1730017578276061296,5,-2.58,0.87,1.97,11.194318666666666,-84.26,-87.91
1730017578376443661,1730017578376090526,5,-2.58,0.87,1.97,11.088004,-83.95,-89.58
1730017578477911473,1730017578477658033,5,-2.58,0.87,1.97,10.975435666666664,-82.83,-88.96
1730017578576393319,1730017578576066970,5,-2.58,0.87,1.97,10.906643666666668,-83.83,-85.88
1730017578776391600,1730017578776065349,5,-2.58,0.87,1.97,10.787821333333333,-82.62,-83.55
1730017578877198011,1730017578876890659,5,-2.58,0.87,1.97,10.706521666666667,-82.94,-85.54
1730017578977112510,1730017578976945877,5,-2.58,0.87,1.97,10.606461,-83.14,-82.91
1730017579076396521,1730017579076068878,5,-2.58,0.87,1.97,10.531414999999999,-83.17,-83.29
1730017579177840176,1730017579177696943,5,-2.58,0.87,1.97,10.450115666666667,-82.42,-82.22
1730017579277231465,1730017579276912450,5,-2.58,0.87,1.97,10.375069666666667,-86.81,-87.12
1730017579378584578,1730017579378363847,5,-2.58,0.87,1.97,10.312532,-81.12,-81.21
1730017579577700979,1730017579577620506,5,-2.58,0.87,1.97,10.206217,-82.38,-82.34
1730017579776377865,1730017579776064157,5,-2.58,0.87,1.97,9.993587666666668,-83.61,-86.78
1730017579977830296,1730017579977644205,5,-2.58,0.87,1.97,9.712165999999998,-82.65,-91.66
1730017580377424596,1730017580376926422,5,-2.58,0.87,1.97,9.380714,-81.37,-82.28
1730017580477280643,1730017580476931571,5,-2.58,0.87,1.97,9.374460333333333,-81.36,-82.04
1730017580576289085,1730017580576076030,5,-2.58,0.87,1.97,9.299414666666665,-82.22,-83.44
1730017580677262839,1730017580677039384,5,-2.58,0.87,1.97,9.186846000000001,-82.78,-83.88
1730017580777196155,1730017580776895284,5,-2.58,0.87,1.97,9.111800333333333,-81.36,-82.03
1730017580877276536,1730017580877009391,5,-2.58,0.87,1.97,8.980470333333333,-82.47,-84.28
1730017580977266962,1730017580977013826,5,-2.58,0.87,1.97,8.967963,-85.94,-87.82
1730017581076542514,1730017581076082706,5,-2.58,0.87,1.97,8.780348666666667,-82.81,-88.51
1730017581176609230,1730017581176144361,5,-2.58,0.87,1.97,8.561465666666669,-81.33,-93.96
1730017581278326129,1730017581278177499,5,-2.58,0.87,1.97,8.255028666666666,-82.14,-93.3
1730017581377756157,1730017581377508401,5,-2.58,0.87,1.97,8.161221333333332,-81.64,-88.42
1730017581478575936,1730017581478338479,5,-2.58,0.87,1.97,8.179982666666668,-80.06,-82.31
1730017581578093871,1730017581577877998,5,-2.58,0.87,1.97,8.27379,-80.18,-81.77
1730017581678126520,1730017581677935123,5,-2.58,0.87,1.97,8.27379,-80.07,-82.88
1730017581777935849,1730017581777758359,5,-2.58,0.87,1.97,8.179982666666668,-79.63,-81.52
1730017581878140576,1730017581877916097,5,-2.58,0.87,1.97,8.029891,-80.5,-82.55
1730017581977871679,1730017581977615833,5,-2.58,0.87,1.97,7.904815,-81.02,-84.47
1730017582078094212,1730017582077916622,5,-2.58,0.87,1.97,7.773484666666666,-80.75,-85.06
1730017582177969420,1730017582177790164,5,-2.58,0.87,1.97,7.6546623333333335,-81.91,-86.47
1730017582278884764,1730017582278656244,5,-2.58,0.87,1.97,7.542093666666666,-81.08,-88.18
1730017582377950929,1730017582377762556,5,-2.58,0.87,1.97,7.479555666666667,-82.25,-86.16
1730017582478025322,1730017582477915763,5,-2.58,0.87,1.97,7.417017666666666,-80.58,-83.19
1730017582578156699,1730017582577736616,5,-2.58,0.87,1.97,7.373241,-81.03,-82.67
1730017582677975992,1730017582677658319,5,-2.58,0.87,1.97,7.298195333333333,-80.17,-80.86
1730017582778049299,1730017582777752637,5,-2.58,0.87,1.97,7.216896000000001,-81.25,-81.66
1730017582877877172,1730017582877664327,5,-2.58,0.87,1.97,7.110581333333333,-80.55,-82.37
1730017582977446373,1730017582977086305,5,-2.58,0.87,1.97,7.010520333333333,-79.88,-83.63
1730017583077706874,1730017583077294111,5,-2.58,0.87,1.97,6.8916976666666665,-80.36,-82.86
1730017583177653392,1730017583177410840,5,-2.58,0.87,1.97,6.797890333333334,-79.81,-82.12
1730017583277539112,1730017583277125358,5,-2.58,0.87,1.97,6.722844666666667,-79.58,-81.85
1730017583377150635,1730017583376777410,5,-2.58,0.87,1.97,6.647799,-79.75,-81.05
1730017583476523309,1730017583476065635,5,-2.58,0.87,1.97,6.560245666666667,-79.69,-81.66
1730017583576421024,1730017583576053857,5,-2.58,0.87,1.97,6.472692333333334,-79.4,-81.03
1730017583676646481,1730017583676044702,5,-2.58,0.87,1.97,6.403900333333333,-79.33,-80.65
1730017583776348150,1730017583776055335,5,-2.58,0.87,1.97,6.3413623333333335,-79.39,-81.44
1730017583876584989,1730017583876137971,5,-2.58,0.87,1.97,6.266316666666667,-79.17,-80.68
1730017583976713818,1730017583976145982,5,-2.58,0.87,1.97,6.191271,-79.26,-80.75
1730017584076611271,1730017584076065301,5,-2.58,0.87,1.97,6.116225333333333,-79.13,-80.58
1730017584176489982,1730017584176052331,5,-2.58,0.87,1.97,6.0661950000000004,-79.48,-80.76
1730017584276227263,1730017584276055097,5,-2.58,0.87,1.97,6.034926,-78.93,-80.52
1730017584376363614,1730017584376054048,5,-2.58,0.87,1.97,6.041179666666667,-78.84,-80.44
1730017584476590337,1730017584476133823,5,-2.58,0.87,1.97,6.041179666666667,-79.06,-80.75
1730017584577320643,1730017584576970100,5,-2.58,0.87,1.97,6.059940999999999,-79.29,-80.84
1730017584677513437,1730017584677309989,5,-2.58,0.87,1.97,6.084956333333333,-79.24,-80.7
1730017584777313109,1730017584777082204,5,-2.58,0.87,1.97,6.1287329999999995,-79.07,-80.83
1730017584877614356,1730017584877315759,5,-2.58,0.87,1.97,6.178763666666666,-78.59,-80.45
1730017584976605318,1730017584976191759,5,-2.58,0.87,1.97,6.216286333333334,-78.98,-81.01
1730017585076507327,1730017585076081991,5,-2.58,0.87,1.97,6.253809333333334,-79.34,-80.7
1730017585176523796,1730017585176067590,5,-2.58,0.87,1.97,6.316347333333333,-78.73,-80.84
1730017585276342921,1730017585276077747,5,-2.58,0.87,1.97,6.353870333333333,-79.54,-81.31
1730017585376620552,1730017585376065015,5,-2.58,0.87,1.97,6.403900666666666,-79.41,-81.13
1730017585877470252,1730017585877216577,5,-2.58,0.87,1.97,6.647799,-79.18,-80.63
1730017585977806010,1730017585977735519,5,-2.58,0.87,1.97,6.704083333333333,-79.75,-81.0
1730017586078106517,1730017586077887058,5,-2.58,0.87,1.97,6.74786,-79.7,-81.08
1730017586177436763,1730017586177279710,5,-2.58,0.87,1.97,6.797890666666667,-79.14,-80.88
1730017586276575925,1730017586276072502,5,-2.58,0.87,1.97,6.854175000000001,-79.05,-80.59
1730017586378166366,1730017586377910375,5,-2.58,0.87,1.97,6.935474666666667,-79.4,-81.07
1730017586478705903,1730017586478577136,5,-2.58,0.87,1.97,7.004266333333334,-79.16,-80.38
1730017586578489629,1730017586578248977,5,-2.58,0.87,1.97,7.079311999999999,-80.22,-80.96
1730017586678536351,1730017586678250551,5,-2.58,0.87,1.97,7.129342333333334,-79.69,-81.15
1730017586778528197,1730017586778381824,5,-2.58,0.87,1.97,7.204387999999999,-79.26,-80.71
1730017586878317540,1730017586878073453,5,-2.58,0.87,1.97,7.254418333333334,-79.32,-80.69
1730017586978590814,1730017586978451490,5,-2.58,0.87,1.97,7.316956666666666,-79.11,-80.85
1730017587078883471,1730017587078675031,5,-2.58,0.87,1.97,7.360733333333333,-78.99,-80.77
1730017587179027626,1730017587178809165,5,-2.58,0.87,1.97,7.423271333333333,-79.46,-81.08
1730017587278544215,1730017587278334140,5,-2.58,0.87,1.97,7.498317,-78.94,-80.92
1730017587377824973,1730017587377579450,5,-2.58,0.87,1.97,7.560854999999999,-80.08,-81.46
1730017587478579724,1730017587478419542,5,-2.58,0.87,1.97,7.629647000000001,-79.13,-80.87
1730017587578560278,1730017587578480482,5,-2.58,0.87,1.97,7.685931,-79.19,-80.87
1730017587678661186,1730017587678452253,5,-2.58,0.87,1.97,7.754723000000001,-79.5,-81.27
1730017587778389657,1730017587778195381,5,-2.58,0.87,1.97,7.829768666666666,-79.66,-81.47
1730017587879052907,1730017587878794431,5,-2.58,0.87,1.97,7.904814666666667,-78.92,-80.95
1730017587979367149,1730017587978896617,5,-2.58,0.87,1.97,7.973606666666666,-79.14,-81.14
1730017588078877991,1730017588078435420,5,-2.58,0.87,1.97,8.029891000000001,-79.26,-80.82
1730017588178988026,1730017588178812265,5,-2.58,0.87,1.97,8.098683,-80.6,-81.29
1730017588278368931,1730017588278158903,5,-2.58,0.87,1.97,8.179982666666668,-79.25,-80.77
1730017588378386984,1730017588378220319,5,-2.58,0.87,1.97,8.255028666666666,-79.57,-80.83
1730017588478427611,1730017588478215217,5,-2.58,0.87,1.97,8.336328,-78.95,-80.8
1730017588578488397,1730017588578300476,5,-2.58,0.87,1.97,8.411374,-79.25,-81.2
1730017588678498365,1730017588678276777,5,-2.58,0.87,1.97,8.492673666666667,-79.36,-80.63
1730017588779016371,1730017588778763771,5,-2.58,0.87,1.97,8.561465666666665,-79.2,-80.86
1730017588878343011,1730017588878150463,5,-2.58,0.87,1.97,8.649018666666665,-79.51,-81.9
1730017588978290453,1730017588978111505,5,-2.58,0.87,1.97,8.736572,-80.03,-81.43
1730017589078580682,1730017589078313112,5,-2.58,0.87,1.97,8.830379333333333,-79.18,-81.01
1730017589178659807,1730017589178380727,5,-2.58,0.87,1.97,8.905425000000001,-78.76,-80.61
1730017589278821043,1730017589278613567,5,-2.58,0.87,1.97,8.980470333333335,-79.38,-80.66
1730017589378110729,1730017589377839088,5,-2.58,0.87,1.97,9.080531,-80.18,-80.78
1730017589478068757,1730017589477910757,5,-2.58,0.87,1.97,9.149322666666666,-79.44,-80.49
1730017589578318954,1730017589578108310,5,-2.58,0.87,1.97,9.24313,-79.72,-80.56
1730017589678231797,1730017589677957534,5,-2.58,0.87,1.97,9.311922000000001,-79.68,-80.5
1730017589778083429,1730017589777884721,5,-2.58,0.87,1.97,9.418237,-79.9,-80.99
1730017589878294135,1730017589878115415,5,-2.58,0.87,1.97,9.493282666666667,-80.04,-81.05
1730017589977131132,1730017589976931095,5,-2.58,0.87,1.97,9.562074333333333,-79.98,-80.78
1730017590076352840,1730017590076058626,5,-2.58,0.87,1.97,9.668389,-91.89,-94.61
1730017590176285455,1730017590176069974,5,-2.58,0.87,1.97,9.787211333333333,-82.23,-85.9
1730017590276375300,1730017590276068925,5,-2.58,0.87,1.97,9.924795333333334,-82.21,-84.11
1730017590376684782,1730017590376065254,5,-2.58,0.87,1.97,10.024856666666667,-80.42,-81.83
1730017590478650673,1730017590478406667,5,-2.58,0.87,1.97,10.131171666666667,-80.62,-81.82
1730017590577888841,1730017590577780485,5,-2.58,0.87,1.97,10.249994333333332,-80.65,-81.82
1730017590678064800,1730017590677886247,5,-2.58,0.87,1.97,10.337547666666667,-80.14,-81.4
1730017590777993960,1730017590777734041,5,-2.58,0.87,1.97,10.418847,-79.99,-81.01
1730017591278185540,1730017591277961015,5,-2.58,0.87,1.97,10.881628333333332,-80.88,-82.56
1730017591378941165,1730017591378749370,5,-2.58,0.87,1.97,11.000450666666666,-81.79,-83.02
1730017591477967774,1730017591477739810,5,-2.58,0.87,1.97,11.075496666666666,-82.45,-85.84
1730017591578181647,1730017591577816724,5,-2.58,0.87,1.97,11.144288666666668,-83.65,-85.72
1730017591678579892,1730017591678360223,5,-2.58,0.87,1.97,11.219334333333334,-83.25,-85.66
1730017591776158594,1730017591776057004,5,-2.58,0.87,1.97,11.313141333333334,-82.87,-84.13
1730017591876625207,1730017591876099109,5,-2.58,0.87,1.97,11.488247999999999,-82.59,-82.97
1730017591977892180,1730017591977221727,5,-2.58,0.87,1.97,11.644593333333333,-82.95,-83.91
1730017592077424945,1730017592077158689,5,-2.58,0.87,1.97,11.819699666666667,-82.34,-83.7
1730017592176385069,1730017592176059246,5,-2.58,0.87,1.97,11.994805999999999,-82.07,-82.32
1730017592276549720,1730017592276068925,5,-2.58,0.87,1.97,12.057344333333333,-80.85,-81.17
1730017592376408555,1730017592376054525,5,-2.58,0.87,1.97,12.157405333333331,-80.63,-80.95
1730017592476380943,1730017592476076602,5,-2.58,0.87,1.97,12.238704999999998,-81.32,-81.57
1730017592576461922,1730017592576058149,5,-2.58,0.87,1.97,12.332512,-82.14,-82.11
1730017592677151487,1730017592676058292,5,-2.58,0.87,1.97,12.395050333333332,-80.21,-80.94
1730017592776359022,1730017592776104450,5,-2.58,0.87,1.97,12.488857333333334,-81.09,-81.11
1730017592876482890,1730017592876052618,5,-2.58,0.87,1.97,12.588918666666666,-87.41,-87.92
1730017592976415670,1730017592976075172,5,-2.58,0.87,1.97,12.707740666666666,-83.74,-86.31
1730017593076631770,1730017593076064109,5,-2.58,0.87,1.97,12.795293999999998,-83.36,-85.7
1730017593176357646,1730017593176057577,5,-2.58,0.87,1.97,12.870339333333334,-84.65,-85.03
1730017593276546286,1730017593276068925,5,-2.58,0.87,1.97,12.957892666666666,-85.37,-87.01
1730017593376374474,1730017593376060962,5,-2.58,0.87,1.97,13.051700000000002,-84.44,-85.93
1730017593476450550,1730017593476066112,5,-2.58,0.87,1.97,13.170522666666665,-83.67,-85.36
1730017593576367300,1730017593576085090,5,-2.58,0.87,1.97,13.308106666666665,-83.49,-85.92
1730017593676168467,1730017593676059484,5,-2.58,0.87,1.97,13.451944333333332,-82.33,-83.15
1730017593776159315,1730017593776055574,5,-2.58,0.87,1.97,13.595782,-81.44,-83.21
1730017593876387736,1730017593876080274,5,-2.58,0.87,1.97,13.69584266666667,-81.34,-81.95
1730017593976267386,1730017593976054430,5,-2.58,0.87,1.97,13.802157333333334,-80.58,-81.16
1730017594076311668,1730017594076048612,5,-2.58,0.87,1.97,13.889710666666668,-81.33,-82.51
1730017594176354603,1730017594176086425,5,-2.58,0.87,1.97,13.989772,-81.82,-82.42
1730017594276252212,1730017594276102304,5,-2.58,0.87,1.97,14.108594333333334,-82.75,-85.24
1730017594376406454,1730017594376096248,5,-2.58,0.87,1.97,14.214909,-82.89,-83.02
1730017594476455642,1730017594476105213,5,-2.58,0.87,1.97,14.314969666666668,-82.49,-82.58
1730017594576451727,1730017594576058626,5,-2.58,0.87,1.97,14.390015333333332,-81.78,-82.05
1730017594676418956,1730017594676060438,5,-2.58,0.87,1.97,14.446299333333334,-80.94,-81.83
1730017594776399988,1730017594776054382,5,-2.58,0.87,1.97,14.483822333333334,-80.12,-81.14
1730017594876254474,1730017594876054525,5,-2.58,0.87,1.97,14.508837333333334,-79.55,-80.72
1730017594976370501,1730017594976094007,5,-2.58,0.87,1.97,14.533852666666666,-80.15,-81.19
1730017595076201033,1730017595076076269,5,-2.58,0.87,1.97,14.565121666666665,-80.45,-81.01
1730017595176416052,1730017595176073551,5,-2.58,0.87,1.97,14.590137333333333,-80.41,-80.89
1730017595276317134,1730017595276061773,5,-2.58,0.87,1.97,14.602645,-80.48,-81.09
1730017595376399055,1730017595376075744,5,-2.58,0.87,1.97,14.596391333333335,-80.23,-81.08
1730017595476259003,1730017595475966930,5,-2.58,0.87,1.97,14.596391333333335,-80.4,-80.93
1730017595577090018,1730017595576875448,5,-2.58,0.87,1.97,14.602645333333333,-80.19,-80.96
1730017595677079444,1730017595676863908,5,-2.58,0.87,1.97,14.615153,-81.05,-81.24
1730017595777174680,1730017595776921033,5,-2.58,0.87,1.97,14.602645333333333,-80.46,-81.22
1730017595877463284,1730017595877159118,5,-2.58,0.87,1.97,14.577629666666667,-79.91,-80.52
1730017596078230173,1730017596078016281,5,-2.58,0.87,1.97,14.552614,-79.55,-81.24
1730017596177070515,1730017596176911354,5,-2.58,0.87,1.97,14.54636,-81.15,-81.48
1730017596277225071,1730017596276944875,5,-2.58,0.87,1.97,14.540106666666667,-79.95,-81.14
1730017596377186334,1730017596376916170,5,-2.58,0.87,1.97,14.533853333333333,-79.71,-80.65
1730017596477410407,1730017596476869583,5,-2.58,0.87,1.97,14.515092000000001,-79.98,-80.98
1730017596577129051,1730017596576965808,5,-2.58,0.87,1.97,14.490076666666667,-79.82,-80.64
1730017596678994654,1730017596678706645,5,-2.58,0.87,1.97,14.465061333333333,-80.31,-81.21
1730017596776381115,1730017596776075839,5,-2.58,0.87,1.97,14.440046,-80.21,-80.87
1730017596876730650,1730017596876152276,5,-2.58,0.87,1.97,14.421284333333332,-80.09,-81.06
1730017596978474652,1730017596978296518,5,-2.58,0.87,1.97,14.396268666666666,-80.95,-82.16
1730017597078783777,1730017597078546524,5,-2.58,0.87,1.97,14.377507,-81.13,-81.33
1730017597178407203,1730017597178116083,5,-2.58,0.87,1.97,14.358745666666666,-81.63,-81.64
1730017597278410755,1730017597278190135,5,-2.58,0.87,1.97,14.339984666666666,-81.82,-81.64
1730017597876457086,1730017597876057624,5,-2.58,0.87,1.97,14.10234,-82.68,-84.99
1730017598078465509,1730017598078139543,5,-2.58,0.87,1.97,13.989771333333332,-81.84,-82.73
1730017598477579194,1730017598477242946,5,-2.58,0.87,1.97,13.720857666666666,-82.21,-83.79
1730017598577392684,1730017598577184677,5,-2.58,0.87,1.97,13.658319666666666,-81.93,-83.66
1730017598676425052,1730017598676075220,5,-2.58,0.87,1.97,13.589527666666667,-82.26,-83.65
1730017598777941612,1730017598777523279,5,-2.58,0.87,1.97,13.520735666666667,-82.68,-84.4
1730017598876190011,1730017598876048326,5,-2.58,0.87,1.97,13.439436333333333,-82.54,-84.39
1730017598976491599,1730017598976061105,5,-2.58,0.87,1.97,13.370644666666665,-83.01,-82.67
1730017599076572219,1730017599076107025,5,-2.58,0.87,1.97,13.308106333333333,-83.23,-85.75
1730017599179075143,1730017599178923368,5,-2.58,0.87,1.97,13.239314666666665,-84.07,-86.17
1730017599278211146,1730017599278075933,5,-2.58,0.87,1.97,13.170522666666669,-81.69,-82.58
