%time,field.stamp,field.id,field.x,field.y,field.z,field.distanceFromTag,field.rssi,field.rssi_fp
1730020288378629735,1730020288378338098,9,-1.79,0.87,0.5,5.478337,-78.73,-81.01
1730020288477992290,1730020288477704763,9,-1.79,0.87,0.5,5.465829333333333,-78.58,-80.7
1730020288576449454,1730020288576096773,9,-1.79,0.87,0.5,5.453321666666667,-78.73,-80.56
1730020288678896021,1730020288678688049,9,-1.79,0.87,0.5,5.440814,-78.56,-80.52
1730020288776362329,1730020288776137590,9,-1.79,0.87,0.5,5.440814,-78.38,-80.7
1730020288876632646,1730020288876108169,9,-1.79,0.87,0.5,5.440814,-78.59,-80.49
1730020288976623446,1730020288976167201,9,-1.79,0.87,0.5,5.453321666666667,-78.84,-81.38
1730020289076645032,1730020289076084852,9,-1.79,0.87,0.5,5.465829333333333,-78.84,-80.48
1730020289176655099,1730020289176164627,9,-1.79,0.87,0.5,5.4720830000000005,-78.95,-80.99
1730020289276337068,1730020289276098251,9,-1.79,0.87,0.5,5.465829,-79.0,-81.17
1730020289376527893,1730020289376094102,9,-1.79,0.87,0.5,5.459575,-78.97,-80.74
1730020289476446375,1730020289476087570,9,-1.79,0.87,0.5,5.465828999999999,-78.87,-80.48
1730020289579924226,1730020289579697608,9,-1.79,0.87,0.5,5.4720830000000005,-79.18,-81.06
1730020289680085484,1730020289679894924,9,-1.79,0.87,0.5,5.484590666666667,-78.65,-81.13
1730020289780423824,1730020289780027389,9,-1.79,0.87,0.5,5.4720830000000005,-78.98,-80.49
1730020289879675402,1730020289879419326,9,-1.79,0.87,0.5,5.4595753333333334,-78.93,-80.6
1730020289978896275,1730020289978531837,9,-1.79,0.87,0.5,5.440814,-79.07,-80.64
1730020290079326008,1730020290079178571,9,-1.79,0.87,0.5,5.440814,-78.78,-80.89
1730020290178988628,1730020290178699731,9,-1.79,0.87,0.5,5.465829333333333,-79.33,-81.47
1730020290279340202,1730020290279150962,9,-1.79,0.87,0.5,5.4595753333333334,-78.81,-80.95
1730020290378901974,1730020290378649950,9,-1.79,0.87,0.5,5.453321333333334,-78.92,-80.54
1730020290478066448,1730020290477673530,9,-1.79,0.87,0.5,5.440813666666666,-78.7,-80.57
1730020290578284768,1730020290577900171,9,-1.79,0.87,0.5,5.465829,-78.67,-80.95
1730020290678366477,1730020290678246974,9,-1.79,0.87,0.5,5.478336666666667,-78.86,-80.47
1730020290778356793,1730020290777919054,9,-1.79,0.87,0.5,5.465828999999999,-78.74,-80.75
1730020290878201298,1730020290877808570,9,-1.79,0.87,0.5,5.465829,-78.92,-80.59
1730020290978295700,1730020290977946519,9,-1.79,0.87,0.5,5.4720830000000005,-78.81,-81.28
1730020291078258642,1730020291077386856,9,-1.79,0.87,0.5,5.478336666666667,-78.9,-80.97
1730020291177697409,1730020291177442550,9,-1.79,0.87,0.5,5.4408140000000005,-78.74,-80.67
1730020291279242243,1730020291278965711,9,-1.79,0.87,0.5,5.43456,-79.34,-80.66
1730020291378759307,1730020291378533363,9,-1.79,0.87,0.5,5.422052333333333,-78.85,-80.42
1730020291478157510,1730020291477583169,9,-1.79,0.87,0.5,5.440813666666666,-78.81,-80.48
1730020291576448502,1730020291576105833,9,-1.79,0.87,0.5,5.440813666666667,-78.8,-80.71
1730020291677732572,1730020291676089286,9,-1.79,0.87,0.5,5.4595753333333334,-79.19,-80.51
1730020291776740967,1730020291776088476,9,-1.79,0.87,0.5,5.4595753333333334,-79.3,-80.56
1730020291877207969,1730020291876168489,9,-1.79,0.87,0.5,5.465829333333333,-78.66,-80.49
1730020291979334357,1730020291979117393,9,-1.79,0.87,0.5,5.4595753333333334,-79.07,-80.86
1730020292178420434,1730020292177935838,9,-1.79,0.87,0.5,5.4720830000000005,-78.93,-81.19
1730020292278477558,1730020292277411699,9,-1.79,0.87,0.5,5.4595753333333334,-78.47,-80.56
1730020292376476971,1730020292376093626,9,-1.79,0.87,0.5,5.453321666666667,-79.09,-80.67
1730020292476476098,1730020292476087570,9,-1.79,0.87,0.5,5.4595753333333334,-78.8,-80.55
1730020292576328865,1730020292576131105,9,-1.79,0.87,0.5,5.4720830000000005,-79.28,-80.92
1730020292676537158,1730020292676142930,9,-1.79,0.87,0.5,5.484590666666667,-79.36,-81.03
1730020292779112673,1730020292778922319,9,-1.79,0.87,0.5,5.478337,-79.77,-80.74
1730020292878822965,1730020292878596782,9,-1.79,0.87,0.5,5.484590666666667,-79.0,-80.98
1730020292979197935,1730020292978840351,9,-1.79,0.87,0.5,5.503352,-78.79,-80.84
1730020293078828312,1730020293078459501,9,-1.79,0.87,0.5,5.528366999999999,-79.22,-81.47
1730020293178750372,1730020293178637027,9,-1.79,0.87,0.5,5.528367,-79.18,-80.35
1730020293278868665,1730020293278666496,9,-1.79,0.87,0.5,5.534620666666666,-79.46,-80.45
1730020293378743714,1730020293378431797,9,-1.79,0.87,0.5,5.553382333333334,-78.93,-80.72
1730020293479290338,1730020293479035854,9,-1.79,0.87,0.5,5.5783976666666675,-79.31,-80.96
1730020293578937177,1730020293578654527,9,-1.79,0.87,0.5,5.584651666666666,-79.44,-80.88
1730020293679105066,1730020293678910017,9,-1.79,0.87,0.5,5.597159333333333,-79.28,-80.76
1730020293779090535,1730020293778890132,9,-1.79,0.87,0.5,5.622174666666666,-79.52,-80.74
1730020293878799963,1730020293878520250,9,-1.79,0.87,0.5,5.659697333333334,-79.38,-81.14
1730020293978606337,1730020293978429555,9,-1.79,0.87,0.5,5.672204666666667,-79.76,-80.9
1730020294078929005,1730020294078577041,9,-1.79,0.87,0.5,5.7159813333333345,-79.05,-80.36
1730020294179342119,1730020294179045677,9,-1.79,0.87,0.5,5.759758000000001,-79.49,-80.47
1730020294279207170,1730020294278944730,9,-1.79,0.87,0.5,5.834803999999999,-79.2,-80.7
1730020294379319749,1730020294379097938,9,-1.79,0.87,0.5,5.916103333333333,-82.56,-82.65
1730020294479488007,1730020294479254484,9,-1.79,0.87,0.5,6.041179666666667,-85.08,-90.32
1730020294580231695,1730020294579932212,9,-1.79,0.87,0.5,6.185016999999999,-82.39,-83.96
1730020294679714874,1730020294679552316,9,-1.79,0.87,0.5,6.266316666666667,-83.42,-83.11
1730020294779459374,1730020294779264688,9,-1.79,0.87,0.5,6.247555333333334,-81.62,-85.85
1730020294879087370,1730020294878823518,9,-1.79,0.87,0.5,6.203778666666667,-79.91,-81.63
1730020294978496339,1730020294978282690,9,-1.79,0.87,0.5,6.197524666666666,-82.82,-86.42
1730020295078750931,1730020295078554868,9,-1.79,0.87,0.5,6.216286,-80.68,-81.02
1730020295178727217,1730020295178356647,9,-1.79,0.87,0.5,6.2225399999999995,-79.41,-80.58
1730020295279780093,1730020295278590679,9,-1.79,0.87,0.5,6.2350476666666665,-80.7,-81.65
1730020295379102368,1730020295378876686,9,-1.79,0.87,0.5,6.2975856666666665,-79.79,-80.87
1730020295480304727,1730020295480122566,9,-1.79,0.87,0.5,6.391392666666667,-86.43,-88.24
1730020295580458900,1730020295580096960,9,-1.79,0.87,0.5,6.4226616666666665,-79.64,-80.78
1730020295680086519,1730020295679909706,9,-1.79,0.87,0.5,6.453930666666667,-80.17,-81.16
1730020295876622118,1730020295876147747,9,-1.79,0.87,0.5,6.4977073333333335,-79.87,-80.77
1730020295976626569,1730020295976083993,9,-1.79,0.87,0.5,6.604022333333333,-80.35,-81.33
1730020296076607261,1730020296076117753,9,-1.79,0.87,0.5,6.691576,-81.29,-82.06
1730020296176414625,1730020296176110744,9,-1.79,0.87,0.5,6.710337666666667,-80.88,-81.18
1730020296276562808,1730020296276148319,9,-1.79,0.87,0.5,6.7353526666666665,-80.23,-80.97
1730020296376422673,1730020296376098632,9,-1.79,0.87,0.5,6.766621666666666,-80.62,-81.39
1730020296480199910,1730020296479896545,9,-1.79,0.87,0.5,6.816652,-79.18,-80.72
1730020296580527110,1730020296580172300,9,-1.79,0.87,0.5,6.879190333333334,-79.37,-80.52
1730020296778487117,1730020296777929067,9,-1.79,0.87,0.5,6.941728333333333,-78.99,-80.67
1730020296878043509,1730020296877760887,9,-1.79,0.87,0.5,7.029281666666667,-79.01,-80.53
1730020296976758994,1730020296976121664,9,-1.79,0.87,0.5,7.085566,-79.24,-80.44
1730020297078227106,1730020297077819108,9,-1.79,0.87,0.5,7.154357999999999,-79.5,-81.2
1730020297177945300,1730020297177633285,9,-1.79,0.87,0.5,7.216896000000001,-79.4,-80.64
1730020297277911317,1730020297277603149,9,-1.79,0.87,0.5,7.298195333333333,-79.02,-80.47
1730020297379477783,1730020297379282712,9,-1.79,0.87,0.5,7.354479666666666,-78.52,-80.58
1730020297477545379,1730020297477368593,9,-1.79,0.87,0.5,7.429525666666667,-79.38,-80.75
1730020297577831427,1730020297577583551,9,-1.79,0.87,0.5,7.523333,-79.35,-81.28
1730020297677813671,1730020297677512884,9,-1.79,0.87,0.5,7.623393666666668,-79.43,-80.91
1730020297777763519,1730020297777525424,9,-1.79,0.87,0.5,7.710947000000001,-79.07,-80.6
1730020297877971160,1730020297877483844,9,-1.79,0.87,0.5,7.767231,-79.19,-80.77
1730020297977797101,1730020297977423191,9,-1.79,0.87,0.5,7.848530666666668,-79.16,-81.14
1730020298078113438,1730020298077793121,9,-1.79,0.87,0.5,7.917322333333334,-78.86,-80.37
1730020298177762435,1730020298177347660,9,-1.79,0.87,0.5,7.9986223333333335,-78.72,-80.4
1730020298277816026,1730020298277471780,9,-1.79,0.87,0.5,8.073668,-79.45,-80.86
1730020298378382535,1730020298378111124,9,-1.79,0.87,0.5,8.14246,-79.14,-80.45
1730020298477971201,1730020298477761983,9,-1.79,0.87,0.5,8.223759333333334,-79.26,-80.63
1730020298577986582,1730020298577705383,9,-1.79,0.87,0.5,8.305059,-78.93,-80.56
1730020298677881931,1730020298677592992,9,-1.79,0.87,0.5,8.392612333333334,-79.16,-80.4
1730020298778170868,1730020298777800083,9,-1.79,0.87,0.5,8.480165666666666,-79.97,-81.01
1730020298877730899,1730020298877356290,9,-1.79,0.87,0.5,8.561465333333333,-79.83,-80.74
1730020298977968031,1730020298977566957,9,-1.79,0.87,0.5,8.661526333333333,-80.01,-80.75
1730020299077777191,1730020299077422618,9,-1.79,0.87,0.5,8.749079666666667,-79.63,-80.67
1730020299178590436,1730020299178215503,9,-1.79,0.87,0.5,8.936693666666669,-79.46,-80.85
1730020299277670364,1730020299277459144,9,-1.79,0.87,0.5,9.030500666666667,-79.7,-80.69
1730020299377761022,1730020299377539634,9,-1.79,0.87,0.5,9.111800333333333,-80.1,-80.79
1730020299477777533,1730020299477475404,9,-1.79,0.87,0.5,9.199353666666667,-80.08,-80.6
1730020299576599092,1730020299576071977,9,-1.79,0.87,0.5,9.286907,-80.78,-81.04
1730020299676590250,1730020299676093578,9,-1.79,0.87,0.5,9.393221666666667,-80.41,-81.52
1730020299776460922,1730020299776093482,9,-1.79,0.87,0.5,9.480775,-80.02,-80.66
1730020299876303261,1730020299876081228,9,-1.79,0.87,0.5,9.574582333333334,-80.91,-81.18
1730020299976540251,1730020299976099014,9,-1.79,0.87,0.5,9.655881666666666,-80.86,-80.87
1730020300076433375,1730020300076090574,9,-1.79,0.87,0.5,9.743435,-80.02,-80.54
1730020300176707952,1730020300176169157,9,-1.79,0.87,0.5,9.830988333333332,-79.94,-80.47
1730020300279136891,1730020300278811454,9,-1.79,0.87,0.5,9.937303,-79.53,-80.82
1730020300379167960,1730020300378901243,9,-1.79,0.87,0.5,10.037364333333334,-80.13,-80.98
1730020300479385468,1730020300479167461,9,-1.79,0.87,0.5,10.131171333333334,-79.88,-80.69
1730020300579066639,1730020300578832864,9,-1.79,0.87,0.5,10.212471333333333,-79.64,-80.83
1730020300677881983,1730020300677592515,9,-1.79,0.87,0.5,10.300024666666667,-79.74,-80.7
1730020300776513526,1730020300776120662,9,-1.79,0.87,0.5,10.400085666666667,-79.74,-80.86
1730020300876488431,1730020300876020908,9,-1.79,0.87,0.5,10.487639,-79.6,-80.86
1730020300976453444,1730020300976107358,9,-1.79,0.87,0.5,10.581445666666667,-79.56,-81.0
1730020301076367027,1730020301076076269,9,-1.79,0.87,0.5,10.662745000000001,-79.43,-80.77
1730020301176526118,1730020301176069736,9,-1.79,0.87,0.5,10.762805666666667,-79.46,-80.61
1730020301277353028,1730020301276236057,9,-1.79,0.87,0.5,10.862867000000001,-79.24,-80.41
1730020301379980218,1730020301379740715,9,-1.79,0.87,0.5,10.956674333333334,-79.07,-80.34
1730020301479798871,1730020301479629039,9,-1.79,0.87,0.5,11.037973666666668,-79.4,-80.48
1730020301580355839,1730020301580009698,9,-1.79,0.87,0.5,11.113019,-80.49,-80.99
1730020301680429911,1730020301680326223,9,-1.79,0.87,0.5,11.206826,-79.26,-80.77
1730020301780127111,1730020301779950141,9,-1.79,0.87,0.5,11.300633333333332,-79.92,-80.96
1730020301879505061,1730020301879247188,9,-1.79,0.87,0.5,11.388187,-79.02,-80.43
1730020301979504164,1730020301979280710,9,-1.79,0.87,0.5,11.475740333333334,-79.1,-80.54
1730020302079984040,1730020302079670190,9,-1.79,0.87,0.5,11.569547666666667,-79.32,-80.59
1730020302179910358,1730020302179571628,9,-1.79,0.87,0.5,11.675862333333333,-79.33,-80.66
1730020302279600824,1730020302279502153,9,-1.79,0.87,0.5,11.763415666666667,-79.75,-80.95
1730020302477979285,1730020302477555274,9,-1.79,0.87,0.5,11.900999333333333,-79.12,-80.98
1730020302578116109,1730020302577725648,9,-1.79,0.87,0.5,12.051090666666667,-79.85,-80.68
1730020302677973191,1730020302677577733,9,-1.79,0.87,0.5,12.207436,-79.19,-80.39
1730020302778167733,1730020302777779340,9,-1.79,0.87,0.5,12.326258333333334,-79.68,-80.42
1730020302878026008,1730020302877791404,9,-1.79,0.87,0.5,12.432573333333332,-79.52,-80.94
1730020302977676598,1730020302977560520,9,-1.79,0.87,0.5,12.545141666666666,-79.46,-80.81
1730020303079986915,1730020303079859256,9,-1.79,0.87,0.5,12.613933333333334,-79.76,-80.91
1730020303179916846,1730020303179668664,9,-1.79,0.87,0.5,12.701486333333333,-79.55,-80.49
1730020303280787582,1730020303280571937,9,-1.79,0.87,0.5,12.782786333333334,-79.27,-80.67
1730020303379657312,1730020303379409313,9,-1.79,0.87,0.5,12.901608666666666,-79.37,-80.8
1730020303480325467,1730020303480025768,9,-1.79,0.87,0.5,13.007923666666665,-78.86,-80.73
1730020303580331634,1730020303579937696,9,-1.79,0.87,0.5,13.120491999999999,-79.43,-80.71
1730020303680254597,1730020303679958105,9,-1.79,0.87,0.5,13.226807,-79.93,-81.01
1730020303780008055,1730020303779781579,9,-1.79,0.87,0.5,13.320614333333333,-79.88,-81.24
1730020303880479369,1730020303880108356,9,-1.79,0.87,0.5,13.414421333333335,-79.72,-80.7
1730020303980010066,1730020303979800224,9,-1.79,0.87,0.5,13.520736,-79.71,-80.46
1730020304080202833,1730020304079946279,9,-1.79,0.87,0.5,13.620796666666665,-80.15,-81.21
1730020304179770561,1730020304179482221,9,-1.79,0.87,0.5,13.733365333333333,-80.42,-81.12
1730020304279748252,1730020304279561758,9,-1.79,0.87,0.5,13.833426333333334,-79.73,-81.13
1730020304379640373,1730020304379122734,9,-1.79,0.87,0.5,13.952248666666668,-79.66,-80.69
1730020304479632753,1730020304479409933,9,-1.79,0.87,0.5,14.064817333333332,-79.48,-81.72
1730020304579743082,1730020304579615592,9,-1.79,0.87,0.5,14.177386,-80.27,-80.64
1730020305077925284,1730020305077573776,9,-1.79,0.87,0.5,14.590137,-80.19,-80.79
1730020305177877345,1730020305177606821,9,-1.79,0.87,0.5,14.733974666666667,-80.16,-80.75
1730020305277870274,1730020305277685165,9,-1.79,0.87,0.5,14.827782,-80.11,-81.27
1730020305378003911,1730020305377631425,9,-1.79,0.87,0.5,14.946604666666666,-80.51,-81.33
1730020305476469461,1730020305476113080,9,-1.79,0.87,0.5,15.040411999999998,-80.15,-81.66
1730020305579905487,1730020305579713821,9,-1.79,0.87,0.5,15.146726666666666,-80.09,-80.87
1730020305679090752,1730020305678773403,9,-1.79,0.87,0.5,15.246787333333332,-80.34,-81.33
1730020305779731764,1730020305779361963,9,-1.79,0.87,0.5,15.365609333333332,-80.72,-81.15
1730020305879506254,1730020305879224300,9,-1.79,0.87,0.5,8.867901333333334,-80.77,-99.01
1730020305980426766,1730020305980015754,9,-1.79,0.87,0.5,8.974216,-80.84,-81.31
1730020306080336292,1730020306079932928,9,-1.79,0.87,0.5,9.080531,-81.1,-81.28
1730020306179647425,1730020306179468870,9,-1.79,0.87,0.5,15.803376,-81.03,-83.04
1730020306280945056,1730020306280724525,9,-1.79,0.87,0.5,15.903437000000002,-80.99,-81.34
1730020306380504200,1730020306380197048,9,-1.79,0.87,0.5,15.997244,-81.43,-81.47
1730020306480368311,1730020306480130672,9,-1.79,0.87,0.5,16.09730433333333,-81.22,-81.71
1730020306578955814,1730020306578774213,9,-1.79,0.87,0.5,16.21612633333333,-80.92,-81.26
1730020306679119040,1730020306678794384,9,-1.79,0.87,0.5,16.328694666666667,-81.9,-81.89
1730020306779598701,1730020306779314994,9,-1.79,0.87,0.5,16.422502,-81.21,-81.9
1730020306879198348,1730020306878888607,9,-1.79,0.87,0.5,16.528817,-81.21,-81.29
1730020306979092626,1730020306978786706,9,-1.79,0.87,0.5,16.647639333333334,-82.49,-83.35
1730020307079480136,1730020307079128503,9,-1.79,0.87,0.5,16.766462,-81.82,-82.79
1730020307178729201,1730020307178494453,9,-1.79,0.87,0.5,16.879030333333333,-81.49,-81.98
1730020307278710089,1730020307278624773,9,-1.79,0.87,0.5,16.98534533333333,-81.71,-81.69
1730020307379184900,1730020307378892183,9,-1.79,0.87,0.5,17.104167666666665,-82.1,-83.71
1730020307479472381,1730020307479206323,9,-1.79,0.87,0.5,17.210482666666664,-81.94,-82.63
1730020307579216849,1730020307578937768,9,-1.79,0.87,0.5,17.32930466666667,-82.84,-83.89
1730020307679279711,1730020307678997516,9,-1.79,0.87,0.5,17.435619333333335,-81.73,-82.05
1730020307780011714,1730020307779498577,9,-1.79,0.87,0.5,17.54193366666667,-82.12,-83.16
1730020307878999404,1730020307878837347,9,-1.79,0.87,0.5,17.654502333333333,-82.86,-83.68
1730020307979340787,1730020307979052305,9,-1.79,0.87,0.5,17.760817333333335,-81.79,-82.88
1730020308080099667,1730020308079857826,9,-1.79,0.87,0.5,17.88589366666667,-82.02,-83.23
1730020308179146718,1730020308178897619,9,-1.79,0.87,0.5,17.985955,-83.09,-86.92
1730020308278724520,1730020308278475284,9,-1.79,0.87,0.5,18.079761666666666,-83.75,-86.18
1730020308379646511,1730020308379452705,9,-1.79,0.87,0.5,18.173569,-83.44,-87.0
1730020308479521576,1730020308479372501,9,-1.79,0.87,0.5,18.254868333333334,-84.1,-86.23
1730020308579300214,1730020308579064607,9,-1.79,0.87,0.5,18.354929666666667,-83.65,-85.49
1730020308679472117,1730020308679016590,9,-1.79,0.87,0.5,18.442483333333332,-83.7,-88.14
1730020308778429143,1730020308778172731,9,-1.79,0.87,0.5,18.54879766666667,-83.63,-85.87
1730020308877633419,1730020308877364158,9,-1.79,0.87,0.5,18.66136633333333,-84.42,-87.39
1730020308976665583,1730020308976086616,9,-1.79,0.87,0.5,18.786441999999997,-84.76,-86.64
1730020309076803234,1730020309076066732,9,-1.79,0.87,0.5,18.899010666666666,-84.66,-87.26
1730020309179782622,1730020309179708957,9,-1.79,0.87,0.5,19.030340666666664,-85.98,-87.36
1730020309280502137,1730020309280281305,9,-1.79,0.87,0.5,19.136655666666666,-86.34,-87.65
1730020309379087204,1730020309378874301,9,-1.79,0.87,0.5,19.242970666666665,-86.93,-88.28
1730020309480112458,1730020309479826927,9,-1.79,0.87,0.5,19.343031333333332,-86.38,-87.4
1730020309580796130,1730020309580574035,9,-1.79,0.87,0.5,19.468107333333332,-86.76,-89.0
1730020309680212683,1730020309679986000,9,-1.79,0.87,0.5,19.599436999999998,-85.88,-88.9
1730020309780381904,1730020309780071020,9,-1.79,0.87,0.5,19.699497666666666,-87.83,-89.19
1730020309880804832,1730020309880496978,9,-1.79,0.87,0.5,19.812066333333334,-85.77,-89.65
1730020309979895698,1730020309979687929,9,-1.79,0.87,0.5,19.912128,-91.9,-92.72
1730020310081373792,1730020310081055641,9,-1.79,0.87,0.5,20.03720433333333,-86.35,-87.3
1730020310180980729,1730020310180698633,9,-1.79,0.87,0.5,20.131011666666666,-86.22,-88.19
1730020310281534369,1730020310281158447,9,-1.79,0.87,0.5,20.249833666666664,-86.14,-88.78
1730020310376541548,1730020310376120567,9,-1.79,0.87,0.5,20.33113333333333,-86.26,-88.97
1730020310477627729,1730020310477411270,9,-1.79,0.87,0.5,20.443701666666666,-87.08,-87.9
1730020311182371402,1730020311182095527,9,-1.79,0.87,0.5,21.26920433333333,-86.73,-86.43
1730020311278756565,1730020311278223037,9,-1.79,0.87,0.5,21.37551933333333,-86.66,-86.19
1730020311378418803,1730020311377987861,9,-1.79,0.87,0.5,21.46932666666667,-85.85,-87.57
1730020311478203787,1730020311477588415,9,-1.79,0.87,0.5,21.575641,-85.95,-87.62
1730020311576580407,1730020311576116085,9,-1.79,0.87,0.5,21.70071666666667,-84.2,-86.11
1730020311676472311,1730020311676124095,9,-1.79,0.87,0.5,21.81953866666667,-85.35,-85.17
1730020311776311903,1730020311776094436,9,-1.79,0.87,0.5,21.944615,-83.83,-86.04
1730020311876762146,1730020311876101493,9,-1.79,0.87,0.5,22.032168666666667,-84.52,-86.06
1730020311976420083,1730020311976083993,9,-1.79,0.87,0.5,22.125975999999998,-83.53,-85.07
1730020312076720689,1730020312076121807,9,-1.79,0.87,0.5,22.22603666666667,-83.53,-85.26
1730020312176435079,1730020312176068067,9,-1.79,0.87,0.5,22.332351666666668,-83.23,-83.39
1730020312276496314,1730020312276100158,9,-1.79,0.87,0.5,22.438666666666666,-82.58,-84.66
1730020312376556100,1730020312376085281,9,-1.79,0.87,0.5,22.54498166666667,-82.16,-83.36
1730020312476611927,1730020312476096153,9,-1.79,0.87,0.5,22.645042333333336,-82.25,-82.52
1730020312576561702,1730020312576070070,9,-1.79,0.87,0.5,22.745103,-81.66,-82.03
1730020312676300711,1730020312676100969,9,-1.79,0.87,0.5,22.826402666666667,-81.98,-81.7
1730020312776513055,1730020312776052713,9,-1.79,0.87,0.5,22.926463666666667,-82.14,-82.73
1730020312876645966,1730020312876114606,9,-1.79,0.87,0.5,23.02652466666667,-81.64,-81.9
1730020312976619844,1730020312976053237,9,-1.79,0.87,0.5,23.126585333333335,-82.1,-81.69
1730020313076750076,1730020313076084375,9,-1.79,0.87,0.5,23.239153666666667,-83.27,-82.88
1730020313177811145,1730020313177489995,9,-1.79,0.87,0.5,23.339214999999996,-81.82,-82.86
1730020313278150579,1730020313277910470,9,-1.79,0.87,0.5,23.44553,-82.14,-82.6
1730020313378066114,1730020313377681255,9,-1.79,0.87,0.5,23.526829666666668,-81.02,-81.22
1730020313477976754,1730020313477584838,9,-1.79,0.87,0.5,23.639398333333332,-81.7,-81.3
1730020313577896560,1730020313577527284,9,-1.79,0.87,0.5,23.74571333333333,-81.33,-81.33
1730020313677839650,1730020313677491664,9,-1.79,0.87,0.5,23.877043,-81.71,-81.38
1730020313778431597,1730020313778169155,9,-1.79,0.87,0.5,23.983357333333334,-82.48,-82.21
1730020313877998654,1730020313877687454,9,-1.79,0.87,0.5,24.09592566666667,-81.58,-81.62
1730020313977767723,1730020313977510213,9,-1.79,0.87,0.5,24.183479333333334,-81.9,-81.48
1730020314077886940,1730020314077592849,9,-1.79,0.87,0.5,24.283540666666667,-81.48,-82.22
1730020314177894831,1730020314177619457,9,-1.79,0.87,0.5,24.383601666666667,-81.51,-81.51
1730020314278882265,1730020314278629779,9,-1.79,0.87,0.5,24.502424,-82.9,-82.89
1730020314377972501,1730020314377646923,9,-1.79,0.87,0.5,24.614992333333333,-81.57,-81.5
1730020314477923409,1730020314477662563,9,-1.79,0.87,0.5,24.70879933333333,-83.07,-84.77
1730020314578946423,1730020314578754663,9,-1.79,0.87,0.5,24.790098666666665,-83.56,-83.78
1730020314678930316,1730020314678704738,9,-1.79,0.87,0.5,24.852637,-84.15,-84.94
1730020314778841625,1730020314778572320,9,-1.79,0.87,0.5,24.908921000000003,-85.54,-86.74
1730020314879039050,1730020314878846406,9,-1.79,0.87,0.5,24.952697999999998,-84.96,-86.64
1730020314978935430,1730020314978674173,9,-1.79,0.87,0.5,24.996473999999996,-84.16,-83.62
1730020315079221291,1730020315078952789,9,-1.79,0.87,0.5,25.027742999999997,-84.72,-84.84
1730020315177932921,1730020315177723407,9,-1.79,0.87,0.5,25.059012,-85.62,-85.54
1730020315277993709,1730020315277501344,9,-1.79,0.87,0.5,25.077774,-83.93,-84.75
1730020315378136415,1730020315377894401,9,-1.79,0.87,0.5,25.084028333333332,-83.69,-83.81
1730020315477963114,1730020315477647304,9,-1.79,0.87,0.5,25.077774666666667,-84.91,-86.32
1730020315578379259,1730020315577966690,9,-1.79,0.87,0.5,25.059012666666664,-84.56,-86.39
1730020315676488405,1730020315676131010,9,-1.79,0.87,0.5,25.052758333333333,-84.43,-84.19
1730020315776476254,1730020315776146411,9,-1.79,0.87,0.5,25.040250666666665,-83.63,-83.86
1730020315876383193,1730020315876109838,9,-1.79,0.87,0.5,25.021489666666668,-85.12,-85.35
1730020315976485701,1730020315976109743,9,-1.79,0.87,0.5,25.01523633333333,-84.06,-84.38
1730020316076358600,1730020316076148509,9,-1.79,0.87,0.5,25.008982666666668,-82.96,-84.19
1730020316177498393,1730020316177376747,9,-1.79,0.87,0.5,25.008982666666668,-84.63,-84.68
1730020316276992852,1730020316276201009,9,-1.79,0.87,0.5,25.015235999999998,-83.3,-84.81
1730020316376429140,1730020316376094818,9,-1.79,0.87,0.5,25.027742999999997,-82.73,-84.06
1730020316777691973,1730020316777418613,9,-1.79,0.87,0.5,24.940190333333334,-82.62,-84.82
1730020316877244881,1730020316876309156,9,-1.79,0.87,0.5,24.940190333333334,-82.88,-84.52
1730020316979425075,1730020316979135751,9,-1.79,0.87,0.5,24.927682333333333,-85.67,-87.82
1730020317078787776,1730020317078598976,9,-1.79,0.87,0.5,24.91517433333333,-83.29,-83.08
1730020317179250103,1730020317178758144,9,-1.79,0.87,0.5,24.88390533333333,-82.37,-82.34
1730020317279369375,1730020317279006719,9,-1.79,0.87,0.5,24.858890666666667,-82.75,-84.53
1730020317379634827,1730020317379384756,9,-1.79,0.87,0.5,24.821367999999996,-82.84,-84.67
1730020317477931146,1730020317477628469,9,-1.79,0.87,0.5,24.783845333333336,-84.45,-85.75
1730020317577946078,1730020317577627897,9,-1.79,0.87,0.5,24.746322000000003,-83.19,-84.91
1730020317678215902,1730020317677901268,9,-1.79,0.87,0.5,24.708799666666664,-83.61,-85.85
1730020317778126514,1730020317777828693,9,-1.79,0.87,0.5,24.671277,-83.49,-83.3
1730020317878095292,1730020317877779722,9,-1.79,0.87,0.5,24.627500666666666,-84.2,-84.27
1730020317978181200,1730020317977826595,9,-1.79,0.87,0.5,24.583723666666668,-85.08,-85.63
1730020318079537882,1730020318079172849,9,-1.79,0.87,0.5,24.527439,-84.78,-86.16
1730020318178818788,1730020318178115129,9,-1.79,0.87,0.5,24.489915666666665,-84.12,-83.9
1730020318278053357,1730020318277750492,9,-1.79,0.87,0.5,24.446139,-84.64,-84.47
1730020318378184554,1730020318377830028,9,-1.79,0.87,0.5,24.396108666666667,-84.6,-85.16
1730020318478305420,1730020318477871179,9,-1.79,0.87,0.5,24.33357066666667,-85.54,-88.87
1730020318577756519,1730020318577589750,9,-1.79,0.87,0.5,24.25852466666667,-85.68,-86.02
1730020318678145672,1730020318677683115,9,-1.79,0.87,0.5,24.189733,-84.93,-85.66
1730020318778444752,1730020318778027772,9,-1.79,0.87,0.5,24.133449,-86.11,-87.1
1730020318878360234,1730020318877761363,9,-1.79,0.87,0.5,24.077164999999997,-84.59,-86.41
1730020318978331888,1730020318978039503,9,-1.79,0.87,0.5,24.027134666666665,-84.98,-85.22
1730020319077868113,1730020319077656745,9,-1.79,0.87,0.5,23.95208866666667,-83.89,-85.5
1730020319177825278,1730020319177589416,9,-1.79,0.87,0.5,23.88955066666667,-83.83,-85.48
1730020319277862924,1730020319277578353,9,-1.79,0.87,0.5,23.814504666666668,-83.42,-85.75
1730020319378122471,1730020319377645730,9,-1.79,0.87,0.5,23.745713000000006,-82.86,-82.85
1730020319477795062,1730020319477524757,9,-1.79,0.87,0.5,23.68317466666667,-82.87,-84.8
1730020319577972138,1730020319577494382,9,-1.79,0.87,0.5,23.639398,-83.49,-83.41
1730020319677868919,1730020319677584409,9,-1.79,0.87,0.5,23.514322000000003,-82.23,-82.29
1730020319777915782,1730020319777679681,9,-1.79,0.87,0.5,23.426768999999997,-83.03,-84.76
1730020319877685135,1730020319877429962,9,-1.79,0.87,0.5,23.364230666666668,-82.41,-82.44
1730020319977891240,1730020319977536916,9,-1.79,0.87,0.5,23.282931333333334,-83.84,-85.02
1730020320077944754,1730020320077678442,9,-1.79,0.87,0.5,23.214139000000003,-82.88,-83.88
1730020320177900719,1730020320177673816,9,-1.79,0.87,0.5,23.151601,-82.81,-84.29
1730020320278331065,1730020320278027057,9,-1.79,0.87,0.5,23.089062666666667,-85.98,-86.54
1730020320378164502,1730020320377855300,9,-1.79,0.87,0.5,23.026525000000003,-84.96,-84.93
1730020320478122337,1730020320477783441,9,-1.79,0.87,0.5,22.926464,-83.36,-85.28
1730020320578267295,1730020320577901840,9,-1.79,0.87,0.5,22.857671666666665,-83.75,-85.27
1730020320677832673,1730020320677505254,9,-1.79,0.87,0.5,22.776371666666666,-84.87,-86.64
1730020320777851023,1730020320777555942,9,-1.79,0.87,0.5,22.707579999999997,-84.3,-85.05
1730020320877802856,1730020320877655029,9,-1.79,0.87,0.5,22.61377333333333,-85.86,-86.66
1730020320978154271,1730020320977738142,9,-1.79,0.87,0.5,22.532473666666665,-83.54,-85.64
1730020321077744878,1730020321077430725,9,-1.79,0.87,0.5,22.45117433333333,-84.48,-86.35
1730020321178174103,1730020321177807807,9,-1.79,0.87,0.5,22.39489,-83.93,-87.84
1730020321279086947,1730020321278872251,9,-1.79,0.87,0.5,22.319845,-84.26,-88.15
1730020321379604694,1730020321379307508,9,-1.79,0.87,0.5,22.232291333333333,-86.49,-88.98
1730020321479989162,1730020321479851484,9,-1.79,0.87,0.5,22.150991666666666,-84.58,-84.8
1730020321578373144,1730020321578113317,9,-1.79,0.87,0.5,22.069692,-84.86,-88.23
1730020321678879521,1730020321678569793,9,-1.79,0.87,0.5,21.98839266666667,-85.41,-85.88
1730020321778115609,1730020321777801513,9,-1.79,0.87,0.5,21.888332000000002,-86.23,-87.73
1730020321877754100,1730020321877494335,9,-1.79,0.87,0.5,21.794525000000004,-84.8,-85.91
1730020322378966185,1730020322378686428,9,-1.79,0.87,0.5,21.381772333333334,-86.11,-88.11
1730020322478752976,1730020322478619575,9,-1.79,0.87,0.5,21.312980666666665,-86.88,-87.9
1730020322578793259,1730020322578596353,9,-1.79,0.87,0.5,21.21292,-86.5,-87.44
1730020322679676325,1730020322679464101,9,-1.79,0.87,0.5,21.137874333333333,-87.05,-90.55
1730020322777916937,1730020322777621269,9,-1.79,0.87,0.5,21.037813333333332,-85.99,-87.97
1730020322876564872,1730020322876107931,9,-1.79,0.87,0.5,20.956514000000002,-88.21,-89.23
1730020322976434206,1730020322976098537,9,-1.79,0.87,0.5,20.875214333333332,-85.86,-88.84
1730020323076572684,1730020323076123952,9,-1.79,0.87,0.5,20.800168333333332,-85.93,-86.26
1730020323176542373,1730020323176098346,9,-1.79,0.87,0.5,20.72512233333333,-85.87,-85.99
1730020323276449133,1730020323276115655,9,-1.79,0.87,0.5,20.625061666666667,-87.11,-87.62
1730020323376585341,1730020323376169443,9,-1.79,0.87,0.5,20.525001,-86.13,-86.65
1730020323476723361,1730020323476191043,9,-1.79,0.87,0.5,20.406178999999998,-87.55,-89.83
1730020323576611899,1730020323576174259,9,-1.79,0.87,0.5,20.312371666666667,-85.94,-90.03
1730020323676617172,1730020323676141262,9,-1.79,0.87,0.5,20.224818,-91.56,-94.94
1730020323780236665,1730020323779951572,9,-1.79,0.87,0.5,20.143518333333333,-86.7,-89.2
1730020323879972774,1730020323879727363,9,-1.79,0.87,0.5,20.049711333333335,-86.78,-87.83
1730020323980413706,1730020323979382514,9,-1.79,0.87,0.5,19.955904333333333,-86.89,-89.48
1730020324079837646,1730020324079621553,9,-1.79,0.87,0.5,19.85584366666667,-86.0,-91.09
1730020324180042338,1730020324179916858,9,-1.79,0.87,0.5,19.76203633333333,-85.52,-89.89
1730020324280135405,1730020324279962539,9,-1.79,0.87,0.5,19.661975333333334,-85.03,-89.61
1730020324379845753,1730020324379610776,9,-1.79,0.87,0.5,19.593183,-86.3,-87.33
1730020324479927692,1730020324479754209,9,-1.79,0.87,0.5,19.511883666666666,-86.74,-87.61
1730020324580846978,1730020324580440521,9,-1.79,0.87,0.5,19.418076333333335,-87.03,-89.47
1730020324679845080,1730020324679595232,9,-1.79,0.87,0.5,19.324269,-87.01,-88.98
1730020324780680502,1730020324780498504,9,-1.79,0.87,0.5,19.224208,-86.56,-88.69
1730020324879269113,1730020324878954648,9,-1.79,0.87,0.5,19.155416333333335,-86.1,-91.3
1730020324978761658,1730020324978557348,9,-1.79,0.87,0.5,19.080371000000003,-86.54,-89.68
1730020325079552506,1730020325079232692,9,-1.79,0.87,0.5,19.017833,-87.43,-89.17
1730020325179338022,1730020325179114818,9,-1.79,0.87,0.5,18.924026,-85.87,-88.84
1730020325279762709,1730020325279376983,9,-1.79,0.87,0.5,18.830219,-87.41,-89.5
1730020325379360238,1730020325379089593,9,-1.79,0.87,0.5,18.72390466666667,-86.43,-88.7
1730020325510067906,1730020325509875059,9,-1.79,0.87,0.5,18.630097333333335,-88.0,-90.87
1730020325579973563,1730020325579492568,9,-1.79,0.87,0.5,18.523782333333333,-87.44,-88.83
1730020325680400125,1730020325680122137,9,-1.79,0.87,0.5,18.45499,-87.45,-88.4
1730020325780396535,1730020325780085802,9,-1.79,0.87,0.5,18.373690666666665,-87.11,-87.96
1730020325879663972,1730020325879383802,9,-1.79,0.87,0.5,18.298645333333333,-86.56,-88.62
1730020325978374447,1730020325978061199,9,-1.79,0.87,0.5,18.211092333333337,-86.12,-85.97
1730020326078694367,1730020326078498363,9,-1.79,0.87,0.5,18.148554,-84.78,-86.46
1730020326178490215,1730020326178107023,9,-1.79,0.87,0.5,18.07976166666667,-84.46,-84.69
1730020326278111565,1730020326277760028,9,-1.79,0.87,0.5,17.998462,-84.26,-84.84
1730020326378488880,1730020326378072023,9,-1.79,0.87,0.5,17.935924,-84.09,-85.86
1730020326478095125,1730020326477716207,9,-1.79,0.87,0.5,17.86713233333333,-83.39,-83.51
1730020326577850258,1730020326577613830,9,-1.79,0.87,0.5,17.79834,-84.2,-86.73
1730020326678202874,1730020326677779912,9,-1.79,0.87,0.5,17.692025666666666,-83.44,-83.48
1730020326778231702,1730020326777991533,9,-1.79,0.87,0.5,17.616979666666666,-83.56,-84.56
1730020326876765848,1730020326876074075,9,-1.79,0.87,0.5,17.53568033333333,-85.26,-85.91
1730020326976791102,1730020326976184129,9,-1.79,0.87,0.5,17.48565,-85.33,-86.75
1730020327076505655,1730020327076086044,9,-1.79,0.87,0.5,17.404350666666666,-84.78,-84.64
1730020327178184325,1730020327177690029,9,-1.79,0.87,0.5,17.341812666666666,-84.96,-85.55
1730020327278453817,1730020327278077125,9,-1.79,0.87,0.5,17.248005333333335,-84.41,-84.32
1730020327378104994,1730020327377808809,9,-1.79,0.87,0.5,17.179213666666666,-84.84,-86.49
1730020327478530924,1730020327478084325,9,-1.79,0.87,0.5,17.104168333333334,-83.85,-84.4
1730020327578254484,1730020327577958583,9,-1.79,0.87,0.5,17.054138,-82.61,-82.52
1730020327678092900,1730020327677885770,9,-1.79,0.87,0.5,16.997853333333335,-84.01,-86.09
1730020327778543215,1730020327778073549,9,-1.79,0.87,0.5,62.375493000000006,-82.51,-82.38
1730020327878225784,1730020327877857446,9,-1.79,0.87,0.5,62.31295466666666,-82.84,-82.56
1730020327978007297,1730020327977728366,9,-1.79,0.87,0.5,62.250416333333334,-83.56,-85.98
1730020328077799802,1730020328077483415,9,-1.79,0.87,0.5,16.74770033333333,-83.71,-84.3
1730020328177823804,1730020328177540540,9,-1.79,0.87,0.5,16.641385666666668,-83.33,-83.29
1730020328278059168,1730020328277797460,9,-1.79,0.87,0.5,16.585101,-83.3,-85.05
1730020328377048832,1730020328376146316,9,-1.79,0.87,0.5,16.510055666666666,-83.4,-83.66
1730020328476562595,1730020328476112842,9,-1.79,0.87,0.5,16.441263666666668,-82.66,-83.42
1730020328576806560,1730020328576137781,9,-1.79,0.87,0.5,16.378725666666668,-84.33,-84.32
1730020328676742659,1730020328676076173,9,-1.79,0.87,0.5,16.309933333333333,-84.37,-85.36
1730020328776783064,1730020328776112556,9,-1.79,0.87,0.5,16.266156666666664,-82.68,-82.39
1730020328876644215,1730020328876095294,9,-1.79,0.87,0.5,16.197364666666665,-83.39,-83.78
1730020328976891504,1730020328976085424,9,-1.79,0.87,0.5,16.159842,-82.25,-84.51
1730020329076653311,1730020329076073408,9,-1.79,0.87,0.5,16.09105033333333,-82.68,-83.29
1730020329176490322,1730020329176079511,9,-1.79,0.87,0.5,16.034766666666666,-82.9,-84.99
1730020329276640550,1730020329276155710,9,-1.79,0.87,0.5,15.965975333333335,-82.92,-84.84
1730020329376570582,1730020329376118421,9,-1.79,0.87,0.5,15.890929666666667,-82.83,-83.78
1730020329476449495,1730020329476074457,9,-1.79,0.87,0.5,15.847153,-81.87,-83.59
1730020329576597477,1730020329576079368,9,-1.79,0.87,0.5,15.790869,-81.98,-82.17
1730020329676390310,1730020329676071405,9,-1.79,0.87,0.5,15.734584666666665,-82.21,-83.96
1730020329776487936,1730020329776079654,9,-1.79,0.87,0.5,15.659538666666668,-81.74,-82.11
1730020329876790830,1730020329876121520,9,-1.79,0.87,0.5,15.590746333333334,-81.71,-83.27
1730020329976725970,1730020329976067304,9,-1.79,0.87,0.5,15.534462,-82.26,-83.88
1730020330076371891,1730020330076087951,9,-1.79,0.87,0.5,15.484431666666666,-82.2,-81.96
1730020330176707138,1730020330176049232,9,-1.79,0.87,0.5,15.415639666666666,-82.65,-83.01
1730020330276391247,1730020330276072263,9,-1.79,0.87,0.5,15.353101666666666,-82.69,-82.39
1730020330376497000,1730020330376094818,9,-1.79,0.87,0.5,15.271802333333333,-82.0,-82.37
1730020330476688885,1730020330476119279,9,-1.79,0.87,0.5,15.228026,-82.37,-84.41
1730020330576276230,1730020330576049327,9,-1.79,0.87,0.5,15.171741666666668,-82.48,-82.08
1730020330676437501,1730020330676061630,9,-1.79,0.87,0.5,15.134218666666667,-82.98,-82.34
1730020330777509837,1730020330776079177,9,-1.79,0.87,0.5,15.071680333333333,-83.22,-84.34
1730020330877790520,1730020330877471923,9,-1.79,0.87,0.5,15.021649666666667,-82.21,-83.6
1730020330977825885,1730020330977509737,9,-1.79,0.87,0.5,14.977873,-81.37,-81.35
1730020331077787120,1730020331077526569,9,-1.79,0.87,0.5,14.915335,-82.16,-83.99
1730020331177532142,1730020331177404403,9,-1.79,0.87,0.5,14.840289333333333,-81.93,-81.83
1730020331278758590,1730020331278321266,9,-1.79,0.87,0.5,14.765243666666668,-81.4,-81.95
1730020331379840845,1730020331379590749,9,-1.79,0.87,0.5,14.708959333333334,-80.42,-81.12
1730020331479658988,1730020331479269027,9,-1.79,0.87,0.5,14.633913999999999,-80.75,-81.5
1730020331579334611,1730020331579088449,9,-1.79,0.87,0.5,14.565122333333333,-80.68,-81.24
1730020331679696584,1730020331679605007,9,-1.79,0.87,0.5,14.477569,-79.92,-80.76
1730020331779818187,1730020331779630899,9,-1.79,0.87,0.5,14.415030666666667,-80.08,-80.81
1730020331880046539,1730020331879763126,9,-1.79,0.87,0.5,14.327477333333334,-80.38,-80.87
1730020331977775695,1730020331977498054,9,-1.79,0.87,0.5,14.277447,-80.96,-81.65
1730020332077998395,1730020332077619314,9,-1.79,0.87,0.5,14.202401,-80.47,-81.26
1730020332177837080,1730020332177288770,9,-1.79,0.87,0.5,14.139862666666668,-79.91,-80.68
1730020332277626964,1730020332277399063,9,-1.79,0.87,0.5,14.071070666666666,-79.93,-80.68
1730020332376539153,1730020332376064300,9,-1.79,0.87,0.5,14.021040333333332,-81.93,-83.13
1730020332476664620,1730020332476083755,9,-1.79,0.87,0.5,13.945994666666666,-80.24,-80.98
1730020332577766555,1730020332577452182,9,-1.79,0.87,0.5,13.852187666666666,-80.57,-81.3
1730020332677683325,1730020332677351474,9,-1.79,0.87,0.5,13.758380666666667,-79.96,-81.61
1730020332778911025,1730020332778589725,9,-1.79,0.87,0.5,13.658319666666666,-80.33,-81.24
1730020332876634289,1730020332876099586,9,-1.79,0.87,0.5,13.570766333333331,-80.44,-81.02
1730020332977705130,1730020332977463722,9,-1.79,0.87,0.5,13.470705333333333,-80.15,-81.11
1730020333076887119,1730020333076093673,9,-1.79,0.87,0.5,13.376898000000002,-80.17,-80.97
1730020333177528441,1730020333177310705,9,-1.79,0.87,0.5,13.283090666666666,-80.43,-80.73
1730020333278470835,1730020333278093576,9,-1.79,0.87,0.5,13.201791333333333,-80.09,-81.04
1730020333380151571,1730020333379873991,9,-1.79,0.87,0.5,13.114238,-80.13,-80.84
1730020333479771758,1730020333479552030,9,-1.79,0.87,0.5,13.014176999999998,-79.89,-80.83
1730020333580498659,1730020333580413579,9,-1.79,0.87,0.5,12.926623666666666,-80.07,-80.83
1730020333679798872,1730020333679524898,9,-1.79,0.87,0.5,12.839070333333334,-80.54,-80.89
1730020333780667530,1730020333780394315,9,-1.79,0.87,0.5,12.757771,-80.67,-80.78
1730020333880652459,1730020333880311727,9,-1.79,0.87,0.5,12.65771,-80.31,-80.74
1730020333980083686,1730020333979809284,9,-1.79,0.87,0.5,12.563903333333334,-80.33,-80.91
1730020334080724890,1730020334080469131,9,-1.79,0.87,0.5,12.457588666666666,-80.28,-81.28
1730020334676749259,1730020334676116466,9,-1.79,0.87,0.5,11.894745666666665,-80.45,-81.85
1730020334776857005,1730020334776159286,9,-1.79,0.87,0.5,11.794684666666667,-80.49,-81.01
1730020334880356595,1730020334879910945,9,-1.79,0.87,0.5,11.682116,-79.94,-81.4
1730020334979186405,1730020334978994131,9,-1.79,0.87,0.5,11.600816333333334,-79.97,-80.84
1730020335078953193,1730020335078751087,9,-1.79,0.87,0.5,11.494501333333332,-80.26,-81.52
1730020335178836809,1730020335178592681,9,-1.79,0.87,0.5,11.413201999999998,-79.75,-81.31
1730020335278498508,1730020335278219461,9,-1.79,0.87,0.5,11.306887333333334,-80.44,-81.34
1730020335377895214,1730020335377663850,9,-1.79,0.87,0.5,11.225588,-79.97,-80.84
1730020335478319421,1730020335477904319,9,-1.79,0.87,0.5,11.125527,-80.74,-81.03
1730020335578009283,1730020335577804327,9,-1.79,0.87,0.5,11.025466,-81.0,-81.43
1730020335677702433,1730020335677399396,9,-1.79,0.87,0.5,10.931658666666666,-80.64,-81.58
1730020335777903997,1730020335777544498,9,-1.79,0.87,0.5,10.831597666666667,-80.54,-81.12
1730020335877648623,1730020335877367734,9,-1.79,0.87,0.5,10.744044666666667,-80.49,-81.35
1730020335977743627,1730020335977478981,9,-1.79,0.87,0.5,10.643984,-81.32,-83.61
1730020336077884259,1730020336077601909,9,-1.79,0.87,0.5,10.543923,-80.87,-81.82
1730020336178659195,1730020336178319454,9,-1.79,0.87,0.5,10.443861666666665,-81.25,-83.11
1730020336279292296,1730020336278971195,9,-1.79,0.87,0.5,10.356308333333333,-81.52,-83.26
1730020336378898031,1730020336378655672,9,-1.79,0.87,0.5,10.262501,-82.64,-83.59
1730020336481755882,1730020336480690002,9,-1.79,0.87,0.5,10.156186333333332,-82.16,-83.94
1730020336579244533,1730020336578944206,9,-1.79,0.87,0.5,10.062379,-81.57,-83.35
1730020336679262684,1730020336678969383,9,-1.79,0.87,0.5,9.962318333333334,-83.38,-84.48
1730020336778336594,1730020336778023958,9,-1.79,0.87,0.5,9.712166000000002,-83.83,-86.69
1730020336877794266,1730020336877557516,9,-1.79,0.87,0.5,9.643374,-82.56,-82.88
1730020336977815867,1730020336977477073,9,-1.79,0.87,0.5,9.605851333333334,-82.55,-82.55
1730020337078011837,1730020337077732086,9,-1.79,0.87,0.5,9.518298,-86.14,-86.95
1730020337177836354,1730020337177533626,9,-1.79,0.87,0.5,9.386968,-88.0,-88.97
1730020337277879095,1730020337277711391,9,-1.79,0.87,0.5,9.249384,-87.65,-91.04
1730020337377802081,1730020337377592802,9,-1.79,0.87,0.5,9.105546333333335,-85.92,-94.79
1730020337478057578,1730020337477785587,9,-1.79,0.87,0.5,8.961709,-85.75,-99.38
1730020337577782047,1730020337577518939,9,-1.79,0.87,0.5,9.055516333333333,-89.01,-93.16
1730020337678129419,1730020337677702903,9,-1.79,0.87,0.5,9.068024000000001,-83.84,-94.17
1730020337777876588,1730020337777655363,9,-1.79,0.87,0.5,9.168084666666667,-83.86,-86.08
1730020337877683805,1730020337877484321,9,-1.79,0.87,0.5,8.924186,-87.74,-99.15
1730020337978807414,1730020337977567911,9,-1.79,0.87,0.5,8.886663333333333,-81.66,-82.28
1730020338078056099,1730020338077905893,9,-1.79,0.87,0.5,8.730318333333333,-85.73,-89.43
1730020338177873558,1730020338177380561,9,-1.79,0.87,0.5,8.724064666666665,-82.63,-83.47
1730020338278092466,1730020338277725458,9,-1.79,0.87,0.5,8.580226999999999,-83.79,-86.62
1730020338377809390,1730020338377573013,9,-1.79,0.87,0.5,8.486419666666666,-81.94,-81.89
1730020338478012929,1730020338477621793,9,-1.79,0.87,0.5,8.348836,-82.98,-84.44
1730020338577980539,1730020338577655076,9,-1.79,0.87,0.5,8.267536333333332,-83.74,-86.29
1730020338677731811,1730020338677419185,9,-1.79,0.87,0.5,8.198744333333332,-82.52,-83.92
1730020338776424182,1730020338776087284,9,-1.79,0.87,0.5,8.136206,-82.15,-88.25
1730020338876423565,1730020338876106500,9,-1.79,0.87,0.5,8.061160333333333,-83.13,-84.91
1730020338976441499,1730020338976097345,9,-1.79,0.87,0.5,7.9861146666666665,-82.46,-82.65
1730020339076641278,1730020339076104879,9,-1.79,0.87,0.5,7.948591666666666,-82.05,-83.31
1730020339179516019,1730020339179274559,9,-1.79,0.87,0.5,7.861038333333333,-82.69,-84.96
1730020339278524230,1730020339278379917,9,-1.79,0.87,0.5,7.760977333333333,-80.81,-82.53
1730020339378850309,1730020339378479719,9,-1.79,0.87,0.5,7.667170333333334,-82.52,-85.04
1730020339477932132,1730020339477609157,9,-1.79,0.87,0.5,7.5858706666666675,-81.44,-83.59
1730020339577776033,1730020339577464103,9,-1.79,0.87,0.5,7.504571333333334,-82.75,-84.46
1730020339677937650,1730020339677572250,9,-1.79,0.87,0.5,7.341972000000001,-81.06,-84.04
1730020339777745163,1730020339777451276,9,-1.79,0.87,0.5,7.210642,-80.83,-81.9
1730020339877745826,1730020339877542495,9,-1.79,0.87,0.5,7.085565666666667,-80.6,-81.17
1730020339977855822,1730020339977484941,9,-1.79,0.87,0.5,6.991758666666667,-79.29,-82.07
1730020340077911843,1730020340077553749,9,-1.79,0.87,0.5,6.866682666666667,-79.96,-81.48
1730020340176264862,1730020340176056146,9,-1.79,0.87,0.5,6.741606333333333,-79.2,-81.17
1730020340477711698,1730020340477576255,9,-1.79,0.87,0.5,6.597768666666667,-80.2,-81.05
1730020340576723745,1730020340576096057,9,-1.79,0.87,0.5,6.4852,-79.7,-80.68
1730020340676404694,1730020340676078557,9,-1.79,0.87,0.5,6.360124,-80.15,-80.74
1730020340776436682,1730020340776088476,9,-1.79,0.87,0.5,6.266317,-80.55,-81.13
1730020340876798545,1730020340876140117,9,-1.79,0.87,0.5,6.178763666666666,-79.71,-80.83
1730020340979890994,1730020340979809999,9,-1.79,0.87,0.5,6.084956333333333,-79.5,-80.48
1730020341080032793,1730020341079630613,9,-1.79,0.87,0.5,6.028672,-79.76,-80.61
1730020341180140351,1730020341179890155,9,-1.79,0.87,0.5,5.947372333333333,-79.55,-80.69
1730020341280839138,1730020341280656099,9,-1.79,0.87,0.5,5.878580666666667,-80.03,-81.03
1730020341380023928,1730020341379852533,9,-1.79,0.87,0.5,5.778519666666667,-79.9,-80.5
1730020341479878266,1730020341479671716,9,-1.79,0.87,0.5,5.703474,-79.64,-80.63
1730020341579680783,1730020341579463243,9,-1.79,0.87,0.5,5.640935666666667,-79.14,-80.8
1730020341679694081,1730020341679482698,9,-1.79,0.87,0.5,5.603412666666667,-79.58,-81.05
1730020341779842101,1730020341779600620,9,-1.79,0.87,0.5,5.547128333333333,-79.81,-80.82
1730020341879432809,1730020341879247903,9,-1.79,0.87,0.5,5.422052333333333,-79.14,-80.74
1730020341976938728,1730020341976116657,9,-1.79,0.87,0.5,5.365767999999999,-79.74,-81.15
1730020342076624293,1730020342076072454,9,-1.79,0.87,0.5,5.347006666666666,-79.24,-80.74
1730020342176399911,1730020342176066637,9,-1.79,0.87,0.5,5.334499,-78.88,-80.31
1730020342276700615,1730020342276087760,9,-1.79,0.87,0.5,5.3470070000000005,-78.92,-81.13
1730020342376632942,1730020342376085758,9,-1.79,0.87,0.5,5.365768333333333,-78.9,-80.42
1730020342476796112,1730020342476147174,9,-1.79,0.87,0.5,5.384529666666666,-78.98,-80.6
1730020342580244706,1730020342577975034,9,-1.79,0.87,0.5,5.428306,-78.87,-80.54
1730020342676791101,1730020342676077365,9,-1.79,0.87,0.5,5.465828999999999,-79.56,-80.75
1730020342780160610,1730020342779885053,9,-1.79,0.87,0.5,5.503352,-79.59,-80.89
1730020342880083506,1730020342879962205,9,-1.79,0.87,0.5,5.547128666666667,-79.08,-81.04
1730020342979573886,1730020342979398488,9,-1.79,0.87,0.5,5.56589,-78.97,-80.44
1730020343079925223,1730020343079655408,9,-1.79,0.87,0.5,5.603412666666667,-78.63,-80.44
1730020343179892381,1730020343179610252,9,-1.79,0.87,0.5,5.647189333333333,-79.37,-81.12
1730020343276583892,1730020343276076793,9,-1.79,0.87,0.5,5.703473666666667,-78.8,-80.45
1730020343376592577,1730020343376148939,9,-1.79,0.87,0.5,5.759758000000001,-78.89,-80.48
1730020343476467257,1730020343476078987,9,-1.79,0.87,0.5,5.809788666666667,-78.9,-80.68
1730020343977822112,1730020343977454662,9,-1.79,0.87,0.5,6.022418333333334,-79.45,-81.28
1730020344076619420,1730020344076099395,9,-1.79,0.87,0.5,6.072448666666666,-79.02,-80.68
1730020344177763600,1730020344177422285,9,-1.79,0.87,0.5,6.141240333333333,-79.01,-81.33
1730020344276464685,1730020344276113748,9,-1.79,0.87,0.5,6.197524666666666,-79.26,-81.04
1730020344377639789,1730020344377341032,9,-1.79,0.87,0.5,6.266316666666666,-79.09,-80.71
1730020344476450728,1730020344476102590,9,-1.79,0.87,0.5,6.328855,-78.91,-80.86
1730020344577740561,1730020344577419519,9,-1.79,0.87,0.5,6.391393,-79.39,-81.12
1730020344677787187,1730020344677414655,9,-1.79,0.87,0.5,6.447677333333334,-79.29,-80.78
1730020344778118388,1730020344777757167,9,-1.79,0.87,0.5,6.510215333333334,-79.42,-80.91
1730020344876573668,1730020344876096010,9,-1.79,0.87,0.5,6.572753333333334,-79.71,-81.1
1730020344979683908,1730020344979395866,9,-1.79,0.87,0.5,6.641545333333333,-79.51,-80.67
1730020345079455762,1730020345079259634,9,-1.79,0.87,0.5,6.716591,-79.83,-80.8
1730020345179474175,1730020345179219484,9,-1.79,0.87,0.5,6.804144333333333,-79.46,-81.06
1730020345276441529,1730020345276090145,9,-1.79,0.87,0.5,6.897951333333334,-80.74,-81.53
1730020345376426882,1730020345376085996,9,-1.79,0.87,0.5,6.9542356666666665,-79.44,-80.66
1730020345476517665,1730020345476077795,9,-1.79,0.87,0.5,7.023027666666667,-79.45,-80.91
1730020345576365397,1730020345576134920,9,-1.79,0.87,0.5,7.085565666666667,-79.72,-81.14
1730020345679556985,1730020345679396867,9,-1.79,0.87,0.5,7.179372999999999,-79.63,-80.89
1730020345779389396,1730020345779167175,9,-1.79,0.87,0.5,7.254418666666666,-79.35,-81.07
1730020345879625197,1730020345879359722,9,-1.79,0.87,0.5,7.323210666666667,-79.72,-80.88
1730020345978735991,1730020345978461742,9,-1.79,0.87,0.5,7.385748666666667,-79.3,-80.81
1730020346078687866,1730020346078580141,9,-1.79,0.87,0.5,7.4545406666666665,-80.09,-81.0
1730020346179812655,1730020346179610252,9,-1.79,0.87,0.5,7.5170786666666665,-78.92,-80.68
1730020346279015798,1730020346278766155,9,-1.79,0.87,0.5,7.598377999999999,-79.11,-80.92
1730020346379389321,1730020346379029512,9,-1.79,0.87,0.5,7.667169666666666,-78.79,-80.68
1730020346478985882,1730020346478744745,9,-1.79,0.87,0.5,7.7609770000000005,-79.24,-80.82
1730020346579182149,1730020346578923463,9,-1.79,0.87,0.5,7.817261333333334,-78.89,-80.69
1730020346679262391,1730020346678996801,9,-1.79,0.87,0.5,7.892307333333334,-79.0,-80.67
1730020346778894296,1730020346778676986,9,-1.79,0.87,0.5,7.973606666666666,-79.13,-81.08
1730020346878823742,1730020346878675699,9,-1.79,0.87,0.5,8.061160333333333,-79.09,-80.58
1730020346979276766,1730020346979009389,9,-1.79,0.87,0.5,8.154967333333333,-79.14,-80.63
1730020347080237681,1730020347079905033,9,-1.79,0.87,0.5,8.242520666666666,-79.3,-80.87
1730020347178751771,1730020347178526401,9,-1.79,0.87,0.5,8.342581333333333,-79.26,-80.87
1730020347279041226,1730020347278738975,9,-1.79,0.87,0.5,8.423881333333332,-79.44,-80.64
1730020347379862548,1730020347379697084,9,-1.79,0.87,0.5,8.505181,-79.39,-80.81
1730020347479132540,1730020347478960990,9,-1.79,0.87,0.5,8.598988333333333,-80.02,-80.83
1730020347576421845,1730020347576160430,9,-1.79,0.87,0.5,8.699049,-79.96,-81.08
1730020347676547690,1730020347676089048,9,-1.79,0.87,0.5,8.767840999999999,-79.61,-80.35
1730020347778300872,1730020347777827739,9,-1.79,0.87,0.5,8.849140333333333,-79.78,-80.7
1730020347877781480,1730020347877574443,9,-1.79,0.87,0.5,8.936693666666667,-79.92,-81.36
1730020347976580819,1730020347976093769,9,-1.79,0.87,0.5,9.06177,-79.94,-81.05
1730020348076362025,1730020348076092958,9,-1.79,0.87,0.5,9.161831,-79.75,-81.13
1730020348176871710,1730020348176099061,9,-1.79,0.87,0.5,9.268145666666667,-80.64,-80.8
1730020348276536996,1730020348276055812,9,-1.79,0.87,0.5,9.368206333333331,-80.75,-81.45
1730020348378183921,1730020348377692222,9,-1.79,0.87,0.5,9.487029,-81.13,-81.53
1730020348478668978,1730020348478529453,9,-1.79,0.87,0.5,9.580836333333334,-81.26,-82.36
1730020348577773061,1730020348577659606,9,-1.79,0.87,0.5,9.693405,-81.55,-82.46
1730020348678377527,1730020348677903413,9,-1.79,0.87,0.5,9.793465666666668,-81.92,-83.14
1730020348778388548,1730020348778031826,9,-1.79,0.87,0.5,9.918541666666666,-81.97,-82.65
1730020348878027959,1730020348877664804,9,-1.79,0.87,0.5,10.03111,-81.77,-81.9
1730020348977988503,1730020348977751255,9,-1.79,0.87,0.5,10.131171,-82.94,-82.93
1730020349077964418,1730020349077658891,9,-1.79,0.87,0.5,10.231232,-81.79,-81.85
1730020349178007884,1730020349177600860,9,-1.79,0.87,0.5,10.318785333333334,-81.64,-81.87
1730020349279376063,1730020349279167890,9,-1.79,0.87,0.5,10.412592333333334,-82.01,-81.8
1730020349376904617,1730020349376155376,9,-1.79,0.87,0.5,10.506399333333334,-81.26,-81.02
1730020349476591392,1730020349476084232,9,-1.79,0.87,0.5,10.587699333333333,-80.6,-80.89
1730020349576640857,1730020349576104164,9,-1.79,0.87,0.5,10.687760333333335,-81.34,-81.06
1730020349676450167,1730020349676080942,9,-1.79,0.87,0.5,10.762806,-80.86,-81.08
1730020349776504490,1730020349776072263,9,-1.79,0.87,0.5,10.856612666666669,-80.63,-80.93
1730020349878106975,1730020349877814054,9,-1.79,0.87,0.5,10.931658333333333,-80.4,-80.65
1730020349977936006,1730020349977683305,9,-1.79,0.87,0.5,11.025465666666667,-80.34,-80.59
1730020350179539340,1730020350179261922,9,-1.79,0.87,0.5,11.150542,-80.25,-81.33
1730020350279657842,1730020350279409408,9,-1.79,0.87,0.5,11.375679333333332,-80.08,-80.85
1730020350378932742,1730020350378733396,9,-1.79,0.87,0.5,11.450725,-79.88,-80.78
1730020350478590540,1730020350478235960,9,-1.79,0.87,0.5,11.525770666666666,-80.35,-80.96
1730020350578613700,1730020350578134775,9,-1.79,0.87,0.5,11.625831666666665,-80.43,-81.38
1730020350681752839,1730020350681454420,9,-1.79,0.87,0.5,11.732146666666665,-80.61,-80.82
1730020350776685343,1730020350776129245,9,-1.79,0.87,0.5,11.844714999999999,-80.22,-80.9
1730020350877602022,1730020350877382040,9,-1.79,0.87,0.5,11.944776,-80.51,-81.34
1730020350977876606,1730020350977556228,9,-1.79,0.87,0.5,12.032329333333335,-80.19,-80.84
1730020351077719110,1730020351077357530,9,-1.79,0.87,0.5,12.113629333333334,-79.95,-81.01
1730020351178589550,1730020351178083181,9,-1.79,0.87,0.5,12.21369,-80.61,-81.13
1730020351277880819,1730020351277668952,9,-1.79,0.87,0.5,12.326258666666666,-80.44,-81.01
1730020351378551423,1730020351378250598,9,-1.79,0.87,0.5,12.432573333333332,-80.55,-81.4
1730020351476947077,1730020351476194858,9,-1.79,0.87,0.5,12.532634333333334,-80.62,-81.15
1730020351576287962,1730020351576083660,9,-1.79,0.87,0.5,12.632695,-80.75,-80.94
1730020351679320133,1730020351679105043,9,-1.79,0.87,0.5,12.757771333333332,-81.13,-81.31
1730020351780140508,1730020351779937267,9,-1.79,0.87,0.5,12.876593999999999,-81.9,-81.61
1730020351879645294,1730020351879381656,9,-1.79,0.87,0.5,12.995416333333333,-80.84,-81.55
1730020351979365781,1730020351979180812,9,-1.79,0.87,0.5,13.101730666666667,-81.26,-81.83
1730020352079720296,1730020352079492568,9,-1.79,0.87,0.5,13.226806666666667,-81.17,-82.23
1730020352180100330,1730020352179809570,9,-1.79,0.87,0.5,13.339375333333331,-81.29,-82.53
1730020352280505904,1730020352280209779,9,-1.79,0.87,0.5,13.464451666666667,-82.03,-84.22
1730020352380018283,1730020352379883289,9,-1.79,0.87,0.5,13.564512666666667,-82.93,-84.43
1730020352480551571,1730020352480301380,9,-1.79,0.87,0.5,13.658319999999998,-82.9,-83.96
1730020352579918125,1730020352579599142,9,-1.79,0.87,0.5,13.733365666666666,-81.61,-82.88
1730020352679692417,1730020352679402351,9,-1.79,0.87,0.5,13.845934333333332,-82.21,-85.07
1730020352780197078,1730020352779906034,9,-1.79,0.87,0.5,13.952248666666668,-83.96,-84.7
1730020352879346424,1730020352879114866,9,-1.79,0.87,0.5,14.052309333333334,-81.68,-81.62
1730020352980119870,1730020352979785203,9,-1.79,0.87,0.5,14.102339666666666,-80.52,-80.84
1730020353080131601,1730020353079872608,9,-1.79,0.87,0.5,14.139862666666668,-79.78,-80.89
1730020353179953203,1730020353179689168,9,-1.79,0.87,0.5,14.152370666666664,-79.93,-81.14
1730020353280673801,1730020353280333518,9,-1.79,0.87,0.5,14.158624333333334,-79.43,-80.87
1730020353379648131,1730020353379468441,9,-1.79,0.87,0.5,14.171132,-79.86,-81.2
1730020353476659278,1730020353476118326,9,-1.79,0.87,0.5,14.202401,-79.4,-80.79
1730020353576628681,1730020353576109647,9,-1.79,0.87,0.5,14.208655,-79.9,-80.65
1730020353676310383,1730020353676111459,9,-1.79,0.87,0.5,14.208655,-79.67,-81.13
1730020353776546884,1730020353776104450,9,-1.79,0.87,0.5,14.196147333333334,-80.57,-81.51
1730020353876503204,1730020353876096487,9,-1.79,0.87,0.5,14.202401,-79.65,-81.07
1730020353976472615,1730020353976120471,9,-1.79,0.87,0.5,14.189893333333332,-79.74,-81.05
1730020354076490908,1730020354076092958,9,-1.79,0.87,0.5,14.164878,-79.34,-81.01
1730020354176460136,1730020354176116466,9,-1.79,0.87,0.5,14.139862666666666,-79.22,-80.48
1730020354276601947,1730020354276092529,9,-1.79,0.87,0.5,14.108593666666666,-79.18,-80.59
1730020354376440714,1730020354376096487,9,-1.79,0.87,0.5,14.102339666666666,-79.28,-80.65
1730020354476456426,1730020354476122379,9,-1.79,0.87,0.5,14.089832333333334,-79.47,-80.33
1730020354576595239,1730020354576110363,9,-1.79,0.87,0.5,14.096086333333334,-80.37,-81.23
1730020354676483898,1730020354676146745,9,-1.79,0.87,0.5,14.083579,-80.02,-81.22
1730020354776487986,1730020354776151657,9,-1.79,0.87,0.5,14.05231,-80.12,-81.15
1730020354876528934,1730020354876151323,9,-1.79,0.87,0.5,14.027294666666668,-80.73,-81.11
1730020354976704221,1730020354976213932,9,-1.79,0.87,0.5,13.996025666666666,-80.48,-80.93
1730020355076454264,1730020355076107263,9,-1.79,0.87,0.5,13.977264,-80.56,-80.77
1730020355176535969,1730020355176172018,9,-1.79,0.87,0.5,13.927233333333334,-80.36,-81.0
1730020355279291009,1730020355279070377,9,-1.79,0.87,0.5,13.902218,-81.36,-82.44
1730020355376433549,1730020355376117467,9,-1.79,0.87,0.5,13.858441333333332,-80.89,-81.31
1730020355478088141,1730020355477793216,9,-1.79,0.87,0.5,13.833425999999998,-80.79,-81.25
1730020355678785494,1730020355678521871,9,-1.79,0.87,0.5,13.764634000000001,-80.88,-81.1
1730020355779165440,1730020355778975009,9,-1.79,0.87,0.5,13.708349666666669,-80.28,-81.04
1730020355879188664,1730020355878961324,9,-1.79,0.87,0.5,13.658319333333333,-81.55,-81.25
1730020355976277275,1730020355976082086,9,-1.79,0.87,0.5,13.608289,-80.51,-80.75
1730020356077738549,1730020356077637672,9,-1.79,0.87,0.5,13.570765999999999,-82.53,-83.22
1730020356178461967,1730020356178043603,9,-1.79,0.87,0.5,13.508228,-80.4,-80.97
1730020356279143535,1730020356278948545,9,-1.79,0.87,0.5,13.451943666666665,-80.84,-81.07
1730020356379766309,1730020356379384517,9,-1.79,0.87,0.5,13.376898333333335,-80.38,-81.12
1730020356478982307,1730020356478765249,9,-1.79,0.87,0.5,13.308106333333333,-80.35,-81.55
1730020356578577268,1730020356578166246,9,-1.79,0.87,0.5,13.245568333333333,-80.92,-81.08
1730020356677824730,1730020356677453517,9,-1.79,0.87,0.5,13.18303,-80.73,-81.23
1730020356778418510,1730020356778192043,9,-1.79,0.87,0.5,13.114238333333333,-80.41,-81.16
1730020356877825291,1730020356877729177,9,-1.79,0.87,0.5,13.045446666666665,-80.55,-81.21
1730020356978236104,1730020356977961778,9,-1.79,0.87,0.5,12.982908666666665,-80.06,-80.98
1730020357077810064,1730020357077607631,9,-1.79,0.87,0.5,12.914116666666667,-80.04,-80.79
1730020357176611372,1730020357176082611,9,-1.79,0.87,0.5,12.845324666666668,-80.22,-80.77
1730020357276604125,1730020357276076793,9,-1.79,0.87,0.5,12.757771333333332,-80.32,-80.8
1730020357376572506,1730020357376070499,9,-1.79,0.87,0.5,12.682725666666668,-80.77,-81.08
1730020357476846194,1730020357476230859,9,-1.79,0.87,0.5,12.588918333333334,-81.86,-81.82
1730020357576671014,1730020357576133966,9,-1.79,0.87,0.5,12.526380000000001,-80.34,-82.53
1730020357677728269,1730020357676162242,9,-1.79,0.87,0.5,12.463841666666667,-80.34,-82.5
1730020357776584773,1730020357776110887,9,-1.79,0.87,0.5,12.407557333333335,-80.07,-80.9
1730020357876588639,1730020357876076221,9,-1.79,0.87,0.5,12.332512,-80.59,-81.24
1730020357976632317,1730020357976094007,9,-1.79,0.87,0.5,12.232451333333332,-80.41,-80.9
1730020358076612788,1730020358076078891,9,-1.79,0.87,0.5,12.144898,-80.49,-81.13
1730020358176844213,1730020358176077842,9,-1.79,0.87,0.5,12.057344666666665,-80.59,-81.15
1730020358276529813,1730020358276142597,9,-1.79,0.87,0.5,11.988552666666669,-80.66,-82.38
1730020358376815968,1730020358376097679,9,-1.79,0.87,0.5,11.894745666666665,-80.16,-80.81
1730020358476702362,1730020358476080417,9,-1.79,0.87,0.5,11.813445999999999,-80.58,-81.49
1730020358577361634,1730020358576134204,9,-1.79,0.87,0.5,11.700877333333333,-80.14,-80.81
1730020358676548257,1730020358676106452,9,-1.79,0.87,0.5,11.500755666666668,-80.59,-81.33
1730020358776549573,1730020358776121616,9,-1.79,0.87,0.5,11.42571,-80.03,-80.92
1730020358876308049,1730020358876118183,9,-1.79,0.87,0.5,11.350664,-81.12,-82.48
1730020358976701346,1730020358976086378,9,-1.79,0.87,0.5,11.281872,-80.83,-81.3
1730020359076538705,1730020359076143503,9,-1.79,0.87,0.5,11.194319,-80.31,-81.2
1730020359176979543,1730020359176175594,9,-1.79,0.87,0.5,11.081750333333332,-81.51,-81.45
1730020359276752595,1730020359276141881,9,-1.79,0.87,0.5,10.981689333333334,-80.54,-81.19
1730020359376613372,1730020359376167774,9,-1.79,0.87,0.5,10.887882,-81.06,-81.59
1730020359476459014,1730020359476092576,9,-1.79,0.87,0.5,10.819090333333333,-81.7,-83.83
1730020359576487713,1730020359576081037,9,-1.79,0.87,0.5,10.725283333333332,-82.6,-83.17
1730020359676403554,1730020359676089525,9,-1.79,0.87,0.5,10.63773,-81.92,-83.58
1730020359776555499,1730020359776099681,9,-1.79,0.87,0.5,10.537669,-82.06,-84.62
1730020359876603038,1730020359876083135,9,-1.79,0.87,0.5,10.450115666666667,-82.05,-82.48
1730020359976501767,1730020359976115703,9,-1.79,0.87,0.5,10.350054666666667,-81.62,-82.22
1730020360076669741,1730020360076080560,9,-1.79,0.87,0.5,10.237485999999999,-81.96,-84.7
1730020360176476187,1730020360176107168,9,-1.79,0.87,0.5,10.118663666666668,-81.78,-82.16
1730020360276570049,1730020360276091337,9,-1.79,0.87,0.5,10.012349,-82.41,-84.61
