%time,field.stamp,field.id,field.x,field.y,field.z,field.distanceFromTag,field.rssi,field.rssi_fp
1733053256750387960,1733053256750070333,9,0.71,-0.87,0.61,3.395818333333333,-79.16,-80.95
1733053256850222968,1733053256849977970,9,0.71,-0.87,0.61,3.408326,-78.87,-80.59
1733053256950710628,1733053256950577497,9,0.71,-0.87,0.61,3.4458490000000004,-78.74,-80.39
1733053257049331136,1733053257049077749,9,0.71,-0.87,0.61,3.439595,-78.86,-80.66
1733053257148403514,1733053257147951364,9,0.71,-0.87,0.61,3.427087333333333,-79.44,-81.04
1733053257248375257,1733053257247914791,9,0.71,-0.87,0.61,3.4145796666666666,-79.11,-80.84
1733053257348075074,1733053257347907543,9,0.71,-0.87,0.61,3.4145796666666666,-78.82,-80.59
1733053257448299346,1733053257447913885,9,0.71,-0.87,0.61,3.4145796666666666,-78.56,-80.36
1733053257549342754,1733053257549236536,9,0.71,-0.87,0.61,3.4208336666666668,-79.2,-81.06
1733053257649535267,1733053257649199724,9,0.71,-0.87,0.61,3.408326,-78.81,-80.6
1733053257748378578,1733053257747901439,9,0.71,-0.87,0.61,3.408326,-78.97,-80.51
1733053257848058079,1733053257847892284,9,0.71,-0.87,0.61,3.402072,-78.98,-80.58
1733053257950807130,1733053257950521230,9,0.71,-0.87,0.61,3.439595,-79.1,-80.9
1733053258050345684,1733053258050232648,9,0.71,-0.87,0.61,3.439595,-78.78,-80.56
1733053258150218388,1733053258150068283,9,0.71,-0.87,0.61,3.427087333333333,-78.76,-80.45
1733053258250124052,1733053258249849081,9,0.71,-0.87,0.61,3.408326,-78.64,-80.53
1733053258350285477,1733053258350046396,9,0.71,-0.87,0.61,3.395818333333333,-79.03,-81.08
1733053258450161687,1733053258449954032,9,0.71,-0.87,0.61,3.408326,-79.11,-80.77
1733053258550002115,1733053258549864053,9,0.71,-0.87,0.61,3.4208336666666668,-79.2,-80.73
1733053258650522452,1733053258650382280,9,0.71,-0.87,0.61,3.4333413333333334,-78.8,-80.5
1733053258750310559,1733053258750097751,9,0.71,-0.87,0.61,3.4145800000000004,-78.78,-80.64
1733053258850276664,1733053258850024223,9,0.71,-0.87,0.61,3.395818333333333,-78.85,-80.56
1733053258950160249,1733053258949881315,9,0.71,-0.87,0.61,3.4145796666666666,-78.99,-80.76
1733053259050708123,1733053259050464153,9,0.71,-0.87,0.61,3.427087333333333,-78.98,-80.67
1733053259149581608,1733053259149316549,9,0.71,-0.87,0.61,3.458356333333333,-78.95,-81.0
1733053259249342413,1733053259249101638,9,0.71,-0.87,0.61,3.439595,-78.92,-80.8
1733053259348527718,1733053259347889900,9,0.71,-0.87,0.61,3.427087333333333,-78.84,-80.5
1733053259448278441,1733053259447909832,9,0.71,-0.87,0.61,3.4145799999999995,-78.86,-80.82
1733053259548242694,1733053259547871112,9,0.71,-0.87,0.61,3.408326,-79.25,-80.87
1733053259648342458,1733053259647928714,9,0.71,-0.87,0.61,3.427087333333333,-78.85,-80.45
1733053259749638581,1733053259749317169,9,0.71,-0.87,0.61,3.427087333333333,-78.69,-80.6
1733053260150294046,1733053260150162458,9,0.71,-0.87,0.61,3.4208336666666668,-78.99,-80.76
1733053260250417231,1733053260250329017,9,0.71,-0.87,0.61,3.395818333333333,-78.89,-80.61
1733053260350611877,1733053260350365400,9,0.71,-0.87,0.61,3.4145796666666666,-78.77,-80.62
1733053260450192890,1733053260450057268,9,0.71,-0.87,0.61,3.4020720000000004,-78.56,-80.43
1733053260548457419,1733053260547890186,9,0.71,-0.87,0.61,3.4333413333333334,-78.8,-80.47
1733053260648265730,1733053260647876262,9,0.71,-0.87,0.61,3.4020723333333334,-78.88,-80.78
1733053260748410615,1733053260747901439,9,0.71,-0.87,0.61,3.402072333333333,-78.7,-80.55
1733053260848401960,1733053260847877264,9,0.71,-0.87,0.61,3.370803,-78.98,-80.72
1733053260949361143,1733053260949101686,9,0.71,-0.87,0.61,3.408326,-78.81,-80.5
1733053261049593998,1733053261049358367,9,0.71,-0.87,0.61,3.408326,-78.51,-80.46
1733053261149398745,1733053261149204492,9,0.71,-0.87,0.61,3.4270876666666665,-78.64,-80.5
1733053261249843120,1733053261249541997,9,0.71,-0.87,0.61,3.4333413333333334,-78.72,-80.58
1733053261349775042,1733053261349500656,9,0.71,-0.87,0.61,3.4333413333333334,-78.63,-80.72
1733053261449704665,1733053261449436664,9,0.71,-0.87,0.61,3.427087333333333,-78.89,-80.55
1733053261549351923,1733053261549007892,9,0.71,-0.87,0.61,3.4208336666666668,-79.24,-80.8
1733053261649715613,1733053261649385690,9,0.71,-0.87,0.61,3.408326,-78.94,-80.89
1733053261750155077,1733053261749577999,9,0.71,-0.87,0.61,3.389564666666667,-79.2,-81.2
1733053261849389183,1733053261849208116,9,0.71,-0.87,0.61,3.389564666666667,-78.79,-80.57
1733053261949559971,1733053261949266672,9,0.71,-0.87,0.61,3.3833106666666666,-79.04,-80.86
1733053262050087996,1733053262049706220,9,0.71,-0.87,0.61,3.389564333333333,-78.77,-80.58
1733053262149812933,1733053262149691820,9,0.71,-0.87,0.61,3.3708026666666666,-79.25,-81.06
1733053262249498754,1733053262249164819,9,0.71,-0.87,0.61,3.3958180000000002,-78.83,-81.06
1733053262349731466,1733053262349458217,9,0.71,-0.87,0.61,3.4020720000000004,-78.97,-80.76
1733053262449761378,1733053262449550390,9,0.71,-0.87,0.61,3.4208336666666668,-79.17,-81.07
1733053262549653841,1733053262549419879,9,0.71,-0.87,0.61,3.4020723333333334,-79.1,-80.91
1733053262650009775,1733053262649712085,9,0.71,-0.87,0.61,3.408326,-79.33,-81.05
1733053262749745061,1733053262749482393,9,0.71,-0.87,0.61,3.427087333333333,-78.73,-80.61
1733053262851258815,1733053262851140975,9,0.71,-0.87,0.61,3.427087333333333,-78.98,-80.66
1733053262951314784,1733053262951187610,9,0.71,-0.87,0.61,3.4145796666666666,-78.93,-80.71
1733053263050961032,1733053263050710678,9,0.71,-0.87,0.61,3.408326,-79.14,-81.12
1733053263150700166,1733053263150480031,9,0.71,-0.87,0.61,3.4208336666666668,-79.11,-80.84
1733053263249518627,1733053263249176025,9,0.71,-0.87,0.61,3.4458490000000004,-79.19,-80.99
1733053263350145991,1733053263349734306,9,0.71,-0.87,0.61,3.4208336666666668,-79.27,-81.07
1733053263448423544,1733053263447923421,9,0.71,-0.87,0.61,3.4145796666666666,-79.05,-80.69
1733053263548265435,1733053263547893762,9,0.71,-0.87,0.61,3.408326,-78.62,-80.43
1733053263648250634,1733053263647896528,9,0.71,-0.87,0.61,3.4145796666666666,-78.95,-80.66
1733053263748324948,1733053263747893571,9,0.71,-0.87,0.61,3.4333413333333334,-79.04,-80.62
1733053263848296582,1733053263847913980,9,0.71,-0.87,0.61,3.427087333333333,-79.03,-80.73
1733053263948296339,1733053263947917938,9,0.71,-0.87,0.61,3.4208336666666668,-79.09,-80.83
1733053264048275103,1733053264047895193,9,0.71,-0.87,0.61,3.4208336666666668,-79.14,-80.94
1733053264148448286,1733053264147905111,9,0.71,-0.87,0.61,3.395818333333333,-79.29,-81.07
1733053264248453083,1733053264247938871,9,0.71,-0.87,0.61,3.4145796666666666,-78.95,-80.98
1733053264348306598,1733053264347902059,9,0.71,-0.87,0.61,3.414579666666667,-78.86,-80.54
1733053264448625322,1733053264448019027,9,0.71,-0.87,0.61,3.427087333333333,-79.19,-81.0
1733053264548251298,1733053264547914266,9,0.71,-0.87,0.61,3.4333413333333334,-79.01,-80.68
1733053264649155037,1733053264647925138,9,0.71,-0.87,0.61,3.4145796666666666,-78.79,-80.7
1733053264748742761,1733053264748211860,9,0.71,-0.87,0.61,3.439595,-78.94,-80.64
1733053264848373910,1733053264847950696,9,0.71,-0.87,0.61,3.4083256666666664,-79.29,-81.08
1733053264948413533,1733053264947929620,9,0.71,-0.87,0.61,3.439594666666667,-78.96,-80.9
1733053265048338615,1733053265047951459,9,0.71,-0.87,0.61,3.408325666666667,-79.03,-81.09
1733053265148358475,1733053265147908449,9,0.71,-0.87,0.61,3.427087333333334,-79.05,-80.62
1733053265248261316,1733053265247884511,9,0.71,-0.87,0.61,3.3833106666666666,-79.04,-81.07
1733053265348164125,1733053265347897529,9,0.71,-0.87,0.61,3.408326,-79.0,-80.45
1733053265448693692,1733053265447923183,9,0.71,-0.87,0.61,3.3833106666666666,-78.9,-80.5
1733053265548412846,1733053265547901391,9,0.71,-0.87,0.61,3.3708033333333334,-78.99,-80.51
1733053265948257559,1733053265947904109,9,0.71,-0.87,0.61,3.3207723333333337,-79.02,-80.67
1733053266048234645,1733053266047896146,9,0.71,-0.87,0.61,3.3145186666666664,-78.89,-80.45
1733053266148179286,1733053266147908449,9,0.71,-0.87,0.61,3.327026333333333,-78.79,-80.52
1733053266248149543,1733053266247949600,9,0.71,-0.87,0.61,3.3457876666666664,-78.86,-80.55
1733053266351509739,1733053266351285457,9,0.71,-0.87,0.61,3.345787666666667,-78.8,-80.42
1733053266450862845,1733053266450680494,9,0.71,-0.87,0.61,3.345787666666667,-79.1,-80.75
1733053266551281656,1733053266551173210,9,0.71,-0.87,0.61,3.3457876666666664,-79.0,-80.47
1733053266651402192,1733053266651191234,9,0.71,-0.87,0.61,3.3520413333333337,-79.02,-80.46
1733053266751026950,1733053266750883817,9,0.71,-0.87,0.61,3.3395336666666666,-79.48,-81.09
1733053266851071907,1733053266850854396,9,0.71,-0.87,0.61,3.314518666666667,-79.26,-80.65
1733053266951246371,1733053266951141119,9,0.71,-0.87,0.61,3.3020113333333327,-79.08,-80.73
1733053267051241039,1733053267051072359,9,0.71,-0.87,0.61,3.314519,-79.12,-80.89
1733053267150273980,1733053267150125503,9,0.71,-0.87,0.61,3.333280333333333,-79.14,-80.61
1733053267250595935,1733053267250262022,9,0.71,-0.87,0.61,3.327026333333333,-78.77,-80.4
1733053267351171813,1733053267350939035,9,0.71,-0.87,0.61,3.3207726666666666,-79.22,-81.18
1733053267450839398,1733053267450661897,9,0.71,-0.87,0.61,3.327026333333333,-79.0,-80.93
1733053267551085498,1733053267551008224,9,0.71,-0.87,0.61,3.3520416666666666,-78.84,-80.8
1733053267651936180,1733053267651677846,9,0.71,-0.87,0.61,3.389564333333334,-78.84,-80.73
1733053267750297412,1733053267750065326,9,0.71,-0.87,0.61,3.408326,-78.94,-80.64
1733053267849452779,1733053267849120140,9,0.71,-0.87,0.61,3.4458486666666666,-78.81,-80.48
1733053267949225098,1733053267949081420,9,0.71,-0.87,0.61,3.4646100000000004,-78.44,-80.32
1733053268050371134,1733053268049972772,9,0.71,-0.87,0.61,3.477117666666667,-78.81,-80.55
1733053268149580181,1733053268149471282,9,0.71,-0.87,0.61,3.4958793333333333,-78.62,-80.36
1733053268249564604,1733053268249266624,9,0.71,-0.87,0.61,3.5271486666666667,-78.63,-80.46
1733053268350481269,1733053268350022077,9,0.71,-0.87,0.61,3.6084480000000005,-79.08,-80.73
1733053268450106679,1733053268449881076,9,0.71,-0.87,0.61,3.6397169999999996,-78.96,-80.53
1733053268549775785,1733053268549587726,9,0.71,-0.87,0.61,3.6772396666666665,-78.72,-80.43
1733053268650351989,1733053268649802923,9,0.71,-0.87,0.61,3.6709859999999996,-78.76,-81.1
1733053268749809519,1733053268749463796,9,0.71,-0.87,0.61,3.7147626666666667,-78.82,-80.77
1733053268849569292,1733053268849273681,9,0.71,-0.87,0.61,3.7647933333333334,-78.91,-80.87
1733053268949547616,1733053268949270486,9,0.71,-0.87,0.61,3.833585333333333,-78.94,-80.94
1733053269049535356,1733053269049199104,9,0.71,-0.87,0.61,3.9023773333333334,-79.01,-80.65
1733053269149778236,1733053269149475097,9,0.71,-0.87,0.61,3.9524076666666663,-78.71,-80.45
1733053269249347840,1733053269249146461,9,0.71,-0.87,0.61,4.014945666666667,-78.99,-80.7
1733053269349814710,1733053269349617719,9,0.71,-0.87,0.61,4.077483666666667,-78.86,-80.46
1733053269449326407,1733053269449125289,9,0.71,-0.87,0.61,4.165037,-79.19,-80.95
1733053269549490367,1733053269549273490,9,0.71,-0.87,0.61,4.233829,-78.94,-80.52
1733053269649456443,1733053269649131298,9,0.71,-0.87,0.61,4.277605666666666,-78.51,-80.45
1733053269749960740,1733053269749552726,9,0.71,-0.87,0.61,4.352651333333333,-78.89,-80.72
1733053269849865860,1733053269849591493,9,0.71,-0.87,0.61,4.534011666666666,-79.07,-80.66
1733053269949754568,1733053269949466466,9,0.71,-0.87,0.61,4.590296,-79.03,-80.84
1733053270049507607,1733053270049218893,9,0.71,-0.87,0.61,4.6528339999999995,-79.09,-80.86
1733053270149720232,1733053270149315595,9,0.71,-0.87,0.61,4.734133666666668,-78.83,-80.81
1733053270249568085,1733053270249384403,9,0.71,-0.87,0.61,4.815433333333334,-79.08,-81.14
1733053270348198750,1733053270347870826,9,0.71,-0.87,0.61,4.921748,-78.7,-80.95
1733053270448235821,1733053270447930574,9,0.71,-0.87,0.61,4.99054,-78.66,-80.61
1733053270548456047,1733053270547906637,9,0.71,-0.87,0.61,5.109362333333333,-78.96,-80.62
1733053270648368454,1733053270647904396,9,0.71,-0.87,0.61,5.2094233333333335,-79.16,-80.8
1733053270748478610,1733053270747885227,9,0.71,-0.87,0.61,5.328245333333334,-78.59,-80.36
1733053270848391567,1733053270847909212,9,0.71,-0.87,0.61,5.384529333333333,-78.95,-80.88
1733053270948279135,1733053270947902679,9,0.71,-0.87,0.61,5.465828666666667,-78.96,-80.54
1733053271049918493,1733053271049607515,9,0.71,-0.87,0.61,5.528367,-78.96,-80.77
1733053271149819871,1733053271149466037,9,0.71,-0.87,0.61,5.615920333333334,-79.05,-80.83
1733053271249357972,1733053271249079704,9,0.71,-0.87,0.61,5.684712333333333,-79.21,-80.74
1733053271349563793,1733053271349169492,9,0.71,-0.87,0.61,5.784773333333333,-78.62,-80.49
1733053271748301725,1733053271747912883,9,0.71,-0.87,0.61,6.253809333333334,-79.35,-81.16
1733053271848366113,1733053271847908258,9,0.71,-0.87,0.61,6.341362666666666,-78.64,-80.42
1733053271949765856,1733053271949367523,9,0.71,-0.87,0.61,6.441423666666666,-79.15,-80.81
1733053272049869075,1733053272049553632,9,0.71,-0.87,0.61,6.560246,-79.35,-81.14
1733053272148306418,1733053272147930145,9,0.71,-0.87,0.61,6.660307,-78.82,-80.45
1733053272248307440,1733053272247911214,9,0.71,-0.87,0.61,6.716591333333334,-78.91,-80.59
1733053272351366900,1733053272351269483,9,0.71,-0.87,0.61,6.8416673333333335,-79.15,-80.87
1733053272451619095,1733053272451395511,9,0.71,-0.87,0.61,6.9667433333333335,-79.01,-80.71
1733053272551218462,1733053272551034927,9,0.71,-0.87,0.61,7.110580666666666,-79.18,-80.62
1733053272650904788,1733053272650823593,9,0.71,-0.87,0.61,7.223149333333333,-80.03,-80.87
1733053272751490609,1733053272751311063,9,0.71,-0.87,0.61,7.335718,-79.63,-80.62
1733053272851313114,1733053272850872516,9,0.71,-0.87,0.61,7.4420329999999995,-79.98,-81.35
1733053272951048171,1733053272950782775,9,0.71,-0.87,0.61,7.554601666666667,-80.03,-80.59
1733053273051126042,1733053273050975561,9,0.71,-0.87,0.61,7.673424,-80.24,-82.11
1733053273148374050,1733053273147984027,9,0.71,-0.87,0.61,7.7985,-80.16,-81.16
1733053273248434367,1733053273247902393,9,0.71,-0.87,0.61,7.873545666666668,-80.76,-81.23
1733053273348297828,1733053273347883939,9,0.71,-0.87,0.61,7.954845333333334,-79.92,-80.75
1733053273448437460,1733053273447909116,9,0.71,-0.87,0.61,8.061160333333333,-79.54,-80.53
1733053273548262835,1733053273547888278,9,0.71,-0.87,0.61,8.192490333333334,-79.86,-81.0
1733053273648226458,1733053273647888898,9,0.71,-0.87,0.61,8.342582,-79.44,-80.6
1733053273748295245,1733053273747938632,9,0.71,-0.87,0.61,8.486419666666666,-79.3,-80.7
1733053273848525493,1733053273848052263,9,0.71,-0.87,0.61,8.617749666666667,-79.43,-81.02
1733053273951544305,1733053273951263189,9,0.71,-0.87,0.61,8.742825666666667,-79.34,-80.61
1733053274051500225,1733053274051353454,9,0.71,-0.87,0.61,8.874155666666667,-79.63,-80.98
1733053274157289043,1733053274157135963,9,0.71,-0.87,0.61,9.005485666666667,-79.21,-80.72
1733053274251468591,1733053274251219749,9,0.71,-0.87,0.61,9.136815666666669,-79.43,-80.94
1733053274351194373,1733053274350992441,9,0.71,-0.87,0.61,9.255638,-79.37,-80.71
1733053274451464947,1733053274451273918,9,0.71,-0.87,0.61,9.368206666666666,-79.58,-80.88
1733053274551057209,1733053274550832033,9,0.71,-0.87,0.61,9.462013666666666,-79.68,-81.0
1733053274651386462,1733053274651153802,9,0.71,-0.87,0.61,9.580836,-79.12,-80.38
1733053274751343469,1733053274751150131,9,0.71,-0.87,0.61,9.705912,-79.24,-80.53
1733053274851764189,1733053274851353883,9,0.71,-0.87,0.61,9.824734333333332,-79.55,-80.74
1733053274950579745,1733053274950365066,9,0.71,-0.87,0.61,9.924795333333334,-79.59,-80.61
1733053275050334529,1733053275050107955,9,0.71,-0.87,0.61,10.043618,-79.76,-80.9
1733053275150728082,1733053275150547266,9,0.71,-0.87,0.61,10.162440333333334,-79.98,-81.21
1733053275250682038,1733053275250385761,9,0.71,-0.87,0.61,10.312531666666667,-80.38,-81.31
1733053275349350171,1733053275349250555,9,0.71,-0.87,0.61,10.443861333333333,-81.01,-81.28
1733053275451068930,1733053275450738191,9,0.71,-0.87,0.61,10.575191666666667,-80.45,-81.05
1733053275550787348,1733053275550549507,9,0.71,-0.87,0.61,10.687760666666668,-80.73,-81.55
1733053275650549549,1733053275650289297,9,0.71,-0.87,0.61,10.787822,-80.89,-81.44
1733053275750163352,1733053275749998807,9,0.71,-0.87,0.61,10.975436000000002,-81.49,-82.03
1733053275850669659,1733053275850368738,9,0.71,-0.87,0.61,11.100511666666668,-81.7,-83.76
1733053275950836219,1733053275950487136,9,0.71,-0.87,0.61,11.256856666666666,-82.14,-84.83
1733053276050338237,1733053276050078630,9,0.71,-0.87,0.61,11.331902333333332,-82.45,-82.96
1733053276150553982,1733053276150229215,9,0.71,-0.87,0.61,11.469486333333334,-82.42,-82.48
1733053276250465359,1733053276250111579,9,0.71,-0.87,0.61,11.582054999999999,-82.04,-84.05
1733053276349643666,1733053276349443435,9,0.71,-0.87,0.61,11.707131333333335,-81.97,-83.02
1733053276450010004,1733053276449753522,9,0.71,-0.87,0.61,11.813446333333333,-81.78,-83.28
1733053276550195168,1733053276549758672,9,0.71,-0.87,0.61,11.932268333333333,-81.27,-81.64
1733053276649910198,1733053276649541616,9,0.71,-0.87,0.61,12.051090666666667,-82.19,-82.11
1733053276750355758,1733053276749907493,9,0.71,-0.87,0.61,12.169913,-80.94,-81.25
1733053276850295652,1733053276849671840,9,0.71,-0.87,0.61,12.313750666666666,-80.77,-81.52
1733053276949164918,1733053276949077129,9,0.71,-0.87,0.61,12.445080666666668,-80.53,-80.81
1733053277049562795,1733053277048997402,9,0.71,-0.87,0.61,12.607679666666668,-80.56,-80.89
1733053277149207207,1733053277148890256,9,0.71,-0.87,0.61,12.726502333333334,-80.15,-81.27
1733053277249937226,1733053277249773502,9,0.71,-0.87,0.61,12.864086333333333,-80.66,-81.2
1733053277751414658,1733053277751084327,9,0.71,-0.87,0.61,13.433182,-80.12,-80.99
1733053277850579659,1733053277850357770,9,0.71,-0.87,0.61,13.558258333333335,-79.95,-80.64
1733053277950728870,1733053277950397968,9,0.71,-0.87,0.61,13.695842333333333,-80.06,-80.69
1733053278051159581,1733053278051005363,9,0.71,-0.87,0.61,13.839680000000001,-79.78,-80.85
1733053278148459725,1733053278147886991,9,0.71,-0.87,0.61,13.958502333333334,-80.11,-80.91
1733053278248293072,1733053278247881650,9,0.71,-0.87,0.61,14.071070999999998,-80.2,-81.19
1733053278349448806,1733053278349198818,9,0.71,-0.87,0.61,14.189893666666668,-79.67,-80.61
1733053279048260237,1733053279047907114,9,0.71,-0.87,0.61,14.996635333333332,-80.1,-80.94
1733053279148466144,1733053279147891044,9,0.71,-0.87,0.61,15.165488000000002,-79.86,-80.51
1733053279248224690,1733053279247880935,9,0.71,-0.87,0.61,15.278056333333334,-79.83,-80.72
1733053279350763612,1733053279350607872,9,0.71,-0.87,0.61,15.546970333333334,-80.29,-81.17
1733053279450913129,1733053279450710296,9,0.71,-0.87,0.61,15.684554,-80.21,-81.46
1733053279549478043,1733053279549171924,9,0.71,-0.87,0.61,15.822137666666668,-80.72,-81.01
1733053279648387744,1733053279647916793,9,0.71,-0.87,0.61,15.953466999999998,-80.46,-81.26
1733053279748388731,1733053279748003005,9,0.71,-0.87,0.61,16.078542666666667,-79.92,-80.66
1733053279848486209,1733053279847908496,9,0.71,-0.87,0.61,16.191110666666663,-80.17,-81.28
1733053279951255103,1733053279951022863,9,0.71,-0.87,0.61,16.29742566666667,-80.26,-81.21
1733053280050902969,1733053280050699949,9,0.71,-0.87,0.61,16.428756333333336,-80.07,-80.72
1733053280151312901,1733053280151116847,9,0.71,-0.87,0.61,16.566340333333333,-80.42,-81.47
1733053280251320206,1733053280251080036,9,0.71,-0.87,0.61,16.71643166666667,-80.65,-81.02
1733053280350870707,1733053280350681543,9,0.71,-0.87,0.61,16.847761333333334,-80.85,-81.19
1733053280450974151,1733053280450690746,9,0.71,-0.87,0.61,16.966583333333332,-80.85,-81.49
1733053280551911099,1733053280550993204,9,0.71,-0.87,0.61,17.079151666666665,-80.66,-81.08
1733053280650930891,1733053280650760889,9,0.71,-0.87,0.61,17.204228,-80.83,-81.21
1733053280750826511,1733053280750683546,9,0.71,-0.87,0.61,17.335558666666667,-80.46,-80.97
1733053280850945929,1733053280850718975,9,0.71,-0.87,0.61,17.491904,-80.64,-80.85
1733053280950979453,1733053280950783967,9,0.71,-0.87,0.61,17.635741666666664,-80.97,-81.21
1733053281050979528,1733053281050736427,9,0.71,-0.87,0.61,17.742056,-81.01,-81.24
1733053281151128558,1733053281150839328,9,0.71,-0.87,0.61,17.867132333333334,-80.89,-80.89
1733053281251443446,1733053281251150846,9,0.71,-0.87,0.61,18.00471566666667,-81.67,-81.56
1733053281348399439,1733053281347929954,9,0.71,-0.87,0.61,18.154807333333334,-81.65,-81.95
1733053281448184829,1733053281447905302,9,0.71,-0.87,0.61,18.273629666666668,-81.22,-81.33
1733053281548262088,1733053281547933101,9,0.71,-0.87,0.61,18.373690666666665,-81.74,-82.14
1733053281648320671,1733053281647965431,9,0.71,-0.87,0.61,18.498767,-81.38,-81.71
1733053281748295917,1733053281747935771,9,0.71,-0.87,0.61,18.617589666666664,-81.87,-81.8
1733053281848420629,1733053281847914457,9,0.71,-0.87,0.61,18.755173666666668,-82.07,-82.26
1733053281948328079,1733053281947919368,9,0.71,-0.87,0.61,18.892757,-81.95,-83.37
1733053282048316509,1733053282047902107,9,0.71,-0.87,0.61,19.024086666666665,-82.11,-82.52
1733053282148289943,1733053282147906064,9,0.71,-0.87,0.61,19.174177666666665,-82.19,-84.48
1733053282248303400,1733053282247861862,9,0.71,-0.87,0.61,19.286746333333337,-82.76,-82.97
1733053282348239931,1733053282347904205,9,0.71,-0.87,0.61,19.424330333333334,-83.01,-83.76
1733053282448494734,1733053282447904825,9,0.71,-0.87,0.61,19.536899000000002,-82.98,-84.88
1733053282548258591,1733053282547922611,9,0.71,-0.87,0.61,19.686990666666667,-83.75,-86.08
1733053282649373810,1733053282649158477,9,0.71,-0.87,0.61,19.799559333333335,-84.63,-87.31
1733053282748313618,1733053282747912645,9,0.71,-0.87,0.61,19.93089,-83.71,-86.09
1733053282848209409,1733053282847924709,9,0.71,-0.87,0.61,20.03720433333333,-85.17,-86.48
1733053282948224263,1733053282947922706,9,0.71,-0.87,0.61,20.181042,-85.28,-87.65
1733053283048311151,1733053283047938823,9,0.71,-0.87,0.61,20.28735633333333,-87.27,-91.27
1733053283148308827,1733053283147935152,9,0.71,-0.87,0.61,20.418686333333333,-86.35,-87.32
1733053283248120366,1733053283247896432,9,0.71,-0.87,0.61,20.531254999999998,-90.32,-91.31
1733053283348514640,1733053283347893476,9,0.71,-0.87,0.61,20.668839000000002,-86.95,-89.75
1733053283449064785,1733053283448870897,9,0.71,-0.87,0.61,20.793915333333334,-89.27,-89.92
1733053283549414395,1733053283549174070,9,0.71,-0.87,0.61,20.918991333333334,-88.24,-89.49
1733053283649255709,1733053283648985147,9,0.71,-0.87,0.61,21.031559666666666,-87.99,-89.45
1733053283749007478,1733053283748827219,9,0.71,-0.87,0.61,21.15038233333333,-88.2,-89.89
1733053283849518883,1733053283849246740,9,0.71,-0.87,0.61,21.300473666666665,-88.19,-90.94
1733053283948952195,1733053283948852777,9,0.71,-0.87,0.61,21.42555,-89.21,-91.73
1733053284048255974,1733053284047904253,9,0.71,-0.87,0.61,21.55062633333333,-88.84,-91.07
1733053284148027338,1733053284147891044,9,0.71,-0.87,0.61,21.644433666666668,-88.59,-91.65
1733053284248096783,1733053284247942924,9,0.71,-0.87,0.61,21.782017,-89.59,-94.22
1733053284348256667,1733053284347890615,9,0.71,-0.87,0.61,21.888331333333337,-90.06,-92.93
1733053284448384505,1733053284447904586,9,0.71,-0.87,0.61,22.02591533333333,-89.42,-95.03
1733053284548331765,1733053284547901868,9,0.71,-0.87,0.61,22.138484000000002,-90.06,-91.46
1733053284649092530,1733053284648751974,9,0.71,-0.87,0.61,22.29482933333333,-88.8,-90.84
1733053284749098360,1733053284748917579,9,0.71,-0.87,0.61,22.43866633333333,-91.13,-92.24
1733053284849408192,1733053284849219083,9,0.71,-0.87,0.61,22.551235000000002,-89.11,-92.63
1733053285249848846,1733053285249515771,9,0.71,-0.87,0.61,22.970240999999998,-88.84,-90.3
1733053285349302631,1733053285349031925,9,0.71,-0.87,0.61,23.089063,-88.02,-89.27
1733053285448085476,1733053285447878837,9,0.71,-0.87,0.61,23.207885,-87.39,-90.25
1733053285548201850,1733053285547908067,9,0.71,-0.87,0.61,23.339215,-89.64,-90.97
1733053285651190096,1733053285651000976,9,0.71,-0.87,0.61,23.50806833333333,-90.09,-91.23
1733053285749705120,1733053285749380350,9,0.71,-0.87,0.61,23.67692166666667,-88.2,-89.76
1733053285849595780,1733053285849337339,9,0.71,-0.87,0.61,23.808251333333335,-88.48,-89.87
1733053285949618385,1733053285949476957,9,0.71,-0.87,0.61,23.939581,-86.21,-90.03
1733053286049456458,1733053286049266338,9,0.71,-0.87,0.61,24.077164999999997,-86.78,-88.3
1733053286149529067,1733053286149198532,9,0.71,-0.87,0.61,24.233510666666664,-87.04,-88.12
1733053286249809791,1733053286249457359,9,0.71,-0.87,0.61,24.352332666666666,-86.91,-87.32
1733053286349429740,1733053286349145412,9,0.71,-0.87,0.61,24.471154666666667,-87.06,-88.34
1733053286449547968,1733053286449199914,9,0.71,-0.87,0.61,24.602484333333337,-87.37,-87.78
1733053286549476894,1733053286549214363,9,0.71,-0.87,0.61,24.715052999999997,-86.93,-88.2
1733053286649727545,1733053286649378538,9,0.71,-0.87,0.61,24.852637,-85.6,-86.76
1733053286749446712,1733053286749170541,9,0.71,-0.87,0.61,24.996474666666668,-85.79,-87.09
1733053286849680403,1733053286849172830,9,0.71,-0.87,0.61,25.171581333333336,-85.98,-85.78
1733053286950095696,1733053286949700117,9,0.71,-0.87,0.61,25.296657,-85.5,-86.4
1733053287049835482,1733053287049265861,9,0.71,-0.87,0.61,25.39671766666667,-85.82,-86.97
1733053287149233593,1733053287149035215,9,0.71,-0.87,0.61,25.490525,-85.09,-85.89
1733053287249256142,1733053287249081134,9,0.71,-0.87,0.61,25.590586333333334,-85.9,-88.07
1733053287349363841,1733053287349215030,9,0.71,-0.87,0.61,25.709409333333337,-86.32,-86.28
1733053287449331979,1733053287449133634,9,0.71,-0.87,0.61,25.821977666666665,-85.17,-86.36
1733053287549703247,1733053287549506902,9,0.71,-0.87,0.61,25.953307666666664,-83.99,-85.24
1733053287649604429,1733053287649312496,9,0.71,-0.87,0.61,26.065876,-84.02,-85.27
1733053287749583149,1733053287749335527,9,0.71,-0.87,0.61,26.184699,-84.08,-84.82
1733053287849425843,1733053287849135875,9,0.71,-0.87,0.61,26.472374000000002,-84.06,-85.4
1733053287949282463,1733053287948910474,9,0.71,-0.87,0.61,26.597449666666666,-83.88,-83.91
1733053288049654646,1733053288049380779,9,0.71,-0.87,0.61,26.703764666666668,-83.93,-84.39
1733053288149381801,1733053288149138212,9,0.71,-0.87,0.61,26.791317666666668,-91.66,-85.33
1733053288249195830,1733053288249091863,9,0.71,-0.87,0.61,26.922648,-83.48,-85.8
1733053288349418788,1733053288349206686,9,0.71,-0.87,0.61,27.041470333333333,-84.34,-84.39
1733053288449374517,1733053288449030876,9,0.71,-0.87,0.61,27.154038999999997,-84.27,-85.01
1733053288550083489,1733053288549904823,9,0.71,-0.87,0.61,27.254099666666665,-84.51,-87.15
1733053288650082327,1733053288649906158,9,0.71,-0.87,0.61,27.335399,-83.46,-85.76
1733053288750408505,1733053288750125646,9,0.71,-0.87,0.61,27.385429333333335,-83.84,-85.83
1733053288849921508,1733053288849814176,9,0.71,-0.87,0.61,27.385429333333335,-83.67,-85.37
1733053288950390461,1733053288949943065,9,0.71,-0.87,0.61,27.372921666666667,-83.86,-84.07
1733053289050145978,1733053289049953460,9,0.71,-0.87,0.61,27.366668,-83.74,-84.58
1733053289149390015,1733053289149106264,9,0.71,-0.87,0.61,27.360414000000002,-83.33,-83.54
1733053289249177101,1733053289248969078,9,0.71,-0.87,0.61,27.379176,-84.15,-86.67
1733053289349244658,1733053289348954200,9,0.71,-0.87,0.61,27.404190999999997,-83.9,-84.07
1733053289449303205,1733053289449075460,9,0.71,-0.87,0.61,27.466729,-83.03,-83.25
1733053289549288006,1733053289549020051,9,0.71,-0.87,0.61,27.51675933333333,-83.47,-85.98
1733053289649306224,1733053289649210453,9,0.71,-0.87,0.61,27.566790333333334,-84.18,-83.98
1733053289749092931,1733053289748923301,9,0.71,-0.87,0.61,27.573044666666664,-85.25,-86.12
1733053289849853712,1733053289849087953,9,0.71,-0.87,0.61,27.585552333333336,-87.23,-90.58
1733053289949118726,1733053289948940277,9,0.71,-0.87,0.61,27.591806000000002,-86.32,-87.14
1733053290049736733,1733053290048985242,9,0.71,-0.87,0.61,27.62932866666667,-86.34,-90.56
1733053290151216590,1733053290151004552,9,0.71,-0.87,0.61,27.64809,-86.42,-86.44
1733053290250888802,1733053290250683069,9,0.71,-0.87,0.61,27.654343666666666,-86.02,-89.02
1733053290350077054,1733053290349867582,9,0.71,-0.87,0.61,27.623074666666668,-86.68,-87.55
1733053290450848066,1733053290450552940,9,0.71,-0.87,0.61,27.623074666666668,-85.28,-86.34
1733053290550136035,1733053290550043106,9,0.71,-0.87,0.61,27.610567333333336,-86.26,-86.98
1733053290650321364,1733053290650081872,9,0.71,-0.87,0.61,27.629328666666666,-86.4,-86.71
1733053290748357936,1733053290747905969,9,0.71,-0.87,0.61,27.610567333333336,-86.46,-86.73
1733053290848518121,1733053290847943782,9,0.71,-0.87,0.61,27.616821,-86.75,-87.39
1733053291248277590,1733053291247912645,9,0.71,-0.87,0.61,27.58555166666667,-86.81,-88.08
1733053291348176891,1733053291347923994,9,0.71,-0.87,0.61,27.560536,-86.06,-86.24
1733053291448126224,1733053291447891235,9,0.71,-0.87,0.61,27.52301266666667,-85.25,-86.26
1733053291548304562,1733053291547897100,9,0.71,-0.87,0.61,27.504251333333332,-86.04,-87.79
1733053291648381782,1733053291647932767,9,0.71,-0.87,0.61,27.466728666666665,-85.47,-86.85
1733053291751260837,1733053291751103401,9,0.71,-0.87,0.61,27.447967333333334,-84.39,-84.98
1733053291850769134,1733053291850680828,9,0.71,-0.87,0.61,27.391683333333333,-84.95,-86.23
1733053291951323394,1733053291951219558,9,0.71,-0.87,0.61,27.33539966666667,-84.65,-85.98
1733053292050872998,1733053292050740718,9,0.71,-0.87,0.61,27.285369333333335,-84.95,-87.44
1733053292151069251,1733053292150958061,9,0.71,-0.87,0.61,27.260354000000003,-84.4,-85.69
1733053292251465496,1733053292251197099,9,0.71,-0.87,0.61,27.222830666666667,-84.78,-86.2
1733053292350825838,1733053292350636482,9,0.71,-0.87,0.61,27.17280033333333,-84.78,-86.61
1733053292450678760,1733053292450526237,9,0.71,-0.87,0.61,27.10400866666667,-85.06,-87.21
1733053292550968463,1733053292550826549,9,0.71,-0.87,0.61,27.041470333333336,-84.89,-86.09
1733053292650754430,1733053292650578260,9,0.71,-0.87,0.61,26.985185666666666,-84.97,-87.11
1733053292750600469,1733053292750464439,9,0.71,-0.87,0.61,26.922647333333334,-85.15,-86.14
1733053292850851504,1733053292850631475,9,0.71,-0.87,0.61,26.872617,-85.52,-86.83
1733053292950662721,1733053292950553178,9,0.71,-0.87,0.61,26.810079,-84.66,-85.32
1733053293050693577,1733053293050494670,9,0.71,-0.87,0.61,26.797571333333337,-84.55,-86.71
1733053293150768188,1733053293150546789,9,0.71,-0.87,0.61,26.716272000000004,-85.61,-86.01
1733053293281120364,1733053293280996084,9,0.71,-0.87,0.61,26.628719,-85.45,-86.07
1733053293351000803,1733053293350813627,9,0.71,-0.87,0.61,26.534911666666662,-85.73,-86.32
1733053293450744743,1733053293450615882,9,0.71,-0.87,0.61,26.50364233333333,-85.16,-86.27
1733053293551128745,1733053293550945997,9,0.71,-0.87,0.61,26.472373333333334,-85.62,-86.55
1733053293650302124,1733053293650118827,9,0.71,-0.87,0.61,26.359804999999998,-85.8,-87.3
1733053293750193691,1733053293749888658,9,0.71,-0.87,0.61,26.278505666666664,-86.76,-88.24
1733053293849428269,1733053293849054813,9,0.71,-0.87,0.61,26.172190666666665,-85.06,-87.41
1733053293949986933,1733053293949835300,9,0.71,-0.87,0.61,26.12841366666667,-85.65,-87.3
1733053294050298588,1733053294050133943,9,0.71,-0.87,0.61,26.059622,-86.15,-88.06
1733053294150191599,1733053294149968862,9,0.71,-0.87,0.61,25.98457666666667,-86.54,-87.19
1733053294250579709,1733053294250182151,9,0.71,-0.87,0.61,25.897023666666666,-86.47,-87.09
1733053294350199920,1733053294349711656,9,0.71,-0.87,0.61,25.803216333333335,-86.88,-88.66
1733053294449450392,1733053294449174880,9,0.71,-0.87,0.61,25.728170333333335,-86.85,-87.59
1733053294549364429,1733053294549059391,9,0.71,-0.87,0.61,25.640617333333335,-86.51,-87.11
1733053294649781139,1733053294649570465,9,0.71,-0.87,0.61,25.540556666666664,-86.47,-87.22
1733053294749400818,1733053294749296426,9,0.71,-0.87,0.61,25.453003,-86.39,-87.1
1733053294849614998,1733053294849290847,9,0.71,-0.87,0.61,25.377957,-85.95,-87.66
1733053294949341111,1733053294949144124,9,0.71,-0.87,0.61,25.309164666666664,-86.04,-88.31
1733053295049583225,1733053295049395561,9,0.71,-0.87,0.61,25.234119333333336,-86.14,-88.27
1733053295149531419,1733053295149131774,9,0.71,-0.87,0.61,25.109043333333332,-87.44,-90.87
1733053295249440354,1733053295249073266,9,0.71,-0.87,0.61,25.015236,-86.65,-89.56
1733053295349476985,1733053295349223375,9,0.71,-0.87,0.61,24.89641333333333,-86.67,-89.06
1733053295449390156,1733053295449136495,9,0.71,-0.87,0.61,24.827621333333337,-87.08,-89.49
1733053295549517377,1733053295549195528,9,0.71,-0.87,0.61,24.733815000000003,-87.23,-90.18
1733053295649657227,1733053295649416923,9,0.71,-0.87,0.61,24.658769666666668,-86.59,-90.06
1733053295749551353,1733053295749422788,9,0.71,-0.87,0.61,24.577470333333338,-87.46,-89.24
1733053295849288853,1733053295848984718,9,0.71,-0.87,0.61,24.471155333333332,-87.73,-91.55
1733053295949533885,1733053295949170827,9,0.71,-0.87,0.61,24.346079000000003,-88.67,-90.55
1733053296049442335,1733053296049066781,9,0.71,-0.87,0.61,24.23351033333333,-87.7,-91.1
1733053296148504486,1733053296147907733,9,0.71,-0.87,0.61,24.127195333333333,-88.01,-91.96
1733053296248319903,1733053296247946262,9,0.71,-0.87,0.61,24.039641666666665,-86.88,-91.9
1733053296348917912,1733053296347911834,9,0.71,-0.87,0.61,23.92707333333333,-86.63,-91.64
1733053296449449465,1733053296449163675,9,0.71,-0.87,0.61,23.714444666666665,-89.0,-92.69
1733053296749498555,1733053296749303340,9,0.71,-0.87,0.61,23.545591333333334,-90.34,-93.97
1733053296849079490,1733053296848795175,9,0.71,-0.87,0.61,23.395499333333333,-90.03,-92.9
1733053296949111244,1733053296948812484,9,0.71,-0.87,0.61,23.239154,-88.6,-94.86
1733053297049001399,1733053297048823595,9,0.71,-0.87,0.61,23.16410833333333,-89.53,-93.86
1733053297150237811,1733053297149795055,9,0.71,-0.87,0.61,23.070301333333333,-90.16,-94.81
1733053297249443100,1733053297249177455,9,0.71,-0.87,0.61,22.945224999999997,-89.31,-95.81
1733053297351284724,1733053297350916147,9,0.71,-0.87,0.61,22.832656333333333,-88.71,-95.51
1733053297450526644,1733053297450052261,9,0.71,-0.87,0.61,22.713834000000002,-88.58,-96.15
1733053297549193731,1733053297548981904,9,0.71,-0.87,0.61,22.645042333333333,-87.17,-93.29
1733053297650184488,1733053297649933338,9,0.71,-0.87,0.61,22.532473999999997,-90.33,-95.56
1733053297750720615,1733053297750402212,9,0.71,-0.87,0.61,22.432413333333333,-88.41,-92.27
1733053297850320367,1733053297849129915,9,0.71,-0.87,0.61,22.319845,-88.79,-92.44
1733053297949319064,1733053297949120759,9,0.71,-0.87,0.61,22.23229166666667,-87.9,-94.53
1733053298049193755,1733053298049000740,9,0.71,-0.87,0.61,22.119722999999997,-88.82,-91.25
1733053298149492035,1733053298149146795,9,0.71,-0.87,0.61,22.000900333333334,-88.7,-91.06
1733053298249950269,1733053298249059677,9,0.71,-0.87,0.61,21.894585666666668,-87.2,-91.67
1733053298349333637,1733053298349142313,9,0.71,-0.87,0.61,21.788270666666666,-86.87,-93.05
1733053298449249392,1733053298449060678,9,0.71,-0.87,0.61,21.706971,-86.14,-88.68
1733053298549450327,1733053298549179077,9,0.71,-0.87,0.61,21.588148666666665,-86.56,-93.1
1733053298649311023,1733053298649055242,9,0.71,-0.87,0.61,21.48183366666667,-85.19,-91.2
1733053298749316680,1733053298749176502,9,0.71,-0.87,0.61,21.350504,-85.76,-89.09
1733053298849562424,1733053298849197864,9,0.71,-0.87,0.61,21.250442666666668,-85.04,-88.71
1733053298949490942,1733053298949262619,9,0.71,-0.87,0.61,21.137874333333333,-86.63,-90.68
1733053299049282766,1733053299048992156,9,0.71,-0.87,0.61,21.025305666666664,-83.67,-86.51
1733053299449753267,1733053299449385166,9,0.71,-0.87,0.61,20.600047,-84.32,-88.36
1733053299549563789,1733053299549222946,9,0.71,-0.87,0.61,20.462463,-84.23,-87.12
1733053299649416269,1733053299649127006,9,0.71,-0.87,0.61,20.343641,-84.2,-85.24
1733053299749799388,1733053299749501705,9,0.71,-0.87,0.61,20.21856466666667,-84.49,-87.67
1733053299848224196,1733053299847900629,9,0.71,-0.87,0.61,20.137265,-83.56,-85.04
1733053299948608911,1733053299947963237,9,0.71,-0.87,0.61,19.962158333333335,-83.68,-86.71
1733053300048405196,1733053300047881126,9,0.71,-0.87,0.61,19.868351333333333,-83.48,-86.2
1733053300148523888,1733053300147875785,9,0.71,-0.87,0.61,19.774544666666667,-84.08,-86.22
1733053300248191403,1733053300247895717,9,0.71,-0.87,0.61,19.60569166666667,-83.65,-83.75
1733053300348120149,1733053300347925186,9,0.71,-0.87,0.61,19.461854,-82.97,-83.09
1733053300448572539,1733053300447901487,9,0.71,-0.87,0.61,19.355539,-82.57,-82.87
1733053300548551775,1733053300547892570,9,0.71,-0.87,0.61,19.236717,-82.48,-84.64
1733053300648338274,1733053300647914171,9,0.71,-0.87,0.61,19.142909666666664,-82.32,-84.78
1733053300748621660,1733053300747914314,9,0.71,-0.87,0.61,19.024086999999998,-82.61,-83.47
1733053300848238838,1733053300847903251,9,0.71,-0.87,0.61,18.94278733333333,-80.86,-81.19
1733053300948208412,1733053300947899580,9,0.71,-0.87,0.61,18.823965333333334,-81.6,-81.63
1733053301048245484,1733053301047899484,9,0.71,-0.87,0.61,18.71139666666667,-81.29,-81.63
1733053301148250367,1733053301147890090,9,0.71,-0.87,0.61,18.548797333333333,-81.64,-82.12
1733053301248291033,1733053301247887611,9,0.71,-0.87,0.61,18.404959666666667,-81.27,-83.22
1733053301351003663,1733053301350764989,9,0.71,-0.87,0.61,18.273629666666668,-80.94,-81.24
1733053301450381825,1733053301450095176,9,0.71,-0.87,0.61,18.173568666666668,-80.74,-80.96
1733053301550363781,1733053301550165414,9,0.71,-0.87,0.61,18.079761333333334,-81.11,-81.33
1733053301648317280,1733053301647886276,9,0.71,-0.87,0.61,17.92967033333333,-80.8,-81.08
1733053301748367631,1733053301747972011,9,0.71,-0.87,0.61,17.792087,-80.73,-81.28
1733053301849831882,1733053301849360704,9,0.71,-0.87,0.61,17.660757333333333,-80.65,-81.16
1733053301949549024,1733053301949228763,9,0.71,-0.87,0.61,17.573203666666668,-80.61,-81.07
1733053302049706016,1733053302049217462,9,0.71,-0.87,0.61,17.460635,-80.34,-80.98
1733053302149403149,1733053302149038553,9,0.71,-0.87,0.61,17.360573666666667,-80.89,-81.22
1733053302249535942,1733053302249115467,9,0.71,-0.87,0.61,17.260513000000003,-80.77,-81.1
1733053302349312500,1733053302349122524,9,0.71,-0.87,0.61,17.154198000000004,-80.26,-80.71
1733053302448225750,1733053302447902679,9,0.71,-0.87,0.61,17.016614333333333,-80.1,-81.73
1733053302649416476,1733053302649137258,9,0.71,-0.87,0.61,16.835254000000003,-79.84,-80.71
1733053302749322684,1733053302749080419,9,0.71,-0.87,0.61,16.66014733333333,-80.56,-81.22
1733053302850497645,1733053302850306510,9,0.71,-0.87,0.61,16.485040666666666,-80.39,-81.1
1733053302981230759,1733053302980961084,9,0.71,-0.87,0.61,16.366218,-80.25,-81.0
1733053303050968481,1733053303050698041,9,0.71,-0.87,0.61,16.253649666666664,-79.85,-81.4
1733053303150856717,1733053303150767087,9,0.71,-0.87,0.61,16.14733466666667,-79.77,-80.72
1733053303250598894,1733053303250503540,9,0.71,-0.87,0.61,16.028512666666668,-79.68,-80.61
1733053303349377749,1733053303349035978,9,0.71,-0.87,0.61,15.922198000000002,-80.39,-81.08
1733053303449279547,1733053303449012279,9,0.71,-0.87,0.61,15.80963,-80.25,-81.39
1733053303549371801,1733053303549157142,9,0.71,-0.87,0.61,15.697061666666668,-80.21,-81.14
1733053303648289023,1733053303647907257,9,0.71,-0.87,0.61,15.559478,-79.85,-80.55
1733053303748793692,1733053303747923612,9,0.71,-0.87,0.61,15.434402,-79.6,-80.77
1733053303848425757,1733053303847903966,9,0.71,-0.87,0.61,15.321833,-79.38,-80.6
1733053303948361862,1733053303947901248,9,0.71,-0.87,0.61,15.215518333333334,-79.75,-80.91
1733053304048320205,1733053304047881364,9,0.71,-0.87,0.61,15.090442000000001,-79.85,-81.01
1733053304148260637,1733053304147937774,9,0.71,-0.87,0.61,14.971620000000001,-79.67,-80.79
1733053304248372370,1733053304247913837,9,0.71,-0.87,0.61,14.846543666666667,-79.58,-80.92
1733053304348181147,1733053304347882986,9,0.71,-0.87,0.61,14.752736333333333,-79.34,-80.69
1733053304448165441,1733053304447898626,9,0.71,-0.87,0.61,14.652675333333335,-79.71,-80.66
1733053304548358123,1733053304547926902,9,0.71,-0.87,0.61,14.571375666666668,-80.02,-80.71
1733053304648209266,1733053304647897958,9,0.71,-0.87,0.61,14.49633,-79.99,-80.74
1733053304749440140,1733053304749085664,9,0.71,-0.87,0.61,14.402522666666668,-80.0,-80.67
1733053305250614526,1733053305250335693,9,0.71,-0.87,0.61,13.97101,-80.32,-80.94
1733053305350620988,1733053305350357532,9,0.71,-0.87,0.61,13.895964666666666,-80.06,-81.39
1733053305450535768,1733053305450337648,9,0.71,-0.87,0.61,13.814665333333332,-79.96,-81.24
1733053305550723740,1733053305550542593,9,0.71,-0.87,0.61,13.752127,-80.03,-81.55
1733053306050999735,1733053306050647258,9,0.71,-0.87,0.61,13.420675333333334,-80.99,-81.28
1733053306150914672,1733053306150644063,9,0.71,-0.87,0.61,13.351883333333333,-81.04,-82.03
1733053306250973391,1733053306250744819,9,0.71,-0.87,0.61,13.364391,-81.16,-81.25
1733053306349581243,1733053306349196434,9,0.71,-0.87,0.61,13.333121666666665,-81.91,-83.09
1733053306449520668,1733053306449202775,9,0.71,-0.87,0.61,13.301852666666667,-81.17,-82.08
1733053306549302199,1733053306549056053,9,0.71,-0.87,0.61,13.251821999999999,-81.21,-81.76
1733053306649656541,1733053306649351596,9,0.71,-0.87,0.61,13.201791333333333,-81.37,-82.13
1733053306749510376,1733053306749197721,9,0.71,-0.87,0.61,13.189284,-81.52,-82.18
1733053306849841774,1733053306849276781,9,0.71,-0.87,0.61,13.139253666666667,-81.86,-82.2
1733053306949681457,1733053306949341297,9,0.71,-0.87,0.61,13.126746333333335,-81.55,-82.83
1733053307049395607,1733053307049050569,9,0.71,-0.87,0.61,13.120492333333331,-81.65,-82.1
1733053307149244551,1733053307149000644,9,0.71,-0.87,0.61,13.120492333333333,-81.69,-81.91
1733053307249266673,1733053307249052047,9,0.71,-0.87,0.61,13.107984666666667,-81.19,-81.5
1733053307349534919,1733053307349265813,9,0.71,-0.87,0.61,13.089222999999999,-82.07,-84.01
1733053307449350031,1733053307449027538,9,0.71,-0.87,0.61,13.070461666666667,-82.58,-82.47
1733053307549201111,1733053307549007177,9,0.71,-0.87,0.61,13.039192333333332,-82.8,-84.53
1733053307649481914,1733053307649017333,9,0.71,-0.87,0.61,12.945385333333334,-81.93,-82.87
1733053307749361188,1733053307749067068,9,0.71,-0.87,0.61,12.920370333333333,-83.41,-83.87
1733053307849361446,1733053307849039554,9,0.71,-0.87,0.61,12.932878333333333,-82.88,-84.74
1733053307949201539,1733053307948942422,9,0.71,-0.87,0.61,12.932878333333333,-84.28,-83.64
1733053308049837331,1733053308049386024,9,0.71,-0.87,0.61,12.932878333333335,-83.04,-83.35
1733053308149155316,1733053308148969650,9,0.71,-0.87,0.61,12.907862666666666,-84.19,-85.23
1733053308249337033,1733053308249064207,9,0.71,-0.87,0.61,12.914116,-83.05,-82.69
1733053308379861221,1733053308379702568,9,0.71,-0.87,0.61,12.914116,-85.03,-84.76
1733053308449224930,1733053308449043750,9,0.71,-0.87,0.61,12.907862666666666,-83.45,-85.89
1733053308549364760,1733053308549110174,9,0.71,-0.87,0.61,12.907862666666666,-83.43,-83.59
1733053308649184950,1733053308649020910,9,0.71,-0.87,0.61,12.870339666666666,-82.52,-83.8
1733053308749041765,1733053308748819351,9,0.71,-0.87,0.61,12.814055333333334,-82.06,-82.3
1733053308849308358,1733053308849111795,9,0.71,-0.87,0.61,12.782786333333334,-80.62,-81.49
1733053308949019341,1733053308948879241,9,0.71,-0.87,0.61,12.739009666666666,-80.96,-82.72
1733053309049080228,1733053309048891067,9,0.71,-0.87,0.61,12.713994,-80.98,-81.49
1733053309149083795,1733053309148841619,9,0.71,-0.87,0.61,12.638948333333332,-81.31,-81.46
1733053309249766100,1733053309249357938,9,0.71,-0.87,0.61,12.632694666666666,-80.43,-80.62
1733053309350245581,1733053309349381923,9,0.71,-0.87,0.61,12.638948666666666,-80.27,-81.12
1733053309449289979,1733053309449032783,9,0.71,-0.87,0.61,12.676471666666666,-81.63,-81.47
1733053309549261923,1733053309548999071,9,0.71,-0.87,0.61,12.670217666666666,-80.61,-81.26
1733053309649373859,1733053309649282217,9,0.71,-0.87,0.61,12.663963666666666,-81.47,-81.38
1733053309748216443,1733053309747937440,9,0.71,-0.87,0.61,12.632694666666666,-80.95,-81.58
1733053309849201834,1733053309848931074,9,0.71,-0.87,0.61,12.613933333333334,-80.55,-80.94
1733053309949116722,1733053309948950052,9,0.71,-0.87,0.61,12.588918333333334,-81.0,-81.15
1733053310249476868,1733053310249233245,9,0.71,-0.87,0.61,12.538888,-81.18,-81.21
1733053310349209261,1733053310348897218,9,0.71,-0.87,0.61,12.438827333333334,-80.71,-81.2
1733053310449442074,1733053310449064254,9,0.71,-0.87,0.61,12.351273999999998,-80.87,-81.5
1733053310548269250,1733053310547918319,9,0.71,-0.87,0.61,12.288735666666666,-80.52,-81.26
1733053310651615911,1733053310651481628,9,0.71,-0.87,0.61,12.282481666666667,-80.92,-81.41
1733053310751374690,1733053310751096248,9,0.71,-0.87,0.61,12.244959,-80.61,-81.15
1733053310848325269,1733053310847887516,9,0.71,-0.87,0.61,12.21369,-80.98,-81.1
1733053310948288275,1733053310947889089,9,0.71,-0.87,0.61,12.151152000000002,-81.19,-81.3
1733053311048490317,1733053311047924280,9,0.71,-0.87,0.61,12.076106000000001,-80.81,-81.45
1733053311148166748,1733053311147953748,9,0.71,-0.87,0.61,12.019821666666667,-81.11,-81.17
1733053311248189127,1733053311247916221,9,0.71,-0.87,0.61,11.963537333333335,-81.4,-81.86
1733053311348441254,1733053311347905874,9,0.71,-0.87,0.61,11.907252999999999,-82.63,-82.86
1733053311448168024,1733053311447902917,9,0.71,-0.87,0.61,11.825953666666665,-81.63,-82.19
1733053311548309844,1733053311547900199,9,0.71,-0.87,0.61,11.750908,-81.62,-81.78
1733053311648350291,1733053311647881031,9,0.71,-0.87,0.61,11.682116333333333,-81.46,-82.42
1733053311748393660,1733053311747884511,9,0.71,-0.87,0.61,11.600816333333333,-81.99,-81.8
1733053311849311677,1733053311849096298,9,0.71,-0.87,0.61,11.507009333333334,-81.51,-81.44
1733053311950013003,1733053311949780225,9,0.71,-0.87,0.61,11.438217333333334,-83.49,-85.48
1733053312050738055,1733053312050398826,9,0.71,-0.87,0.61,11.350664333333333,-81.7,-81.59
1733053312150182337,1733053312150000333,9,0.71,-0.87,0.61,11.263111,-82.25,-82.81
1733053312250757034,1733053312250433683,9,0.71,-0.87,0.61,11.138034666666668,-81.43,-81.37
1733053312352040520,1733053312351816892,9,0.71,-0.87,0.61,11.025466,-81.22,-81.19
1733053312450107388,1733053312449896812,9,0.71,-0.87,0.61,10.937912666666668,-81.27,-81.5
1733053312550442045,1733053312550146579,9,0.71,-0.87,0.61,10.850359333333335,-81.04,-81.62
1733053312649361221,1733053312649165630,9,0.71,-0.87,0.61,10.762806333333335,-80.85,-81.27
1733053312748049804,1733053312747894763,9,0.71,-0.87,0.61,10.587699666666666,-81.3,-81.66
1733053312848265703,1733053312847908973,9,0.71,-0.87,0.61,10.493892333333333,-80.72,-81.46
1733053312948259884,1733053312947900056,9,0.71,-0.87,0.61,10.393831666666665,-81.08,-81.41
1733053313048268172,1733053313047895669,9,0.71,-0.87,0.61,10.281263000000001,-80.45,-80.68
1733053313151173726,1733053313150965929,9,0.71,-0.87,0.61,10.162440666666667,-80.5,-81.1
1733053313251460937,1733053313251248121,9,0.71,-0.87,0.61,10.049872,-80.22,-80.95
1733053313381485838,1733053313381192684,9,0.71,-0.87,0.61,9.924796,-80.22,-81.32
1733053313451335908,1733053313451034784,9,0.71,-0.87,0.61,9.837242666666668,-79.95,-81.03
1733053314048454032,1733053314047923803,9,0.71,-0.87,0.61,9.180592333333333,-79.76,-80.74
1733053314148208776,1733053314147869348,9,0.71,-0.87,0.61,9.068023666666667,-79.5,-80.8
1733053314250920135,1733053314250801324,9,0.71,-0.87,0.61,8.930439666666667,-79.54,-80.45
1733053314351325928,1733053314351152420,9,0.71,-0.87,0.61,8.849140333333333,-79.47,-80.57
1733053314450890314,1733053314450597047,9,0.71,-0.87,0.61,8.717810333333334,-79.46,-80.45
1733053314550204400,1733053314550033330,9,0.71,-0.87,0.61,8.655272333333334,-79.6,-80.48
1733053314650493576,1733053314650234222,9,0.71,-0.87,0.61,8.530196000000002,-79.68,-80.59
1733053314750276962,1733053314750177860,9,0.71,-0.87,0.61,8.417627333333334,-80.17,-80.97
1733053314850109230,1733053314849983692,9,0.71,-0.87,0.61,8.280043333333332,-79.77,-80.62
1733053314949179605,1733053314948984384,9,0.71,-0.87,0.61,8.142459666666667,-79.63,-80.49
1733053315050330035,1733053315050109624,9,0.71,-0.87,0.61,8.061160333333333,-79.72,-80.63
1733053315148214594,1733053315147900581,9,0.71,-0.87,0.61,7.9548456666666665,-79.56,-80.53
1733053315248205280,1733053315247918128,9,0.71,-0.87,0.61,7.873546,-80.11,-80.99
1733053315348337161,1733053315347906827,9,0.71,-0.87,0.61,7.735962000000001,-80.22,-81.32
1733053315448214251,1733053315447885513,9,0.71,-0.87,0.61,7.604632,-80.14,-80.66
1733053315548053640,1733053315547889471,9,0.71,-0.87,0.61,7.504571000000001,-80.01,-80.77
1733053315649063401,1733053315648890256,9,0.71,-0.87,0.61,7.398256333333333,-80.46,-81.29
1733053315748351136,1733053315747922420,9,0.71,-0.87,0.61,7.298195333333333,-81.22,-81.46
1733053315849428612,1733053315849105119,9,0.71,-0.87,0.61,7.173119333333333,-80.14,-81.07
1733053315948305288,1733053315947914600,9,0.71,-0.87,0.61,7.073058333333333,-80.12,-80.94
1733053316048201097,1733053316047910451,9,0.71,-0.87,0.61,6.979251333333333,-79.81,-80.68
1733053316148243088,1733053316147957563,9,0.71,-0.87,0.61,6.866682666666667,-79.32,-80.52
1733053316251409660,1733053316250754117,9,0.71,-0.87,0.61,6.729099000000001,-79.71,-80.79
1733053316350102282,1733053316349972963,9,0.71,-0.87,0.61,6.604022666666666,-79.22,-80.68
1733053316450012778,1733053316449891805,9,0.71,-0.87,0.61,6.485200333333332,-79.37,-80.47
1733053316550769952,1733053316550230503,9,0.71,-0.87,0.61,6.410154333333334,-78.85,-80.48
1733053316650070370,1733053316649917602,9,0.71,-0.87,0.61,6.2850779999999995,-79.81,-80.92
1733053316750353395,1733053316750081777,9,0.71,-0.87,0.61,6.172509333333333,-79.57,-80.57
1733053316850276495,1733053316850191354,9,0.71,-0.87,0.61,6.047433333333333,-80.01,-80.74
1733053316949220436,1733053316948973655,9,0.71,-0.87,0.61,5.959880000000001,-80.05,-80.83
1733053317050295816,1733053317050062656,9,0.71,-0.87,0.61,5.853565333333333,-80.65,-80.99
1733053317150092911,1733053317149732351,9,0.71,-0.87,0.61,5.753504333333333,-80.48,-82.47
1733053317250292314,1733053317249991178,9,0.71,-0.87,0.61,5.628428333333333,-81.13,-82.73
1733053317349799836,1733053317349678516,9,0.71,-0.87,0.61,5.503352,-80.47,-82.38
1733053317450170617,1733053317449972629,9,0.71,-0.87,0.61,5.378275666666666,-79.52,-81.1
1733053317550253234,1733053317550055980,9,0.71,-0.87,0.61,5.271960666666667,-79.38,-80.79
1733053317650200817,1733053317649954319,9,0.71,-0.87,0.61,5.1593919999999995,-79.1,-80.76
1733053317750221754,1733053317749989986,9,0.71,-0.87,0.61,5.0468236666666675,-79.1,-80.75
1733053317850701105,1733053317850545644,9,0.71,-0.87,0.61,4.953016666666667,-79.2,-80.89
1733053317950415115,1733053317950142621,9,0.71,-0.87,0.61,4.865463666666667,-79.13,-80.54
1733053318049920830,1733053318049690008,9,0.71,-0.87,0.61,4.752895,-78.92,-81.2
1733053318150034372,1733053318149864435,9,0.71,-0.87,0.61,4.640326666666667,-79.47,-82.04
1733053318250166315,1733053318250023603,9,0.71,-0.87,0.61,4.502742666666667,-79.25,-81.44
1733053318379949990,1733053318379673004,9,0.71,-0.87,0.61,4.377666666666667,-78.76,-81.43
1733053318449981016,1733053318449717998,9,0.71,-0.87,0.61,4.252590333333333,-78.75,-80.95
1733053318550173157,1733053318549988746,9,0.71,-0.87,0.61,4.133768,-79.12,-81.0
1733053318649781874,1733053318649655342,9,0.71,-0.87,0.61,4.021199333333333,-78.92,-80.51
1733053318749941455,1733053318749861717,9,0.71,-0.87,0.61,3.883615333333333,-79.01,-80.98
1733053318850163615,1733053318849999427,9,0.71,-0.87,0.61,3.7585390000000003,-78.79,-80.55
1733053318950205364,1733053318950115919,9,0.71,-0.87,0.61,3.6522243333333333,-78.91,-80.5
1733053319049780116,1733053319049615383,9,0.71,-0.87,0.61,3.583432666666667,-78.66,-80.46
1733053319149264897,1733053319148983478,9,0.71,-0.87,0.61,3.489625666666667,-78.68,-80.71
1733053319249223902,1733053319249015331,9,0.71,-0.87,0.61,3.408326,-78.9,-80.59
1733053319349389598,1733053319348986864,9,0.71,-0.87,0.61,3.295757333333333,-78.57,-80.38
1733053319449142269,1733053319448930025,9,0.71,-0.87,0.61,3.233219333333333,-78.84,-80.61
1733053319549222688,1733053319549055337,9,0.71,-0.87,0.61,3.1269046666666664,-78.96,-80.42
1733053319649292971,1733053319649095058,9,0.71,-0.87,0.61,3.0643666666666665,-78.74,-80.47
1733053319749185726,1733053319748959541,9,0.71,-0.87,0.61,2.983067,-79.03,-80.52
1733053320148295991,1733053320147896766,9,0.71,-0.87,0.61,2.757929666666666,-78.96,-80.78
1733053320248420117,1733053320247986793,9,0.71,-0.87,0.61,2.739168333333333,-78.91,-80.69
1733053320348613126,1733053320347954511,9,0.71,-0.87,0.61,2.7141533333333334,-78.66,-80.57
1733053320448526405,1733053320447888374,9,0.71,-0.87,0.61,2.6766306666666666,-79.03,-80.73
1733053320550123248,1733053320549947738,9,0.71,-0.87,0.61,2.664123,-78.56,-80.81
1733053320648372312,1733053320647885799,9,0.71,-0.87,0.61,2.6516153333333334,-79.01,-80.76
1733053320848035771,1733053320847908496,9,0.71,-0.87,0.61,2.6516153333333334,-79.05,-81.05
1733053320948055267,1733053320947890281,9,0.71,-0.87,0.61,2.657869,-78.74,-80.42
1733053321048128994,1733053321047874212,9,0.71,-0.87,0.61,2.7016456666666664,-78.93,-80.36
1733053321148276090,1733053321147884845,9,0.71,-0.87,0.61,2.75793,-79.35,-80.73
1733053321248305043,1733053321247974872,9,0.71,-0.87,0.61,2.826722,-79.09,-80.56
1733053321352067229,1733053321351583957,9,0.71,-0.87,0.61,2.8955140000000004,-78.92,-80.52
1733053321448520278,1733053321447997093,9,0.71,-0.87,0.61,2.9580520000000003,-79.1,-80.54
1733053321548140866,1733053321547876834,9,0.71,-0.87,0.61,3.058113,-78.57,-80.88
1733053321651930806,1733053321651706695,9,0.71,-0.87,0.61,3.120651,-78.94,-80.42
1733053321751140984,1733053321750660181,9,0.71,-0.87,0.61,3.214458,-78.57,-80.41
1733053321851116125,1733053321850914001,9,0.71,-0.87,0.61,3.370803,-78.54,-80.75
1733053321951357702,1733053321951213121,9,0.71,-0.87,0.61,3.427087333333333,-79.1,-81.1
1733053322051201919,1733053322051045656,9,0.71,-0.87,0.61,3.4833716666666668,-79.26,-80.95
1733053322150969607,1733053322150708675,9,0.71,-0.87,0.61,3.5459096666666667,-79.63,-81.12
1733053322251796942,1733053322251655817,9,0.71,-0.87,0.61,3.6397166666666667,-79.41,-80.88
1733053322351428038,1733053322351245641,9,0.71,-0.87,0.61,3.721016,-79.2,-80.57
1733053322448147770,1733053322447891950,9,0.71,-0.87,0.61,3.8273309999999996,-80.3,-81.3
1733053322548167959,1733053322547898769,9,0.71,-0.87,0.61,3.9273919999999998,-79.55,-80.67
1733053322648354465,1733053322647908926,9,0.71,-0.87,0.61,4.058722,-79.26,-80.99
1733053322748351217,1733053322747917890,9,0.71,-0.87,0.61,4.158783000000001,-79.8,-81.68
1733053322848291153,1733053322847915172,9,0.71,-0.87,0.61,4.233829,-80.77,-86.69
1733053322948201855,1733053322947894096,9,0.71,-0.87,0.61,4.327636333333333,-79.83,-82.01
1733053323048359434,1733053323047914266,9,0.71,-0.87,0.61,4.402682,-79.13,-80.63
1733053323148297518,1733053323147878408,9,0.71,-0.87,0.61,4.502742666666667,-79.28,-81.05
1733053323252441197,1733053323252214670,9,0.71,-0.87,0.61,4.559027,-78.83,-80.76
1733053323351063660,1733053323350937843,9,0.71,-0.87,0.61,4.6653416666666665,-78.8,-80.56
1733053323450910632,1733053323450746297,9,0.71,-0.87,0.61,4.746641333333333,-79.17,-81.09
1733053323551087641,1733053323550925970,9,0.71,-0.87,0.61,4.877971,-79.02,-80.75
1733053323650868404,1733053323650581836,9,0.71,-0.87,0.61,5.003047,-79.33,-80.76
1733053323750538184,1733053323750372648,9,0.71,-0.87,0.61,5.128123333333334,-80.28,-81.81
1733053323862474931,1733053323862008571,9,0.71,-0.87,0.61,5.184408,-82.25,-85.0
1733053323951329706,1733053323951176881,9,0.71,-0.87,0.61,5.234438666666667,-82.59,-88.03
1733053324051725497,1733053324051410913,9,0.71,-0.87,0.61,5.3219916666666665,-82.04,-84.78
1733053324151108825,1733053324150889873,9,0.71,-0.87,0.61,5.447067666666666,-80.87,-81.67
1733053324250815512,1733053324250612258,9,0.71,-0.87,0.61,5.597159,-80.61,-80.88
1733053324350765705,1733053324350625753,9,0.71,-0.87,0.61,5.703474,-80.12,-81.35
1733053324451055424,1733053324450882673,9,0.71,-0.87,0.61,5.809788666666667,-79.4,-80.85
1733053324550803393,1733053324550600767,9,0.71,-0.87,0.61,5.884834333333333,-79.68,-80.83
1733053324651461138,1733053324651291370,9,0.71,-0.87,0.61,5.991149,-79.96,-80.92
1733053324752371186,1733053324752114534,9,0.71,-0.87,0.61,6.103717666666667,-79.59,-80.97
1733053324851125691,1733053324850906372,9,0.71,-0.87,0.61,6.203778666666667,-80.02,-81.19
1733053324950563292,1733053324950358629,9,0.71,-0.87,0.61,6.322601,-80.8,-81.64
1733053325050668567,1733053325050533056,9,0.71,-0.87,0.61,6.441423333333333,-81.39,-83.49
1733053325150489211,1733053325150391101,9,0.71,-0.87,0.61,6.572753333333334,-83.12,-85.64
1733053325250489893,1733053325250272035,9,0.71,-0.87,0.61,6.660306666666667,-83.45,-89.39
1733053325350537356,1733053325350309133,9,0.71,-0.87,0.61,6.722844666666667,-86.41,-92.88
1733053325451015590,1733053325450868368,9,0.71,-0.87,0.61,6.822905666666666,-83.99,-88.93
1733053325550543671,1733053325550379753,9,0.71,-0.87,0.61,6.9667433333333335,-85.38,-86.22
1733053325650883778,1733053325650788784,9,0.71,-0.87,0.61,7.179373000000001,-83.36,-84.14
1733053325751916317,1733053325751164436,9,0.71,-0.87,0.61,7.335718333333333,-82.43,-82.62
1733053325851375452,1733053325851227045,9,0.71,-0.87,0.61,7.4670483333333335,-81.43,-81.92
1733053326048343245,1733053326047941207,9,0.71,-0.87,0.61,7.585870666666666,-82.73,-82.75
1733053326148258313,1733053326147940397,9,0.71,-0.87,0.61,7.729708,-81.32,-81.31
1733053326248168867,1733053326247903823,9,0.71,-0.87,0.61,7.917322333333334,-81.1,-81.18
1733053326348209573,1733053326347941875,9,0.71,-0.87,0.61,8.029891,-81.18,-81.16
1733053326448354551,1733053326447936058,9,0.71,-0.87,0.61,8.167475333333334,-80.51,-80.69
1733053326548250424,1733053326547898530,9,0.71,-0.87,0.61,8.242521,-80.42,-80.88
1733053326649189233,1733053326648884534,9,0.71,-0.87,0.61,8.386358666666666,-81.03,-80.9
1733053326749134442,1733053326748911142,9,0.71,-0.87,0.61,8.498927,-80.45,-80.82
1733053326850358667,1733053326850149393,9,0.71,-0.87,0.61,8.611495666666668,-79.93,-80.73
1733053326949985221,1733053326949859142,9,0.71,-0.87,0.61,8.717810333333334,-79.7,-80.55
1733053327050224583,1733053327049936532,9,0.71,-0.87,0.61,8.817871333333335,-80.08,-80.94
1733053327150024427,1733053327149884223,9,0.71,-0.87,0.61,8.967962666666667,-79.95,-80.56
1733053327249996322,1733053327249807834,9,0.71,-0.87,0.61,9.080531,-79.87,-80.97
1733053327349998634,1733053327349774599,9,0.71,-0.87,0.61,9.211861,-80.38,-80.9
1733053327450003366,1733053327449878215,9,0.71,-0.87,0.61,9.330683333333333,-81.0,-81.8
1733053327549857013,1733053327549688577,9,0.71,-0.87,0.61,9.474521000000001,-80.91,-81.27
1733053327649775937,1733053327649605751,9,0.71,-0.87,0.61,9.624612333333333,-80.56,-81.5
1733053327750152048,1733053327749962568,9,0.71,-0.87,0.61,9.749688666666666,-80.82,-81.44
1733053327849951897,1733053327849824190,9,0.71,-0.87,0.61,9.868511333333332,-80.79,-80.99
1733053327950328081,1733053327950050592,9,0.71,-0.87,0.61,9.993587333333332,-81.61,-81.94
1733053328049322054,1733053328048966646,9,0.71,-0.87,0.61,10.131171,-82.02,-82.23
1733053328149188601,1733053328148986816,9,0.71,-0.87,0.61,10.29377,-82.19,-83.28
1733053328249507538,1733053328249266624,9,0.71,-0.87,0.61,10.431354333333333,-82.96,-85.36
1733053328348123420,1733053328347892761,9,0.71,-0.87,0.61,10.568938000000001,-83.65,-84.74
1733053328448250620,1733053328447896003,9,0.71,-0.87,0.61,10.656491333333333,-84.73,-84.75
1733053328548471420,1733053328547901153,9,0.71,-0.87,0.61,10.781567,-85.07,-85.28
1733053328648433850,1733053328647920608,9,0.71,-0.87,0.61,10.869120333333333,-85.56,-87.28
1733053328748183505,1733053328747884035,9,0.71,-0.87,0.61,10.994196333333335,-85.07,-87.35
1733053328848216189,1733053328847875118,9,0.71,-0.87,0.61,11.100511333333335,-85.16,-86.9
1733053328951511491,1733053328951282501,9,0.71,-0.87,0.61,11.281872,-83.18,-85.04
1733053329050723673,1733053329050591945,9,0.71,-0.87,0.61,11.444471333333334,-82.45,-83.88
1733053329151202308,1733053329151045083,9,0.71,-0.87,0.61,11.588309,-82.53,-82.71
1733053329251027268,1733053329250902414,9,0.71,-0.87,0.61,11.694623666666667,-81.77,-83.71
1733053329351061629,1733053329350856542,9,0.71,-0.87,0.61,11.832207333333335,-81.67,-81.8
1733053329450835291,1733053329450624465,9,0.71,-0.87,0.61,11.976045,-81.12,-82.64
