%time,field.stamp,field.id,field.x,field.y,field.z,field.distanceFromTag,field.rssi,field.rssi_fp
1733129523610195333,1733129523609978199,5,-0.37,-0.13,1.39,4.565281,-79.85,-80.7
1733129523710189082,1733129523710019350,5,-0.37,-0.13,1.39,4.577788333333333,-79.37,-81.0
1733129523810035164,1733129523809905767,5,-0.37,-0.13,1.39,4.571534666666666,-78.94,-80.39
1733129523910228176,1733129523910044193,5,-0.37,-0.13,1.39,4.559027,-79.34,-80.73
1733129524009947957,1733129524009764194,5,-0.37,-0.13,1.39,4.5590269999999995,-79.01,-80.52
1733129524109223450,1733129524108958959,5,-0.37,-0.13,1.39,4.5902959999999995,-78.7,-80.48
1733129524209699275,1733129524209549427,5,-0.37,-0.13,1.39,4.596549666666666,-79.29,-80.82
1733129524308020922,1733129524307618618,5,-0.37,-0.13,1.39,4.5902959999999995,-78.9,-80.35
1733129524408018522,1733129524407620191,5,-0.37,-0.13,1.39,4.577788333333333,-79.11,-80.81
1733129524508784281,1733129524507617473,5,-0.37,-0.13,1.39,4.571534666666667,-79.33,-80.5
1733129524608233837,1733129524607673883,5,-0.37,-0.13,1.39,4.590296,-79.33,-80.66
1733129524708000729,1733129524707621812,5,-0.37,-0.13,1.39,4.577788333333333,-79.31,-80.91
1733129524807911635,1733129524807612657,5,-0.37,-0.13,1.39,4.584042,-78.85,-80.45
1733129524910440378,1733129524910358190,5,-0.37,-0.13,1.39,4.559027,-79.18,-80.65
1733129525009841979,1733129525009644508,5,-0.37,-0.13,1.39,4.5840423333333336,-79.44,-80.57
1733129525110077864,1733129525109814882,5,-0.37,-0.13,1.39,4.609057666666667,-78.96,-80.42
1733129525209817843,1733129525209575414,5,-0.37,-0.13,1.39,4.6340726666666665,-78.93,-80.45
1733129525307919853,1733129525307627439,5,-0.37,-0.13,1.39,4.627818666666667,-79.44,-80.67
1733129525407992121,1733129525407561540,5,-0.37,-0.13,1.39,4.5902959999999995,-79.29,-80.92
1733129525508099424,1733129525507661104,5,-0.37,-0.13,1.39,4.559027,-79.31,-80.69
1733129525609730682,1733129525609513282,5,-0.37,-0.13,1.39,4.5277579999999995,-79.1,-80.75
1733129525710075070,1733129525709804058,5,-0.37,-0.13,1.39,4.534011666666667,-78.84,-80.37
1733129525810308894,1733129525809921264,5,-0.37,-0.13,1.39,4.552773,-79.01,-80.56
1733129525910160432,1733129525909880638,5,-0.37,-0.13,1.39,4.559027,-78.96,-80.48
1733129526010005487,1733129526009709596,5,-0.37,-0.13,1.39,4.559027,-78.83,-80.4
1733129526110158438,1733129526109999656,5,-0.37,-0.13,1.39,4.546519666666666,-79.05,-80.45
1733129526209943543,1733129526209849596,5,-0.37,-0.13,1.39,4.5715346666666665,-79.35,-80.79
1733129526310090163,1733129526309947967,5,-0.37,-0.13,1.39,4.5840423333333336,-79.48,-80.68
1733129526409906889,1733129526409813642,5,-0.37,-0.13,1.39,4.6028036666666665,-79.01,-80.51
1733129526510060595,1733129526509665727,5,-0.37,-0.13,1.39,4.59655,-79.04,-80.43
1733129526610247201,1733129526610125064,5,-0.37,-0.13,1.39,4.59655,-79.16,-80.79
1733129526708965236,1733129526708862066,5,-0.37,-0.13,1.39,4.59655,-79.05,-80.63
1733129526809350419,1733129526809023857,5,-0.37,-0.13,1.39,4.6028036666666665,-79.3,-80.8
1733129526909361999,1733129526909035921,5,-0.37,-0.13,1.39,4.6215649999999995,-80.27,-80.84
1733129527009395903,1733129527008738040,5,-0.37,-0.13,1.39,4.615311,-79.06,-80.85
1733129527109284394,1733129527108897209,5,-0.37,-0.13,1.39,4.609057333333333,-78.92,-80.51
1733129527209205000,1733129527209006309,5,-0.37,-0.13,1.39,4.5902959999999995,-79.12,-80.71
1733129527309203551,1733129527308856725,5,-0.37,-0.13,1.39,4.6028036666666665,-79.22,-80.75
1733129527407908635,1733129527407594919,5,-0.37,-0.13,1.39,4.6153113333333335,-79.2,-80.54
1733129527509180106,1733129527508858919,5,-0.37,-0.13,1.39,4.6215649999999995,-79.45,-81.11
1733129527608968517,1733129527608762264,5,-0.37,-0.13,1.39,4.59655,-78.9,-80.57
1733129527709144008,1733129527708980321,5,-0.37,-0.13,1.39,4.5840423333333336,-78.99,-80.52
1733129527809537434,1733129527809351444,5,-0.37,-0.13,1.39,4.5840423333333336,-79.33,-80.46
1733129527908931901,1733129527908675432,5,-0.37,-0.13,1.39,4.6028036666666665,-78.99,-80.53
1733129528009263643,1733129528008960962,5,-0.37,-0.13,1.39,4.609057333333333,-79.58,-80.54
1733129528109156787,1733129528108822107,5,-0.37,-0.13,1.39,4.596549666666666,-79.16,-81.01
1733129528209921638,1733129528209767341,5,-0.37,-0.13,1.39,4.590295666666667,-80.04,-80.57
1733129528409303909,1733129528408922910,5,-0.37,-0.13,1.39,4.6028036666666665,-78.91,-80.59
1733129528509509279,1733129528509057521,5,-0.37,-0.13,1.39,4.59655,-78.9,-80.39
1733129528610021200,1733129528609802722,5,-0.37,-0.13,1.39,4.590296,-79.2,-80.7
1733129528710173698,1733129528709908246,5,-0.37,-0.13,1.39,4.577788333333333,-78.78,-80.38
1733129528809944044,1733129528809720277,5,-0.37,-0.13,1.39,4.5902959999999995,-79.09,-80.67
1733129528910582727,1733129528910332441,5,-0.37,-0.13,1.39,4.59655,-79.04,-80.7
1733129529008216879,1733129529007676124,5,-0.37,-0.13,1.39,4.5840423333333336,-79.72,-81.04
1733129529108094213,1733129529107558965,5,-0.37,-0.13,1.39,4.577788333333333,-78.81,-80.42
1733129529208192147,1733129529207642555,5,-0.37,-0.13,1.39,4.559027,-79.67,-80.63
1733129529307812232,1733129529307622671,5,-0.37,-0.13,1.39,4.559027,-79.24,-80.57
1733129529407913771,1733129529407607793,5,-0.37,-0.13,1.39,4.5715346666666665,-79.25,-80.63
1733129529507848547,1733129529507641553,5,-0.37,-0.13,1.39,4.5902959999999995,-78.94,-80.42
1733129529610858724,1733129529610667705,5,-0.37,-0.13,1.39,4.609057333333333,-78.96,-80.59
1733129529710837706,1733129529710599422,5,-0.37,-0.13,1.39,4.609057333333333,-78.81,-80.5
1733129529810879319,1733129529810601472,5,-0.37,-0.13,1.39,4.615311,-78.79,-80.73
1733129529910414959,1733129529910259962,5,-0.37,-0.13,1.39,4.609057333333333,-78.93,-80.49
1733129530010825175,1733129530010609149,5,-0.37,-0.13,1.39,4.6153113333333335,-79.29,-80.9
1733129530109041850,1733129530108773708,5,-0.37,-0.13,1.39,4.6153113333333335,-79.31,-80.79
1733129530209322277,1733129530208953857,5,-0.37,-0.13,1.39,4.6153113333333335,-78.98,-80.54
1733129530309147556,1733129530308734178,5,-0.37,-0.13,1.39,4.596549666666666,-78.86,-80.42
1733129530408201834,1733129530407618284,5,-0.37,-0.13,1.39,4.584041999999999,-79.08,-80.48
1733129530508163000,1733129530507683277,5,-0.37,-0.13,1.39,4.590295666666667,-78.96,-80.4
1733129530609174417,1733129530608973979,5,-0.37,-0.13,1.39,4.596549666666667,-79.4,-81.05
1733129530709317527,1733129530708976030,5,-0.37,-0.13,1.39,4.596549666666666,-79.17,-80.51
1733129530809076459,1733129530808899879,5,-0.37,-0.13,1.39,4.571534666666666,-78.98,-80.46
1733129530908816307,1733129530908704042,5,-0.37,-0.13,1.39,4.5402656666666665,-79.08,-80.49
1733129531009577455,1733129531009070634,5,-0.37,-0.13,1.39,4.546519666666666,-79.31,-80.61
1733129531108141564,1733129531107671022,5,-0.37,-0.13,1.39,4.565281,-79.14,-80.56
1733129531208179928,1733129531207621574,5,-0.37,-0.13,1.39,4.609057666666666,-79.39,-80.68
1733129531309395091,1733129531308976173,5,-0.37,-0.13,1.39,4.6153113333333335,-79.06,-80.53
1733129531409602486,1733129531409388780,5,-0.37,-0.13,1.39,4.6153113333333335,-78.99,-80.4
1733129531507976381,1733129531507608652,5,-0.37,-0.13,1.39,4.6028036666666665,-79.07,-80.68
1733129531609994090,1733129531609784841,5,-0.37,-0.13,1.39,4.5902959999999995,-79.03,-80.54
1733129531710032334,1733129531709901332,5,-0.37,-0.13,1.39,4.584041999999999,-79.5,-81.0
1733129531809281255,1733129531808870077,5,-0.37,-0.13,1.39,4.590295666666667,-78.96,-80.5
1733129531910376474,1733129531910188436,5,-0.37,-0.13,1.39,4.584042,-79.39,-81.02
1733129532010575543,1733129532010274887,5,-0.37,-0.13,1.39,4.596549666666667,-79.2,-80.56
1733129532110612763,1733129532110316276,5,-0.37,-0.13,1.39,4.6028036666666665,-79.2,-80.64
1733129532210772971,1733129532210560560,5,-0.37,-0.13,1.39,4.609057333333333,-79.12,-80.65
1733129532310772113,1733129532310550928,5,-0.37,-0.13,1.39,4.6153113333333335,-79.86,-80.63
1733129532411404994,1733129532411304473,5,-0.37,-0.13,1.39,4.596549666666666,-79.44,-80.85
1733129532510749037,1733129532510546684,5,-0.37,-0.13,1.39,4.609057333333333,-79.03,-80.49
1733129532610566854,1733129532610414743,5,-0.37,-0.13,1.39,4.596549666666667,-79.31,-80.82
1733129532710768907,1733129532710475683,5,-0.37,-0.13,1.39,4.577788333333333,-78.89,-80.37
1733129532810713119,1733129532810514211,5,-0.37,-0.13,1.39,4.5402656666666665,-79.45,-80.82
1733129532910549131,1733129532910413503,5,-0.37,-0.13,1.39,4.508996666666666,-79.23,-80.63
1733129533010524626,1733129533010363340,5,-0.37,-0.13,1.39,4.502743,-79.43,-80.77
1733129533110400904,1733129533110240459,5,-0.37,-0.13,1.39,4.4964889999999995,-79.1,-80.51
1733129533211193614,1733129533210914611,5,-0.37,-0.13,1.39,4.502742666666666,-78.95,-80.42
1733129533310444473,1733129533310310840,5,-0.37,-0.13,1.39,4.490235,-79.41,-81.06
1733129533410902366,1733129533410563468,5,-0.37,-0.13,1.39,4.502742666666667,-78.94,-80.63
1733129533508053464,1733129533507647752,5,-0.37,-0.13,1.39,4.490235,-78.81,-80.64
1733129533709922263,1733129533709472656,5,-0.37,-0.13,1.39,4.477727333333333,-78.82,-80.63
1733129533807982376,1733129533807671070,5,-0.37,-0.13,1.39,4.433950666666667,-79.08,-80.76
1733129533910022650,1733129533909908771,5,-0.37,-0.13,1.39,4.396428,-78.89,-81.96
1733129534011253707,1733129534011065006,5,-0.37,-0.13,1.39,4.377666666666667,-79.27,-80.65
1733129534110621536,1733129534110124111,5,-0.37,-0.13,1.39,4.358905333333333,-78.79,-81.4
1733129534211439643,1733129534211270809,5,-0.37,-0.13,1.39,4.340143666666667,-79.16,-80.69
1733129534310509137,1733129534310228586,5,-0.37,-0.13,1.39,4.327636,-78.87,-81.65
1733129534409842291,1733129534409614562,5,-0.37,-0.13,1.39,4.315128333333333,-78.86,-81.17
1733129534507995575,1733129534507652759,5,-0.37,-0.13,1.39,4.296367,-78.93,-81.2
1733129534608119724,1733129534607678174,5,-0.37,-0.13,1.39,4.265098,-78.62,-80.76
1733129534707990164,1733129534707625865,5,-0.37,-0.13,1.39,4.233829,-78.89,-80.69
1733129534808057639,1733129534807637453,5,-0.37,-0.13,1.39,4.208813666666667,-78.99,-80.89
1733129534907996766,1733129534907635211,5,-0.37,-0.13,1.39,4.177544666666667,-79.03,-80.69
1733129535008083608,1733129535007700443,5,-0.37,-0.13,1.39,4.152529333333333,-79.41,-80.43
1733129535108022493,1733129535107687950,5,-0.37,-0.13,1.39,4.140022,-79.35,-80.7
1733129535208115539,1733129535207670927,5,-0.37,-0.13,1.39,4.140022,-79.47,-80.8
1733129535307915698,1733129535307626008,5,-0.37,-0.13,1.39,4.127514333333334,-79.4,-80.79
1733129535407916336,1733129535407624721,5,-0.37,-0.13,1.39,4.108752666666668,-79.2,-80.62
1733129535508049606,1733129535507638216,5,-0.37,-0.13,1.39,4.108752666666667,-79.21,-80.73
1733129535608017895,1733129535607681035,5,-0.37,-0.13,1.39,4.127514333333334,-79.17,-80.44
1733129535708167102,1733129535707673788,5,-0.37,-0.13,1.39,4.140022,-79.46,-80.86
1733129535807951749,1733129535807638883,5,-0.37,-0.13,1.39,4.127514333333333,-79.23,-80.89
1733129535907898443,1733129535907627820,5,-0.37,-0.13,1.39,4.108752666666667,-79.25,-80.92
1733129536008057737,1733129536007648468,5,-0.37,-0.13,1.39,4.121260333333334,-79.16,-80.59
1733129536108072991,1733129536107639312,5,-0.37,-0.13,1.39,4.121260333333333,-79.52,-80.75
1733129536208005243,1733129536207632780,5,-0.37,-0.13,1.39,4.133768,-79.19,-80.98
1733129536307941715,1733129536307643890,5,-0.37,-0.13,1.39,4.121260333333333,-79.16,-80.7
1733129536409056280,1733129536408764600,5,-0.37,-0.13,1.39,4.152529333333333,-79.06,-80.8
1733129536509800970,1733129536509366750,5,-0.37,-0.13,1.39,4.177544666666667,-79.57,-81.21
1733129537908328955,1733129537907665252,5,-0.37,-0.13,1.39,4.702864666666667,-79.05,-80.8
1733129538010452329,1733129538010300159,5,-0.37,-0.13,1.39,4.746641333333333,-78.97,-80.67
1733129538109297495,1733129538109081506,5,-0.37,-0.13,1.39,4.827941,-79.89,-80.73
1733129538210901811,1733129538210712671,5,-0.37,-0.13,1.39,4.890479,-79.48,-80.97
1733129538309986625,1733129538309699058,5,-0.37,-0.13,1.39,4.953017,-79.03,-80.64
1733129538409341630,1733129538409034490,5,-0.37,-0.13,1.39,4.996793666666666,-78.91,-80.69
1733129538509056900,1733129538508824825,5,-0.37,-0.13,1.39,5.071839333333333,-79.0,-81.13
1733129538608978370,1733129538608670711,5,-0.37,-0.13,1.39,5.153138666666667,-79.13,-80.82
1733129538709027519,1733129538708901882,5,-0.37,-0.13,1.39,5.234438333333333,-78.8,-80.5
1733129538808945682,1733129538808743953,5,-0.37,-0.13,1.39,5.296976666666667,-79.04,-80.5
1733129538909933046,1733129538908842563,5,-0.37,-0.13,1.39,5.365768666666667,-78.95,-80.48
1733129539009160069,1733129539009060382,5,-0.37,-0.13,1.39,5.447067999999999,-79.2,-80.64
1733129539109018575,1733129539108826875,5,-0.37,-0.13,1.39,5.559636333333333,-79.15,-80.85
1733129539209083705,1733129539208863735,5,-0.37,-0.13,1.39,5.659697333333334,-79.14,-80.85
1733129539309117140,1733129539308850765,5,-0.37,-0.13,1.39,5.728489333333333,-78.86,-81.41
1733129539409054683,1733129539408798217,5,-0.37,-0.13,1.39,5.816042666666667,-79.07,-81.14
1733129539508993540,1733129539508763790,5,-0.37,-0.13,1.39,5.903596,-78.91,-80.69
1733129539609126219,1733129539608885049,5,-0.37,-0.13,1.39,6.109971333333334,-78.71,-80.63
1733129539709342991,1733129539708938121,5,-0.37,-0.13,1.39,6.203778333333333,-79.4,-80.93
1733129539808926379,1733129539808747768,5,-0.37,-0.13,1.39,6.291331666666667,-78.96,-80.58
1733129539908998671,1733129539908810377,5,-0.37,-0.13,1.39,6.385139,-79.18,-80.59
1733129540009102632,1733129540008766889,5,-0.37,-0.13,1.39,6.491454,-78.84,-80.83
1733129540109097493,1733129540108882904,5,-0.37,-0.13,1.39,6.591515,-79.57,-81.23
1733129540209047267,1733129540208809375,5,-0.37,-0.13,1.39,6.685321999999999,-78.8,-80.69
1733129540309070929,1733129540308808088,5,-0.37,-0.13,1.39,6.779129,-79.14,-80.73
1733129540408951217,1733129540408682823,5,-0.37,-0.13,1.39,6.885444,-79.38,-80.9
1733129540509262373,1733129540508742332,5,-0.37,-0.13,1.39,6.991758999999999,-79.44,-80.51
1733129540608867571,1733129540608711957,5,-0.37,-0.13,1.39,7.098073666666667,-79.13,-80.4
1733129540709087225,1733129540708755493,5,-0.37,-0.13,1.39,7.223149666666667,-79.47,-80.8
1733129540809037604,1733129540808858156,5,-0.37,-0.13,1.39,7.341971999999999,-79.45,-80.95
1733129540908890701,1733129540908728122,5,-0.37,-0.13,1.39,7.4545406666666665,-79.28,-81.24
1733129541009107291,1733129541008849382,5,-0.37,-0.13,1.39,7.554601666666667,-79.69,-83.03
1733129541109052507,1733129541108950614,5,-0.37,-0.13,1.39,7.685931666666666,-79.12,-82.02
1733129541208948110,1733129541208801269,5,-0.37,-0.13,1.39,7.817261666666667,-79.03,-81.0
1733129541308934909,1733129541308785676,5,-0.37,-0.13,1.39,7.9485920000000005,-78.68,-80.7
1733129541407983477,1733129541407625436,5,-0.37,-0.13,1.39,8.048653,-79.06,-80.72
1733129541507936843,1733129541507644891,5,-0.37,-0.13,1.39,8.167475666666666,-78.94,-80.57
1733129541607937545,1733129541607652902,5,-0.37,-0.13,1.39,8.242521333333334,-79.03,-80.51
1733129541707976384,1733129541707634210,5,-0.37,-0.13,1.39,8.342582333333334,-79.45,-80.9
1733129541807937173,1733129541807634115,5,-0.37,-0.13,1.39,8.442643,-79.28,-80.6
1733129541907985204,1733129541907620429,5,-0.37,-0.13,1.39,8.586480333333334,-79.42,-80.54
1733129542007920066,1733129542007630825,5,-0.37,-0.13,1.39,8.705302666666666,-79.76,-80.69
1733129542109164266,1733129542108971834,5,-0.37,-0.13,1.39,8.79911,-79.97,-80.69
1733129542209060070,1733129542208658695,5,-0.37,-0.13,1.39,8.905424666666667,-80.08,-80.71
1733129542309403978,1733129542309081554,5,-0.37,-0.13,1.39,9.017993333333333,-80.14,-80.85
1733129542409159844,1733129542408853530,5,-0.37,-0.13,1.39,9.168084666666667,-79.52,-80.7
1733129542509228736,1733129542508965969,5,-0.37,-0.13,1.39,9.293161,-79.74,-80.75
1733129542609046009,1733129542608751058,5,-0.37,-0.13,1.39,9.418237,-79.77,-81.08
1733129542708004844,1733129542707646131,5,-0.37,-0.13,1.39,9.530805666666668,-79.37,-80.68
1733129542808920428,1733129542808705329,5,-0.37,-0.13,1.39,9.649628,-79.36,-80.46
1733129542909044915,1733129542908776044,5,-0.37,-0.13,1.39,9.793465666666668,-79.25,-80.48
1733129543007926379,1733129543007646799,5,-0.37,-0.13,1.39,9.924795333333334,-79.43,-80.6
1733129543108070151,1733129543107662916,5,-0.37,-0.13,1.39,10.056125333333334,-79.64,-80.61
1733129543207939568,1733129543207653045,5,-0.37,-0.13,1.39,10.149932666666666,-79.42,-80.71
1733129543308005880,1733129543307638168,5,-0.37,-0.13,1.39,10.249993666666667,-80.09,-80.7
1733129543409006935,1733129543408797025,5,-0.37,-0.13,1.39,10.356308333333333,-80.11,-81.48
1733129543708012889,1733129543707635879,5,-0.37,-0.13,1.39,10.568937666666669,-80.2,-82.17
1733129543809139461,1733129543808940172,5,-0.37,-0.13,1.39,10.769059666666665,-80.23,-81.34
1733129543909497321,1733129543909096240,5,-0.37,-0.13,1.39,10.962928,-80.52,-81.69
1733129544007967523,1733129544007598400,5,-0.37,-0.13,1.39,11.088004333333332,-79.78,-80.93
1733129544108134545,1733129544107657194,5,-0.37,-0.13,1.39,11.225588,-81.16,-81.32
1733129544210296248,1733129544210213422,5,-0.37,-0.13,1.39,11.350664,-80.08,-81.35
1733129544309090882,1733129544308833360,5,-0.37,-0.13,1.39,11.456978666666666,-79.41,-80.71
1733129544409255240,1733129544408847570,5,-0.37,-0.13,1.39,11.669608333333334,-79.74,-80.87
1733129544509889371,1733129544509591102,5,-0.37,-0.13,1.39,11.782176666666667,-79.68,-80.67
1733129544639603618,1733129544639311552,5,-0.37,-0.13,1.39,11.875984,-79.74,-80.72
1733129544708454894,1733129544707714319,5,-0.37,-0.13,1.39,12.001060333333333,-79.66,-80.99
1733129544810408176,1733129544810254573,5,-0.37,-0.13,1.39,12.113628999999998,-79.82,-80.82
1733129544910323935,1733129544910239934,5,-0.37,-0.13,1.39,12.238705000000001,-79.57,-80.69
1733129545010623888,1733129545010436296,5,-0.37,-0.13,1.39,12.370035000000001,-79.94,-81.18
1733129545111161252,1733129545111073970,5,-0.37,-0.13,1.39,12.501365,-80.75,-81.21
1733129545208497887,1733129545207706928,5,-0.37,-0.13,1.39,12.620187666666666,-80.34,-81.08
1733129545308988012,1733129545308742284,5,-0.37,-0.13,1.39,12.726502333333334,-80.65,-81.31
1733129545409055911,1733129545408775091,5,-0.37,-0.13,1.39,12.851578333333334,-80.51,-81.19
1733129545509021747,1733129545508764266,5,-0.37,-0.13,1.39,12.976654333333334,-81.39,-81.57
1733129545609217927,1733129545608949422,5,-0.37,-0.13,1.39,13.114238,-81.47,-81.75
1733129545709223677,1733129545708926200,5,-0.37,-0.13,1.39,13.226806666666667,-81.96,-82.15
1733129545808968686,1733129545808753252,5,-0.37,-0.13,1.39,13.389405666666667,-83.54,-83.37
1733129545909007929,1733129545908805608,5,-0.37,-0.13,1.39,13.501974333333331,-81.52,-82.66
1733129546007983451,1733129546007634878,5,-0.37,-0.13,1.39,13.633304666666666,-80.84,-81.72
1733129546108033752,1733129546107641458,5,-0.37,-0.13,1.39,13.720858,-80.96,-81.95
1733129546208196435,1733129546207644462,5,-0.37,-0.13,1.39,13.870949333333334,-80.25,-80.8
1733129546308002973,1733129546307605504,5,-0.37,-0.13,1.39,14.014786666666666,-80.72,-81.33
1733129546408014797,1733129546407626867,5,-0.37,-0.13,1.39,14.152370666666664,-80.09,-80.73
1733129546507847778,1733129546507653951,5,-0.37,-0.13,1.39,14.271192999999998,-80.07,-80.92
1733129546607958205,1733129546607615232,5,-0.37,-0.13,1.39,14.383761666666667,-80.09,-80.94
1733129546707909644,1733129546707613468,5,-0.37,-0.13,1.39,14.49633,-79.96,-80.98
1733129546808074685,1733129546807613372,5,-0.37,-0.13,1.39,14.602645,-80.42,-81.32
1733129547207990537,1733129547207653045,5,-0.37,-0.13,1.39,15.102949666666666,-80.05,-80.59
1733129547308033418,1733129547307628393,5,-0.37,-0.13,1.39,15.240533666666666,-79.92,-80.73
1733129547407920115,1733129547407631635,5,-0.37,-0.13,1.39,15.353102,-80.11,-80.77
1733129547508282951,1733129547507653951,5,-0.37,-0.13,1.39,15.484432,-80.39,-80.94
1733129547609985483,1733129547609825134,5,-0.37,-0.13,1.39,15.603254333333332,-80.39,-81.02
1733129547709791458,1733129547709605693,5,-0.37,-0.13,1.39,15.722076666666666,-80.2,-80.9
1733129547809994068,1733129547809747219,5,-0.37,-0.13,1.39,15.847153,-80.58,-81.46
1733129547909885603,1733129547909741878,5,-0.37,-0.13,1.39,15.978482333333332,-80.6,-81.09
1733129548009969093,1733129548009723186,5,-0.37,-0.13,1.39,16.122319666666666,-81.46,-81.71
1733129548109800340,1733129548109640359,5,-0.37,-0.13,1.39,16.241141666666667,-81.23,-81.49
1733129548210022900,1733129548209887504,5,-0.37,-0.13,1.39,16.359964666666666,-81.2,-81.27
1733129548309876408,1733129548309623718,5,-0.37,-0.13,1.39,16.485041,-81.69,-81.86
1733129548409884849,1733129548409739971,5,-0.37,-0.13,1.39,16.635132333333335,-81.91,-81.9
1733129548509909283,1733129548509635686,5,-0.37,-0.13,1.39,16.78522333333333,-82.51,-83.05
1733129548609485207,1733129548608845472,5,-0.37,-0.13,1.39,16.91029933333333,-82.59,-82.81
1733129548709964978,1733129548709704399,5,-0.37,-0.13,1.39,17.041629,-84.3,-84.18
1733129548809998961,1733129548809779644,5,-0.37,-0.13,1.39,17.154197666666665,-83.72,-85.09
1733129548910065479,1733129548909804344,5,-0.37,-0.13,1.39,17.279274,-84.53,-87.97
1733129549009861919,1733129549009658098,5,-0.37,-0.13,1.39,17.385589,-84.33,-84.6
1733129549110276237,1733129549110139608,5,-0.37,-0.13,1.39,17.523173,-84.45,-84.64
1733129549210860292,1733129549210657358,5,-0.37,-0.13,1.39,17.648249333333336,-83.97,-84.23
1733129549310039255,1733129549309768199,5,-0.37,-0.13,1.39,17.779579333333334,-84.49,-85.94
1733129549409884607,1733129549409751892,5,-0.37,-0.13,1.39,17.904655,-83.53,-85.3
1733129549509913295,1733129549509699583,5,-0.37,-0.13,1.39,18.060999666666667,-84.31,-86.18
1733129549639983515,1733129549639799118,5,-0.37,-0.13,1.39,18.186076,-83.12,-83.51
1733129549710009682,1733129549709780931,5,-0.37,-0.13,1.39,18.311152333333336,-82.75,-82.77
1733129549809773817,1733129549809543609,5,-0.37,-0.13,1.39,18.42997533333333,-81.95,-82.26
1733129549909857998,1733129549909584283,5,-0.37,-0.13,1.39,18.580067,-81.96,-82.58
1733129550010058520,1733129550009847879,5,-0.37,-0.13,1.39,18.717651,-81.2,-81.89
1733129550109141906,1733129550108934640,5,-0.37,-0.13,1.39,18.830219333333332,-81.36,-82.09
1733129550209362877,1733129550209175825,5,-0.37,-0.13,1.39,18.955295000000003,-81.52,-81.46
1733129550309229626,1733129550308813095,5,-0.37,-0.13,1.39,19.080371333333332,-81.08,-81.43
1733129550409237542,1733129550408888578,5,-0.37,-0.13,1.39,19.217954666666667,-81.06,-81.9
1733129550509194104,1733129550508946895,5,-0.37,-0.13,1.39,19.330523333333336,-80.87,-81.73
1733129550607927628,1733129550607630014,5,-0.37,-0.13,1.39,19.449345333333333,-80.75,-80.97
1733129550709040834,1733129550708762884,5,-0.37,-0.13,1.39,19.561914,-81.14,-81.89
1733129550808867217,1733129550808678627,5,-0.37,-0.13,1.39,19.693244333333332,-80.42,-80.69
1733129550909311205,1733129550908993244,5,-0.37,-0.13,1.39,19.824574333333334,-80.41,-80.8
1733129551009835063,1733129551009612798,5,-0.37,-0.13,1.39,19.96215833333333,-80.74,-81.28
1733129551111123233,1733129551110966682,5,-0.37,-0.13,1.39,20.080980333333333,-80.99,-81.75
1733129551210732605,1733129551210502862,5,-0.37,-0.13,1.39,20.199803,-81.08,-81.52
1733129551309722973,1733129551309538841,5,-0.37,-0.13,1.39,20.306118,-80.56,-81.08
1733129551410071602,1733129551409836053,5,-0.37,-0.13,1.39,20.437448,-80.99,-81.69
1733129551508927580,1733129551508706331,5,-0.37,-0.13,1.39,20.55627,-80.54,-81.01
1733129551609263397,1733129551608899831,5,-0.37,-0.13,1.39,20.681346333333334,-80.59,-81.05
1733129551708973824,1733129551708697080,5,-0.37,-0.13,1.39,20.800169,-80.62,-81.75
1733129551809096172,1733129551808704853,5,-0.37,-0.13,1.39,20.91273766666667,-80.94,-81.23
1733129551909049704,1733129551908875703,5,-0.37,-0.13,1.39,21.037813333333336,-80.61,-80.89
1733129552009141851,1733129552008913755,5,-0.37,-0.13,1.39,21.30672733333333,-80.88,-81.15
1733129552109011805,1733129552108774185,5,-0.37,-0.13,1.39,21.43805766666667,-80.88,-81.31
1733129552209047396,1733129552208810329,5,-0.37,-0.13,1.39,21.575641,-81.15,-81.43
1733129552309157731,1733129552308816432,5,-0.37,-0.13,1.39,21.706970666666667,-81.35,-81.35
1733129552509093976,1733129552508872270,5,-0.37,-0.13,1.39,21.894584666666663,-81.09,-81.2
1733129552608982889,1733129552608790159,5,-0.37,-0.13,1.39,22.050929999999997,-81.67,-81.84
1733129552710401091,1733129552710047960,5,-0.37,-0.13,1.39,22.238544666666666,-81.46,-81.49
1733129552809872023,1733129552809639215,5,-0.37,-0.13,1.39,22.357367333333332,-81.42,-81.89
1733129552909839976,1733129552909681558,5,-0.37,-0.13,1.39,22.488697333333334,-81.83,-81.94
1733129553010168679,1733129553009918451,5,-0.37,-0.13,1.39,22.595012,-82.47,-82.41
1733129553110666297,1733129553110490560,5,-0.37,-0.13,1.39,22.713834000000002,-81.97,-81.92
1733129553210602154,1733129553210458278,5,-0.37,-0.13,1.39,22.857671666666665,-82.2,-83.84
1733129553310577940,1733129553310390472,5,-0.37,-0.13,1.39,22.989001666666667,-82.18,-82.65
1733129553410869392,1733129553410656452,5,-0.37,-0.13,1.39,23.12033166666667,-83.69,-84.01
1733129553510056152,1733129553509683609,5,-0.37,-0.13,1.39,23.23915433333333,-82.79,-84.36
1733129553610783904,1733129553610611438,5,-0.37,-0.13,1.39,23.370484333333337,-83.61,-83.51
1733129553710951808,1733129553710672855,5,-0.37,-0.13,1.39,23.501814666666665,-83.62,-85.93
1733129553810355934,1733129553810293436,5,-0.37,-0.13,1.39,23.626890333333332,-85.42,-86.73
1733129553910516154,1733129553910243988,5,-0.37,-0.13,1.39,23.751966333333332,-84.52,-84.57
1733129554010563767,1733129554010293960,5,-0.37,-0.13,1.39,23.88955,-85.21,-86.85
1733129554110355042,1733129554110135078,5,-0.37,-0.13,1.39,24.027134,-86.07,-86.19
1733129554210707015,1733129554210495471,5,-0.37,-0.13,1.39,24.139702666666665,-85.88,-86.06
1733129554310693463,1733129554310431003,5,-0.37,-0.13,1.39,24.252270999999997,-86.43,-86.58
1733129554410744521,1733129554410540819,5,-0.37,-0.13,1.39,24.36483966666667,-86.43,-89.26
1733129554510702538,1733129554510425329,5,-0.37,-0.13,1.39,24.50242366666667,-86.98,-88.48
1733129554641038919,1733129554640856504,5,-0.37,-0.13,1.39,24.621246333333335,-86.94,-87.97
1733129554710106252,1733129554710014581,5,-0.37,-0.13,1.39,24.73381466666667,-87.2,-87.78
1733129554809984356,1733129554809761285,5,-0.37,-0.13,1.39,24.858891,-87.58,-87.5
1733129554910126255,1733129554909874916,5,-0.37,-0.13,1.39,24.99647466666667,-89.37,-93.45
1733129555010773973,1733129555010634422,5,-0.37,-0.13,1.39,25.121551,-87.69,-88.67
1733129555110799716,1733129555110534667,5,-0.37,-0.13,1.39,25.240373,-87.64,-88.36
1733129555210898539,1733129555210706472,5,-0.37,-0.13,1.39,25.365449333333334,-86.55,-86.99
1733129555309974928,1733129555309587955,5,-0.37,-0.13,1.39,25.515540666666666,-86.72,-87.07
1733129555410003316,1733129555409842252,5,-0.37,-0.13,1.39,25.64687066666667,-87.59,-87.66
1733129555509875962,1733129555509675264,5,-0.37,-0.13,1.39,25.77194666666667,-88.66,-90.15
1733129555610153203,1733129555609948873,5,-0.37,-0.13,1.39,25.897023,-86.84,-87.83
1733129555710457292,1733129555710080146,5,-0.37,-0.13,1.39,26.040860666666664,-87.14,-88.69
1733129555809813988,1733129555809647321,5,-0.37,-0.13,1.39,26.178445,-86.32,-87.1
1733129555908131396,1733129555907651424,5,-0.37,-0.13,1.39,26.322282333333334,-85.43,-85.26
1733129556008067522,1733129556007606506,5,-0.37,-0.13,1.39,26.459866333333338,-86.01,-85.94
1733129556109477463,1733129556109122514,5,-0.37,-0.13,1.39,26.616211000000003,-85.47,-85.56
1733129556209330261,1733129556208953142,5,-0.37,-0.13,1.39,26.741287333333332,-84.99,-84.87
1733129556309255329,1733129556308990478,5,-0.37,-0.13,1.39,26.885125000000002,-84.3,-83.79
1733129556409110447,1733129556408766031,5,-0.37,-0.13,1.39,27.003947666666665,-84.69,-84.45
1733129556509016584,1733129556508816719,5,-0.37,-0.13,1.39,27.147785333333335,-83.67,-83.17
1733129556609354087,1733129556609158992,5,-0.37,-0.13,1.39,27.266607333333337,-83.88,-83.31
1733129556710722901,1733129556710424661,5,-0.37,-0.13,1.39,27.40419066666667,-83.51,-82.98
1733129556810681363,1733129556810440778,5,-0.37,-0.13,1.39,27.529267,-83.37,-84.29
1733129556910446655,1733129556910212755,5,-0.37,-0.13,1.39,27.679359,-83.44,-85.0
1733129557010579702,1733129557010174512,5,-0.37,-0.13,1.39,27.804435333333334,-83.04,-82.55
1733129557110968947,1733129557110825538,5,-0.37,-0.13,1.39,27.92325733333333,-82.58,-82.31
1733129557211086799,1733129557210236310,5,-0.37,-0.13,1.39,28.042079333333334,-82.96,-82.52
1733129557310268519,1733129557309932231,5,-0.37,-0.13,1.39,28.148394333333332,-82.27,-81.98
1733129557408314369,1733129557407646656,5,-0.37,-0.13,1.39,28.279724333333334,-82.64,-82.09
1733129557507977234,1733129557507599592,5,-0.37,-0.13,1.39,28.373531333333332,-82.07,-81.96
1733129557607998031,1733129557607641458,5,-0.37,-0.13,1.39,28.511114666666668,-81.9,-81.48
1733129557709516394,1733129557709058046,5,-0.37,-0.13,1.39,28.623683333333332,-82.03,-81.9
1733129557807920928,1733129557807623386,5,-0.37,-0.13,1.39,28.767521000000002,-81.73,-82.97
1733129558009337899,1733129558009054422,5,-0.37,-0.13,1.39,28.942627666666667,-82.86,-84.03
1733129558107904242,1733129558107599258,5,-0.37,-0.13,1.39,29.142749666666663,-81.95,-81.65
1733129558208028075,1733129558207609653,5,-0.37,-0.13,1.39,29.342871333333335,-81.97,-81.71
1733129558309103444,1733129558308889865,5,-0.37,-0.13,1.39,29.480455666666668,-81.58,-81.23
1733129558409081898,1733129558408855199,5,-0.37,-0.13,1.39,29.605532,-82.62,-82.0
1733129558508034800,1733129558507614374,5,-0.37,-0.13,1.39,29.711847000000002,-82.12,-82.11
1733129558609784459,1733129558609606504,5,-0.37,-0.13,1.39,29.830669,-81.61,-81.99
1733129558710015921,1733129558709863185,5,-0.37,-0.13,1.39,29.961999000000002,-81.43,-81.43
1733129558809885555,1733129558809683561,5,-0.37,-0.13,1.39,30.087075333333335,-81.6,-81.42
1733129558910135158,1733129558910048723,5,-0.37,-0.13,1.39,30.224659333333335,-81.45,-81.24
1733129559010048753,1733129559009858846,5,-0.37,-0.13,1.39,30.343481333333333,-81.61,-81.44
1733129559110395288,1733129559110191106,5,-0.37,-0.13,1.39,30.474811,-81.82,-81.53
1733129559210096535,1733129559209941387,5,-0.37,-0.13,1.39,30.606140999999997,-82.75,-82.42
1733129559310063168,1733129559309974670,5,-0.37,-0.13,1.39,30.737471333333332,-81.6,-81.71
1733129559411149894,1733129559410881996,5,-0.37,-0.13,1.39,30.862547666666668,-81.54,-81.49
1733129559510750902,1733129559510561227,5,-0.37,-0.13,1.39,30.975116,-81.2,-81.21
1733129559608093700,1733129559607636451,5,-0.37,-0.13,1.39,31.09393833333333,-81.19,-81.55
1733129559708013301,1733129559707590341,5,-0.37,-0.13,1.39,31.237775999999997,-81.72,-81.71
1733129559808019833,1733129559807630062,5,-0.37,-0.13,1.39,31.387867999999997,-81.38,-81.44
1733129559907870858,1733129559907640218,5,-0.37,-0.13,1.39,31.544213333333335,-81.64,-81.58
1733129560007972989,1733129560007673740,5,-0.37,-0.13,1.39,31.66303533333333,-81.42,-81.64
1733129560108289066,1733129560107665777,5,-0.37,-0.13,1.39,31.788111333333333,-81.25,-81.45
1733129560208011856,1733129560207625865,5,-0.37,-0.13,1.39,31.888171999999997,-81.14,-81.19
1733129560308085855,1733129560307648658,5,-0.37,-0.13,1.39,32.03201033333333,-81.47,-81.31
1733129560410486853,1733129560410356044,5,-0.37,-0.13,1.39,32.13832466666667,-81.21,-81.51
1733129560510562048,1733129560510349988,5,-0.37,-0.13,1.39,32.26965533333333,-81.5,-81.71
1733129560610523668,1733129560610401868,5,-0.37,-0.13,1.39,32.388477,-81.29,-81.24
1733129560710301834,1733129560710119962,5,-0.37,-0.13,1.39,32.53231533333334,-81.94,-81.87
1733129560810651200,1733129560810457944,5,-0.37,-0.13,1.39,32.68240566666666,-81.49,-81.42
1733129560910823689,1733129560910662651,5,-0.37,-0.13,1.39,32.80748166666666,-81.49,-81.31
1733129561010654370,1733129561010452032,5,-0.37,-0.13,1.39,32.92630333333333,-81.12,-81.24
1733129561111009056,1733129561110878467,5,-0.37,-0.13,1.39,33.045126,-81.09,-80.97
1733129561210600007,1733129561210472822,5,-0.37,-0.13,1.39,33.17020233333333,-81.03,-81.71
1733129561310601170,1733129561310327529,5,-0.37,-0.13,1.39,33.301532,-81.37,-81.76
1733129561509154741,1733129561508950710,5,-0.37,-0.13,1.39,33.47038466666667,-81.4,-82.0
1733129561609243270,1733129561608990430,5,-0.37,-0.13,1.39,33.65174566666667,-81.02,-81.07
1733129561708980045,1733129561708809137,5,-0.37,-0.13,1.39,33.85186866666666,-81.22,-81.33
1733129561809096692,1733129561808842897,5,-0.37,-0.13,1.39,33.995707,-81.11,-81.04
1733129561909130912,1733129561908892631,5,-0.37,-0.13,1.39,34.12078333333333,-81.71,-82.4
1733129562009297209,1733129562008968114,5,-0.37,-0.13,1.39,34.22709766666667,-81.81,-82.06
1733129562110599971,1733129562110456943,5,-0.37,-0.13,1.39,34.34592033333334,-81.95,-82.26
1733129562210386902,1733129562210206031,5,-0.37,-0.13,1.39,34.48975733333334,-81.26,-81.5
1733129562310297061,1733129562310223340,5,-0.37,-0.13,1.39,34.63359533333334,-81.33,-81.26
1733129562410931778,1733129562410674095,5,-0.37,-0.13,1.39,34.758671666666665,-82.01,-81.84
1733129562510577251,1733129562510327339,5,-0.37,-0.13,1.39,34.883748,-81.61,-81.38
1733129562611073128,1733129562610728740,5,-0.37,-0.13,1.39,35.015077999999995,-82.58,-82.0
1733129562710288775,1733129562710172176,5,-0.37,-0.13,1.39,35.158915,-81.41,-81.14
1733129562810444213,1733129562810266971,5,-0.37,-0.13,1.39,35.283991,-81.7,-81.93
1733129562910388308,1733129562910193443,5,-0.37,-0.13,1.39,35.40906733333333,-81.91,-81.71
1733129563410258069,1733129563409984588,5,-0.37,-0.13,1.39,36.028194000000006,-81.91,-82.03
1733129563509896278,1733129563509690761,5,-0.37,-0.13,1.39,36.15327033333333,-81.59,-81.69
1733129563609890595,1733129563609649419,5,-0.37,-0.13,1.39,36.27834666666667,-82.16,-82.15
1733129563708955148,1733129563708607912,5,-0.37,-0.13,1.39,36.41593,-81.64,-81.47
1733129563809061537,1733129563808872938,5,-0.37,-0.13,1.39,36.566021666666664,-82.96,-84.05
1733129563909427013,1733129563909214496,5,-0.37,-0.13,1.39,36.703605,-82.19,-82.19
1733129564010011788,1733129564009932518,5,-0.37,-0.13,1.39,36.834934999999994,-84.01,-83.76
1733129564110547851,1733129564110299110,5,-0.37,-0.13,1.39,36.947504333333335,-81.85,-81.93
1733129564210070906,1733129564209805727,5,-0.37,-0.13,1.39,37.08508766666666,-82.95,-82.66
1733129564309725480,1733129564309492826,5,-0.37,-0.13,1.39,37.20391033333333,-82.12,-82.92
1733129564409235045,1733129564409134864,5,-0.37,-0.13,1.39,37.328986666666665,-82.76,-83.17
1733129564509013705,1733129564508775234,5,-0.37,-0.13,1.39,37.44780933333333,-81.96,-82.19
1733129564639537157,1733129564639299392,5,-0.37,-0.13,1.39,37.59164766666667,-82.68,-83.79
1733129564709346685,1733129564708974361,5,-0.37,-0.13,1.39,37.71672266666667,-82.13,-81.94
1733129564809094279,1733129564808798789,5,-0.37,-0.13,1.39,37.84805266666667,-82.03,-81.7
1733129564909301710,1733129564908930301,5,-0.37,-0.13,1.39,37.966874,-82.16,-83.86
1733129565008908145,1733129565008529901,5,-0.37,-0.13,1.39,38.104458666666666,-82.05,-83.85
1733129565107934645,1733129565107665061,5,-0.37,-0.13,1.39,38.23578833333334,-83.59,-84.66
1733129565207788909,1733129565207608938,5,-0.37,-0.13,1.39,38.35461133333333,-82.23,-82.81
1733129565308099767,1733129565307667255,5,-0.37,-0.13,1.39,38.47343266666667,-83.7,-83.7
1733129565408083848,1733129565407620429,5,-0.37,-0.13,1.39,38.617270999999995,-82.63,-82.47
1733129565508787580,1733129565508572578,5,-0.37,-0.13,1.39,38.76736266666666,-83.34,-83.4
1733129565610568549,1733129565610316991,5,-0.37,-0.13,1.39,38.911201,-82.99,-83.2
1733129565710501895,1733129565710213661,5,-0.37,-0.13,1.39,39.03002233333333,-82.32,-84.41
1733129565810860812,1733129565810602188,5,-0.37,-0.13,1.39,39.148843666666664,-83.18,-83.47
1733129565910400581,1733129565910147905,5,-0.37,-0.13,1.39,39.398996333333336,-82.91,-82.75
1733129566010101909,1733129566009996652,5,-0.37,-0.13,1.39,39.536581000000005,-83.14,-82.79
1733129566107892566,1733129566107616186,5,-0.37,-0.13,1.39,39.67416433333333,-83.07,-83.79
1733129566208068214,1733129566207624673,5,-0.37,-0.13,1.39,39.811749,-83.52,-83.32
1733129566307974153,1733129566307610988,5,-0.37,-0.13,1.39,39.94933266666667,-83.9,-83.78
1733129566408054960,1733129566407618999,5,-0.37,-0.13,1.39,40.086916333333335,-84.14,-83.73
1733129566507953217,1733129566507629632,5,-0.37,-0.13,1.39,40.205737666666664,-84.11,-85.71
1733129566608056884,1733129566607633113,5,-0.37,-0.13,1.39,40.312052,-83.83,-84.12
1733129566708101863,1733129566707612276,5,-0.37,-0.13,1.39,40.43087466666667,-84.24,-84.19
1733129566807829599,1733129566807651996,5,-0.37,-0.13,1.39,40.555951,-83.11,-83.31
1733129566907919811,1733129566907619476,5,-0.37,-0.13,1.39,40.67477366666667,-84.06,-83.93
1733129567008074635,1733129567007607460,5,-0.37,-0.13,1.39,40.812357,-84.21,-83.82
1733129567108022996,1733129567107625007,5,-0.37,-0.13,1.39,40.94994166666667,-85.35,-86.55
1733129567207929644,1733129567207637071,5,-0.37,-0.13,1.39,41.106287,-84.51,-84.25
1733129567307974550,1733129567307611465,5,-0.37,-0.13,1.39,41.237617,-85.01,-84.63
1733129567408054766,1733129567407613754,5,-0.37,-0.13,1.39,41.36269333333333,-84.8,-86.67
1733129567507982269,1733129567507677555,5,-0.37,-0.13,1.39,41.500276666666664,-85.21,-85.94
1733129567608225380,1733129567607689142,5,-0.37,-0.13,1.39,41.63160766666667,-85.37,-86.98
1733129567708109979,1733129567707629919,5,-0.37,-0.13,1.39,41.76919133333333,-85.43,-85.13
1733129567808072201,1733129567807605743,5,-0.37,-0.13,1.39,41.88176066666667,-85.67,-85.89
1733129567908090440,1733129567907622098,5,-0.37,-0.13,1.39,42.00683566666667,-85.97,-88.48
1733129568007926679,1733129568007611036,5,-0.37,-0.13,1.39,42.11940333333333,-85.86,-87.58
1733129568108208724,1733129568107631444,5,-0.37,-0.13,1.39,42.25698666666667,-87.1,-86.7
1733129568208004937,1733129568207655906,5,-0.37,-0.13,1.39,42.388317666666666,-86.33,-85.8
1733129568307998022,1733129568307632446,5,-0.37,-0.13,1.39,42.519648999999994,-86.37,-86.76
1733129568408006071,1733129568407616853,5,-0.37,-0.13,1.39,42.650979,-87.25,-87.68
1733129568507879005,1733129568507615327,5,-0.37,-0.13,1.39,42.77605400000001,-88.19,-89.1
1733129568707852185,1733129568707641839,5,-0.37,-0.13,1.39,42.951159999999994,-86.86,-87.4
1733129568809326896,1733129568808974027,5,-0.37,-0.13,1.39,43.11375866666666,-88.73,-88.53
1733129568908964368,1733129568908716201,5,-0.37,-0.13,1.39,43.288866000000006,-87.68,-87.76
1733129569008740259,1733129569008546352,5,-0.37,-0.13,1.39,43.432703000000004,-86.54,-86.94
1733129569109156240,1733129569108944416,5,-0.37,-0.13,1.39,43.557779333333336,-88.16,-89.19
1733129569209244457,1733129569208926916,5,-0.37,-0.13,1.39,43.689109333333334,-88.81,-89.84
1733129569309757722,1733129569309559822,5,-0.37,-0.13,1.39,43.795425,-89.28,-90.05
1733129569409692226,1733129569409488677,5,-0.37,-0.13,1.39,43.920501333333334,-89.19,-89.09
1733129569510444508,1733129569510107755,5,-0.37,-0.13,1.39,44.039324,-89.36,-89.56
1733129569641344666,1733129569641095638,5,-0.37,-0.13,1.39,44.15814666666666,-94.0,-94.32
1733129569709045475,1733129569708686590,5,-0.37,-0.13,1.39,44.30823866666666,-90.08,-90.04
1733129569808892390,1733129569808789730,5,-0.37,-0.13,1.39,44.45832933333333,-89.14,-89.57
1733129569909092147,1733129569908793926,5,-0.37,-0.13,1.39,44.589659000000005,-90.88,-92.87
1733129570009752468,1733129570009636878,5,-0.37,-0.13,1.39,44.708481666666664,-92.31,-93.1
1733129570110368661,1733129570110072374,5,-0.37,-0.13,1.39,44.80854366666666,-90.94,-91.58
1733129570209977461,1733129570209727048,5,-0.37,-0.13,1.39,44.97114266666667,-92.99,-95.28
1733129570309977418,1733129570309785366,5,-0.37,-0.13,1.39,45.09621766666666,-91.5,-92.46
1733129570409989320,1733129570409770011,5,-0.37,-0.13,1.39,45.215039,-91.68,-93.36
1733129570509992777,1733129570509714603,5,-0.37,-0.13,1.39,45.32135333333334,-91.58,-92.81
1733129570609767376,1733129570609636545,5,-0.37,-0.13,1.39,45.45268433333333,-92.12,-91.86
1733129570810775426,1733129570810539245,5,-0.37,-0.13,1.39,45.62779166666667,-93.22,-94.35
1733129570911813426,1733129570910831451,5,-0.37,-0.13,1.39,45.78413700000001,-93.34,-95.76
1733129571012052183,1733129571011071443,5,-0.37,-0.13,1.39,45.940481,-93.31,-97.42
1733129571111128689,1733129571110960960,5,-0.37,-0.13,1.39,46.065557333333324,-91.08,-94.21
1733129571210446927,1733129571210294961,5,-0.37,-0.13,1.39,46.18438,-93.04,-96.01
1733129571410190189,1733129571409787178,5,-0.37,-0.13,1.39,46.346980333333335,-92.9,-95.88
1733129571510699049,1733129571510553836,5,-0.37,-0.13,1.39,46.50332566666666,-92.75,-98.65
1733129571710567264,1733129571710225105,5,-0.37,-0.13,1.39,46.728463000000005,-94.77,-99.02
1733129571809970074,1733129571809816122,5,-0.37,-0.13,1.39,46.891062000000005,-93.67,-98.82
1733129571910755666,1733129571910563468,5,-0.37,-0.13,1.39,47.053661,-92.21,-98.49
1733129572010103215,1733129572009814977,5,-0.37,-0.13,1.39,47.172482333333335,-92.2,-98.19
1733129572211332390,1733129572211112022,5,-0.37,-0.13,1.39,47.32882766666666,-94.28,-102.3
1733129572811214051,1733129572811039686,5,-0.37,-0.13,1.39,47.71656366666667,-94.45,-102.75
1733129574010630588,1733129574010368824,5,-0.37,-0.13,1.39,48.59209766666667,-94.58,-97.89
1733129574311472394,1733129574311286211,5,-0.37,-0.13,1.39,49.517661333333336,-93.42,-94.92
1733129574510668033,1733129574510416030,5,-0.37,-0.13,1.39,50.180565333333334,-94.0,-95.32
1733129574612106809,1733129574611867189,5,-0.37,-0.13,1.39,50.299388,-92.9,-95.13
1733129574810669285,1733129574810394525,5,-0.37,-0.13,1.39,50.31814866666667,-94.85,-96.56
1733129574911530532,1733129574911314010,5,-0.37,-0.13,1.39,50.32440233333333,-93.1,-96.59
1733129575009611376,1733129575009212017,5,-0.37,-0.13,1.39,50.32440233333333,-94.68,-97.74
1733129575308093951,1733129575307616472,5,-0.37,-0.13,1.39,50.32440233333333,-94.52,-97.13
1733129575408091176,1733129575407619476,5,-0.37,-0.13,1.39,50.343163000000004,-94.32,-97.46
1733129576209518666,1733129576209200382,5,-0.37,-0.13,1.39,50.355670333333336,-94.07,-97.02
1733129576510474181,1733129576510299444,5,-0.37,-0.13,1.39,50.324401333333334,-95.2,-98.27
1733129576710526339,1733129576710368156,5,-0.37,-0.13,1.39,50.31814766666667,-95.25,-98.41
1733129576810616130,1733129576810476779,5,-0.37,-0.13,1.39,50.318147666666675,-94.9,-99.13
1733129577110414212,1733129577110282182,5,-0.37,-0.13,1.39,50.37443233333334,-95.27,-98.66
1733129578610491798,1733129578610297918,5,-0.37,-0.13,1.39,50.405701666666666,-96.5,-98.02
1733129578810670028,1733129578810417413,5,-0.37,-0.13,1.39,50.455731333333325,-93.34,-96.08
1733129578910752964,1733129578910526990,5,-0.37,-0.13,1.39,50.487000333333334,-93.79,-96.06
1733129579211135278,1733129579210838317,5,-0.37,-0.13,1.39,50.49950733333333,-92.76,-95.34
1733129579310224434,1733129579310085058,5,-0.37,-0.13,1.39,50.49950733333333,-93.5,-95.21
1733129579411007970,1733129579410832166,5,-0.37,-0.13,1.39,50.474492,-92.94,-94.5
1733129579509352633,1733129579509081125,5,-0.37,-0.13,1.39,50.480747,-94.75,-97.21
1733129579710507854,1733129579710369110,5,-0.37,-0.13,1.39,50.47449333333333,-91.81,-92.95
1733129579909266464,1733129579908833742,5,-0.37,-0.13,1.39,50.47449333333333,-92.83,-94.74
1733129580009095067,1733129580008853435,5,-0.37,-0.13,1.39,50.48074666666667,-92.78,-93.94
1733129580210534020,1733129580209887266,5,-0.37,-0.13,1.39,50.487000333333334,-95.6,-97.53
1733129580508027374,1733129580507628440,5,-0.37,-0.13,1.39,50.48074666666667,-94.64,-97.61
1733129580609770225,1733129580609556913,5,-0.37,-0.13,1.39,50.461984666666666,-92.91,-94.34
1733129580810443982,1733129580810255289,5,-0.37,-0.13,1.39,50.44947766666667,-92.97,-94.34
1733129580909726137,1733129580909514665,5,-0.37,-0.13,1.39,50.46823833333334,-92.84,-93.76
1733129581009134930,1733129581008791923,5,-0.37,-0.13,1.39,50.46823833333334,-92.22,-93.92
1733129581109854592,1733129581109704971,5,-0.37,-0.13,1.39,50.480745333333324,-92.08,-93.94
1733129581209112722,1733129581208870410,5,-0.37,-0.13,1.39,50.49325366666667,-90.79,-93.34
1733129581409023849,1733129581408800363,5,-0.37,-0.13,1.39,50.50576233333334,-93.09,-94.72
1733129581509847581,1733129581509700775,5,-0.37,-0.13,1.39,50.52452433333334,-90.44,-92.79
1733129581609964565,1733129581609749794,5,-0.37,-0.13,1.39,50.518271,-92.21,-93.15
1733129581709715872,1733129581709528207,5,-0.37,-0.13,1.39,50.52452433333334,-91.33,-92.82
1733129581809720069,1733129581809527873,5,-0.37,-0.13,1.39,50.52452433333334,-92.64,-93.96
1733129581910685238,1733129581910413503,5,-0.37,-0.13,1.39,50.537031333333324,-89.7,-90.94
1733129582007944977,1733129582007615566,5,-0.37,-0.13,1.39,50.543285,-88.79,-92.16
1733129582108027147,1733129582107604503,5,-0.37,-0.13,1.39,50.56830033333333,-89.66,-89.87
1733129582210826467,1733129582210545063,5,-0.37,-0.13,1.39,50.57455533333333,-89.21,-91.12
1733129582310896528,1733129582310608625,5,-0.37,-0.13,1.39,50.57455533333333,-88.72,-89.46
1733129582410747113,1733129582410601615,5,-0.37,-0.13,1.39,50.54954,-90.08,-91.13
1733129582510558291,1733129582510457754,5,-0.37,-0.13,1.39,50.580808999999995,-90.16,-92.5
1733129582610863233,1733129582610685348,5,-0.37,-0.13,1.39,50.55579333333333,-90.5,-91.89
1733129582710705293,1733129582710492849,5,-0.37,-0.13,1.39,50.56830033333333,-89.24,-89.74
1733129582810532377,1733129582810392141,5,-0.37,-0.13,1.39,50.56204533333334,-90.79,-91.3
1733129582910391183,1733129582910168409,5,-0.37,-0.13,1.39,50.56204533333334,-91.68,-92.27
1733129583010979529,1733129583010742902,5,-0.37,-0.13,1.39,50.555792000000004,-89.66,-91.27
1733129583110750072,1733129583110496520,5,-0.37,-0.13,1.39,50.54953866666667,-89.94,-90.34
1733129583210651821,1733129583210435390,5,-0.37,-0.13,1.39,50.58706133333334,-91.9,-91.71
1733129583310263112,1733129583310081243,5,-0.37,-0.13,1.39,50.59956966666667,-90.18,-90.35
1733129583410419635,1733129583410312175,5,-0.37,-0.13,1.39,50.624584999999996,-90.08,-91.19
1733129583510788005,1733129583510625839,5,-0.37,-0.13,1.39,50.59956966666667,-89.66,-91.07
1733129583610764760,1733129583610594987,5,-0.37,-0.13,1.39,50.59956966666667,-89.87,-90.23
1733129583710753109,1733129583710502147,5,-0.37,-0.13,1.39,50.580807666666665,-89.91,-90.83
1733129583810431484,1733129583810289382,5,-0.37,-0.13,1.39,50.605822999999994,-90.94,-93.36
1733129583910544473,1733129583910333633,5,-0.37,-0.13,1.39,50.61833000000001,-88.57,-90.44
1733129584010512973,1733129584010355472,5,-0.37,-0.13,1.39,50.61833000000001,-90.87,-92.27
1733129584110392752,1733129584110286474,5,-0.37,-0.13,1.39,50.593314666666664,-88.05,-89.03
1733129584209000921,1733129584208852291,5,-0.37,-0.13,1.39,50.54953866666667,-88.82,-91.22
1733129584309427141,1733129584308793067,5,-0.37,-0.13,1.39,50.512015999999996,-89.93,-89.98
1733129584410516196,1733129584410340547,5,-0.37,-0.13,1.39,50.487000333333334,-89.88,-90.05
1733129584510095692,1733129584509776353,5,-0.37,-0.13,1.39,50.45573099999999,-89.99,-91.28
1733129584640430433,1733129584640120506,5,-0.37,-0.13,1.39,50.424462000000005,-90.15,-91.32
1733129584710418041,1733129584710122823,5,-0.37,-0.13,1.39,50.38068566666667,-90.36,-90.58
1733129584810541117,1733129584810347795,5,-0.37,-0.13,1.39,50.355670333333336,-92.55,-93.1
1733129584910268303,1733129584910046577,5,-0.37,-0.13,1.39,50.336909666666664,-90.89,-91.26
1733129585008128143,1733129585007648944,5,-0.37,-0.13,1.39,50.29938733333333,-91.7,-93.43
1733129585208897436,1733129585208699226,5,-0.37,-0.13,1.39,50.26811833333333,-90.74,-91.41
1733129585307948069,1733129585307651042,5,-0.37,-0.13,1.39,50.23684933333333,-93.22,-93.47
1733129585408142636,1733129585407667160,5,-0.37,-0.13,1.39,50.21808733333333,-92.0,-92.63
1733129585508040260,1733129585507639646,5,-0.37,-0.13,1.39,50.21808733333333,-91.64,-93.97
1733129585608002571,1733129585607632637,5,-0.37,-0.13,1.39,50.19932533333333,-91.62,-91.89
1733129585707905169,1733129585707621812,5,-0.37,-0.13,1.39,50.21183366666667,-91.03,-91.96
1733129585811028167,1733129585810848712,5,-0.37,-0.13,1.39,50.20558,-92.18,-92.59
1733129585907892965,1733129585907623052,5,-0.37,-0.13,1.39,50.230595666666666,-91.4,-93.12
1733129586008008122,1733129586007668495,5,-0.37,-0.13,1.39,50.230595666666666,-92.27,-92.82
1733129586108024727,1733129586107628822,5,-0.37,-0.13,1.39,50.21808733333333,-93.34,-95.55
1733129586207982567,1733129586207612514,5,-0.37,-0.13,1.39,50.20558,-91.66,-92.13
1733129586310443450,1733129586310273885,5,-0.37,-0.13,1.39,50.19307166666667,-92.59,-94.48
1733129586410619378,1733129586410443067,5,-0.37,-0.13,1.39,50.186817999999995,-92.25,-93.37
1733129586510858552,1733129586510602235,5,-0.37,-0.13,1.39,50.174309666666666,-93.42,-94.04
1733129586609986949,1733129586609788417,5,-0.37,-0.13,1.39,50.168056,-92.3,-92.71
1733129586709650664,1733129586709422588,5,-0.37,-0.13,1.39,50.161802333333334,-92.21,-93.22
1733129586809865566,1733129586809707880,5,-0.37,-0.13,1.39,50.168056,-92.07,-92.12
1733129586909652896,1733129586909521102,5,-0.37,-0.13,1.39,50.174309666666666,-91.47,-93.63
1733129587010165392,1733129587009971618,5,-0.37,-0.13,1.39,50.16180266666667,-91.8,-93.73
1733129587110215310,1733129587109951019,5,-0.37,-0.13,1.39,50.11177266666666,-91.8,-91.96
1733129587209643179,1733129587209461927,5,-0.37,-0.13,1.39,50.049234333333324,-92.58,-93.98
1733129587309888838,1733129587309817075,5,-0.37,-0.13,1.39,50.005457,-92.58,-93.37
1733129587409925286,1733129587409615516,5,-0.37,-0.13,1.39,49.992948666666656,-91.0,-91.9
1733129587510097272,1733129587509806871,5,-0.37,-0.13,1.39,49.98044166666667,-91.58,-92.15
1733129587609973896,1733129587609770298,5,-0.37,-0.13,1.39,49.955425999999996,-92.64,-95.29
1733129587710039664,1733129587709798336,5,-0.37,-0.13,1.39,49.89914266666667,-92.15,-92.79
1733129587809971700,1733129587809775352,5,-0.37,-0.13,1.39,49.842858,-93.18,-94.04
1733129587909713671,1733129587909578323,5,-0.37,-0.13,1.39,49.77406633333333,-92.31,-93.15
1733129588011468564,1733129588011231899,5,-0.37,-0.13,1.39,49.717782,-93.06,-93.9
1733129588110025589,1733129588109872579,5,-0.37,-0.13,1.39,49.66149733333333,-92.09,-92.3
1733129588310300354,1733129588310147762,5,-0.37,-0.13,1.39,49.598959,-91.98,-95.46
1733129588409983788,1733129588409703493,5,-0.37,-0.13,1.39,49.51765866666667,-92.07,-92.14
1733129588509969392,1733129588509783506,5,-0.37,-0.13,1.39,49.41134433333334,-91.92,-93.62
1733129588610031131,1733129588609834432,5,-0.37,-0.13,1.39,49.323792,-93.25,-94.66
1733129588710143351,1733129588709956645,5,-0.37,-0.13,1.39,49.25500033333333,-92.21,-93.79
1733129588810677365,1733129588810359716,5,-0.37,-0.13,1.39,49.20497066666667,-93.1,-94.69
1733129589010224469,1733129589009948015,5,-0.37,-0.13,1.39,49.10490866666667,-92.97,-92.78
1733129589110488865,1733129589110196590,5,-0.37,-0.13,1.39,48.97983233333334,-93.75,-93.87
1733129589317403441,1733129589316998243,5,-0.37,-0.13,1.39,48.823487,-92.75,-93.79
1733129589410621849,1733129589410538196,5,-0.37,-0.13,1.39,48.698412,-93.07,-93.64
1733129589511115499,1733129589510940790,5,-0.37,-0.13,1.39,48.57959066666666,-93.82,-95.29
1733129589640136787,1733129589639924287,5,-0.37,-0.13,1.39,48.473275,-93.79,-96.62
1733129589709778849,1733129589709558486,5,-0.37,-0.13,1.39,48.373213,-93.65,-94.89
1733129590113062900,1733129590112023353,5,-0.37,-0.13,1.39,48.17934366666666,-94.3,-95.13
1733129590208049644,1733129590207633495,5,-0.37,-0.13,1.39,47.960461333333335,-95.84,-96.64
1733129590510633718,1733129590510411262,5,-0.37,-0.13,1.39,47.647771999999996,-97.67,-100.46
1733129590610562698,1733129590610315084,5,-0.37,-0.13,1.39,47.453903999999994,-94.83,-97.99
1733129590711694504,1733129590711398839,5,-0.37,-0.13,1.39,47.27254333333334,-96.07,-98.59
1733129590907933402,1733129590907613754,5,-0.37,-0.13,1.39,47.13495833333334,-96.22,-99.33
1733129591208043024,1733129591207642316,5,-0.37,-0.13,1.39,46.897314,-95.9,-97.49
1733129593710636124,1733129593710336923,5,-0.37,-0.13,1.39,46.090573,-96.66,-100.93
1733129597710602166,1733129597710427761,5,-0.37,-0.13,1.39,45.315101,-94.56,-94.38
1733129597910728544,1733129597910504817,5,-0.37,-0.13,1.39,44.66470533333333,-90.8,-90.35
1733129598010939166,1733129598010743379,5,-0.37,-0.13,1.39,44.63968966666667,-92.28,-93.7
1733129598210899646,1733129598210658311,5,-0.37,-0.13,1.39,44.63968966666667,-92.75,-92.19
1733129598310797407,1733129598310607910,5,-0.37,-0.13,1.39,44.62092766666667,-94.22,-95.69
1733129598407942215,1733129598407598018,5,-0.37,-0.13,1.39,44.57715033333333,-93.96,-94.39
1733129598510447666,1733129598510299205,5,-0.37,-0.13,1.39,44.60841966666666,-91.88,-94.7
1733129598709818971,1733129598709547758,5,-0.37,-0.13,1.39,44.62718166666667,-95.32,-97.38
1733129599308027564,1733129599307637929,5,-0.37,-0.13,1.39,44.683466,-94.4,-95.13
1733129599408979969,1733129599408715724,5,-0.37,-0.13,1.39,44.689719333333336,-94.02,-95.54
1733129600309117587,1733129600308829784,5,-0.37,-0.13,1.39,44.73974933333333,-90.2,-93.59
1733129600408002923,1733129600407644987,5,-0.37,-0.13,1.39,44.75851133333333,-91.65,-92.08
1733129600509043265,1733129600508757829,5,-0.37,-0.13,1.39,44.796034,-92.01,-93.09
1733129600609925185,1733129600609695196,5,-0.37,-0.13,1.39,44.81479566666667,-92.16,-94.33
1733129600709777422,1733129600709661483,5,-0.37,-0.13,1.39,44.83981133333333,-92.32,-95.0
1733129600810826373,1733129600810620307,5,-0.37,-0.13,1.39,44.83981133333333,-93.47,-94.46
1733129600910839550,1733129600910517692,5,-0.37,-0.13,1.39,44.846065,-92.01,-92.41
1733129601009982397,1733129601009715557,5,-0.37,-0.13,1.39,44.871079,-91.79,-93.51
1733129601110804851,1733129601110534429,5,-0.37,-0.13,1.39,44.908603,-92.42,-94.6
1733129601209845365,1733129601209628343,5,-0.37,-0.13,1.39,44.94612566666667,-92.73,-94.21
1733129601309264863,1733129601309014558,5,-0.37,-0.13,1.39,44.977395,-93.47,-94.83
1733129601509745084,1733129601509591341,5,-0.37,-0.13,1.39,45.033678333333334,-92.01,-92.26
1733129602307980591,1733129602307602405,5,-0.37,-0.13,1.39,45.20878533333333,-93.49,-96.21
1733129602409324095,1733129602408902168,5,-0.37,-0.13,1.39,45.296338999999996,-93.16,-93.61
1733129602509225438,1733129602508931875,5,-0.37,-0.13,1.39,45.296338999999996,-93.55,-95.9
1733129602607952135,1733129602607645511,5,-0.37,-0.13,1.39,45.32135333333333,-93.84,-96.19
1733129603409205773,1733129603408968687,5,-0.37,-0.13,1.39,45.15875566666667,-91.84,-91.82
1733129603510621560,1733129603510410308,5,-0.37,-0.13,1.39,45.12748666666666,-93.41,-93.25
1733129603609805911,1733129603609545230,5,-0.37,-0.13,1.39,45.10872466666666,-91.78,-92.16
1733129603710913602,1733129603710650444,5,-0.37,-0.13,1.39,45.08370933333333,-90.73,-91.76
1733129603807964679,1733129603807618141,5,-0.37,-0.13,1.39,45.058695,-90.23,-91.52
1733129603909279928,1733129603908963441,5,-0.37,-0.13,1.39,45.05244133333334,-92.02,-92.26
1733129604008243970,1733129604007619857,5,-0.37,-0.13,1.39,45.04618766666667,-90.52,-91.86
1733129604309849420,1733129604309636831,5,-0.37,-0.13,1.39,45.058695,-90.83,-91.07
1733129604411064350,1733129604410846710,5,-0.37,-0.13,1.39,45.027426,-90.44,-91.82
1733129604510577149,1733129604510394096,5,-0.37,-0.13,1.39,45.03993333333333,-90.24,-91.08
1733129604641902201,1733129604641682624,5,-0.37,-0.13,1.39,44.996157000000004,-90.76,-91.84
1733129604710475618,1733129604710200309,5,-0.37,-0.13,1.39,44.97739633333333,-90.56,-90.51
1733129604808010115,1733129604807623147,5,-0.37,-0.13,1.39,44.93362,-89.03,-89.76
1733129604909101453,1733129604908739805,5,-0.37,-0.13,1.39,44.93362,-91.37,-91.38
1733129605009238043,1733129605008898735,5,-0.37,-0.13,1.39,44.914858,-90.39,-92.51
1733129605410571212,1733129605410436868,5,-0.37,-0.13,1.39,44.73349733333333,-90.23,-91.61
1733129605507977695,1733129605507620811,5,-0.37,-0.13,1.39,44.695973333333335,-91.39,-91.86
1733129605608057579,1733129605607658863,5,-0.37,-0.13,1.39,44.639688666666665,-95.32,-96.25
1733129605709269553,1733129605708980321,5,-0.37,-0.13,1.39,44.570897,-90.9,-92.13
1733129605809056943,1733129605808928728,5,-0.37,-0.13,1.39,44.520867333333335,-89.31,-89.35
1733129605909932105,1733129605909531831,5,-0.37,-0.13,1.39,44.47083633333333,-88.07,-89.5
1733129606007925788,1733129606007632493,5,-0.37,-0.13,1.39,44.41455166666666,-89.76,-90.23
1733129606107865936,1733129606107645750,5,-0.37,-0.13,1.39,44.33950633333333,-89.35,-89.96
1733129606208062229,1733129606207655906,5,-0.37,-0.13,1.39,44.25820733333333,-89.72,-91.13
1733129606307954159,1733129606307627201,5,-0.37,-0.13,1.39,44.20817766666667,-88.95,-88.6
1733129606408111961,1733129606407663106,5,-0.37,-0.13,1.39,44.12687733333333,-88.93,-90.44
1733129606508047605,1733129606507664442,5,-0.37,-0.13,1.39,44.045577333333334,-88.67,-88.85
1733129606607870438,1733129606607635974,5,-0.37,-0.13,1.39,43.93300833333333,-88.08,-89.41
1733129606710696744,1733129606710561275,5,-0.37,-0.13,1.39,43.839201333333335,-88.12,-89.63
1733129606809950740,1733129606809804201,5,-0.37,-0.13,1.39,43.757902333333334,-88.26,-88.41
1733129606909764695,1733129606909564495,5,-0.37,-0.13,1.39,43.67660333333333,-88.21,-89.71
1733129607009698364,1733129607009572267,5,-0.37,-0.13,1.39,43.60155799999999,-89.55,-90.18
1733129607109606801,1733129607109340906,5,-0.37,-0.13,1.39,43.51400433333333,-86.56,-87.72
1733129607210591424,1733129607210213184,5,-0.37,-0.13,1.39,43.41394366666666,-88.59,-90.66
1733129607310160637,1733129607309815883,5,-0.37,-0.13,1.39,43.32013633333333,-87.69,-87.41
1733129607410211997,1733129607410017728,5,-0.37,-0.13,1.39,43.21382199999999,-88.09,-90.62
1733129607509034275,1733129607508651256,5,-0.37,-0.13,1.39,43.113760000000006,-88.04,-88.34
1733129607609161786,1733129607608633518,5,-0.37,-0.13,1.39,43.019952999999994,-87.39,-88.28
1733129607708159465,1733129607707689046,5,-0.37,-0.13,1.39,42.926145999999996,-86.32,-85.6
1733129607909735479,1733129607909510850,5,-0.37,-0.13,1.39,42.794816,-87.63,-87.23
1733129608009242729,1733129608008950471,5,-0.37,-0.13,1.39,42.62596333333333,-87.48,-88.88
1733129608109028072,1733129608108804941,5,-0.37,-0.13,1.39,42.47587133333333,-86.57,-86.57
1733129608209132760,1733129608208926916,5,-0.37,-0.13,1.39,42.369557,-85.99,-85.76
1733129608308054650,1733129608307635545,5,-0.37,-0.13,1.39,42.275749999999995,-88.02,-87.56
1733129608409786323,1733129608409604072,5,-0.37,-0.13,1.39,42.156927333333336,-86.65,-88.46
1733129608509137144,1733129608508929491,5,-0.37,-0.13,1.39,42.019344,-86.47,-86.29
1733129608607984723,1733129608607612133,5,-0.37,-0.13,1.39,41.90677466666667,-86.62,-87.38
1733129608708017601,1733129608707670450,5,-0.37,-0.13,1.39,41.79420666666667,-86.87,-86.95
1733129608808233451,1733129608807658433,5,-0.37,-0.13,1.39,41.70039933333334,-86.35,-86.02
1733129608910888582,1733129608910647153,5,-0.37,-0.13,1.39,41.594085,-84.71,-85.84
1733129609009209862,1733129609008942127,5,-0.37,-0.13,1.39,41.481516,-87.15,-86.71
1733129609108105897,1733129609107657909,5,-0.37,-0.13,1.39,41.36269333333333,-86.06,-86.81
1733129609208250084,1733129609207663059,5,-0.37,-0.13,1.39,41.218855,-85.84,-85.59
1733129609307827195,1733129609307638883,5,-0.37,-0.13,1.39,41.118794333333334,-85.76,-86.88
1733129609408511862,1733129609407717704,5,-0.37,-0.13,1.39,40.981210999999995,-86.45,-86.53
1733129609508123657,1733129609507641792,5,-0.37,-0.13,1.39,40.874896666666665,-85.44,-86.22
1733129609607795899,1733129609607612371,5,-0.37,-0.13,1.39,40.743566666666666,-86.89,-86.11
1733129609708028846,1733129609707598447,5,-0.37,-0.13,1.39,40.624744,-85.23,-86.56
1733129609808071128,1733129609807663202,5,-0.37,-0.13,1.39,40.499667666666674,-85.6,-85.42
1733129609910974534,1733129609910774707,5,-0.37,-0.13,1.39,40.374591333333335,-85.42,-86.9
1733129610011211266,1733129610010638475,5,-0.37,-0.13,1.39,40.268277,-86.12,-87.31
1733129610111344748,1733129610111131191,5,-0.37,-0.13,1.39,40.17447,-86.01,-88.05
1733129610211204333,1733129610210872888,5,-0.37,-0.13,1.39,40.086916333333335,-87.14,-87.43
1733129610310689572,1733129610310397148,5,-0.37,-0.13,1.39,40.030631666666665,-84.81,-85.8
1733129610411584247,1733129610411298513,5,-0.37,-0.13,1.39,39.968093333333336,-84.79,-84.4
1733129610510709870,1733129610510558605,5,-0.37,-0.13,1.39,39.924317333333335,-83.7,-84.28
1733129610611103852,1733129610610928297,5,-0.37,-0.13,1.39,39.880541,-83.01,-84.74
1733129610711369435,1733129610711271524,5,-0.37,-0.13,1.39,39.83051,-81.79,-83.33
1733129610810931896,1733129610810800790,5,-0.37,-0.13,1.39,39.81800166666667,-81.89,-82.72
1733129610911052038,1733129610910845041,5,-0.37,-0.13,1.39,39.805494333333336,-82.26,-83.84
