%time,field.stamp,field.id,field.x,field.y,field.z,field.distanceFromTag,field.rssi,field.rssi_fp
1733129523608166956,1733129523607613325,9,2.31,0.87,0.5,7.091819666666666,-79.34,-80.74
1733129523707832041,1733129523707626819,9,2.31,0.87,0.5,7.104327333333333,-79.14,-80.75
1733129523808195808,1733129523807628393,9,2.31,0.87,0.5,7.104327333333333,-79.69,-81.14
1733129523907983208,1733129523907618522,9,2.31,0.87,0.5,7.091819666666666,-79.06,-80.63
1733129524008037931,1733129524007605314,9,2.31,0.87,0.5,7.079311999999999,-79.72,-80.92
1733129524809267686,1733129524808890581,9,2.31,0.87,0.5,7.0793116666666664,-79.29,-80.68
1733129524909059292,1733129524908805131,9,2.31,0.87,0.5,7.073057666666667,-79.42,-80.93
1733129525007993168,1733129525007609844,9,2.31,0.87,0.5,7.0793116666666664,-79.15,-80.9
1733129525108157074,1733129525107668399,9,2.31,0.87,0.5,7.073058,-79.47,-81.11
1733129525208045149,1733129525207616567,9,2.31,0.87,0.5,7.0730580000000005,-79.5,-80.95
1733129525309060375,1733129525308889627,9,2.31,0.87,0.5,7.041788666666666,-79.59,-80.69
1733129525409219381,1733129525408938646,9,2.31,0.87,0.5,7.060550333333334,-79.24,-80.72
1733129525509249680,1733129525509006023,9,2.31,0.87,0.5,7.060550333333334,-79.25,-80.7
1733129525610654411,1733129525610260248,9,2.31,0.87,0.5,7.091819666666666,-79.24,-80.76
1733129525710625808,1733129525710482358,9,2.31,0.87,0.5,7.073058,-79.24,-80.97
1733129525810995977,1733129525810762166,9,2.31,0.87,0.5,7.091819666666667,-79.36,-81.04
1733129525910864567,1733129525910644292,9,2.31,0.87,0.5,7.079311999999999,-79.2,-80.91
1733129526010649816,1733129526010466098,9,2.31,0.87,0.5,7.091819666666666,-79.37,-80.83
1733129526111054872,1733129526110857248,9,2.31,0.87,0.5,7.079311999999999,-79.15,-80.91
1733129526210935795,1733129526210779190,9,2.31,0.87,0.5,7.073058,-79.08,-80.77
1733129526310882556,1733129526310649156,9,2.31,0.87,0.5,7.073058,-79.18,-80.61
1733129526410877299,1733129526410582780,9,2.31,0.87,0.5,7.073058,-79.13,-80.6
1733129526510606299,1733129526510432243,9,2.31,0.87,0.5,7.066804,-79.18,-80.95
1733129526611293913,1733129526611085414,9,2.31,0.87,0.5,7.0730580000000005,-79.15,-80.67
1733129526710193753,1733129526710032224,9,2.31,0.87,0.5,7.085565666666667,-79.43,-80.81
1733129526810298110,1733129526809999704,9,2.31,0.87,0.5,7.085565666666667,-79.16,-81.1
1733129526910209213,1733129526909902095,9,2.31,0.87,0.5,7.0793116666666664,-79.21,-80.9
1733129527010193169,1733129527009884595,9,2.31,0.87,0.5,7.066804,-79.32,-80.68
1733129527109928774,1733129527109757423,9,2.31,0.87,0.5,7.073058,-79.86,-81.18
1733129527210040906,1733129527209831953,9,2.31,0.87,0.5,7.073058,-79.3,-80.91
1733129527310092954,1733129527309875726,9,2.31,0.87,0.5,7.079311999999999,-79.22,-81.01
1733129527409182093,1733129527408876180,9,2.31,0.87,0.5,7.079311999999999,-79.56,-80.9
1733129527510002153,1733129527509690523,9,2.31,0.87,0.5,7.073058,-79.42,-80.7
1733129527609951581,1733129527609697818,9,2.31,0.87,0.5,7.0793116666666664,-79.27,-80.93
1733129527709913434,1733129527709843397,9,2.31,0.87,0.5,7.0793116666666664,-79.46,-80.85
1733129527810573352,1733129527810349464,9,2.31,0.87,0.5,7.098073333333333,-79.3,-80.73
1733129527909664279,1733129527909470796,9,2.31,0.87,0.5,7.073058,-79.88,-80.93
1733129528010030579,1733129528009872674,9,2.31,0.87,0.5,7.085565666666667,-79.69,-80.78
1733129528109838234,1733129528109638214,9,2.31,0.87,0.5,7.079311999999999,-79.29,-80.77
1733129528210813583,1733129528210561275,9,2.31,0.87,0.5,7.116834999999999,-80.68,-81.04
1733129528309620086,1733129528309425592,9,2.31,0.87,0.5,7.116834999999999,-79.33,-80.95
1733129528410017281,1733129528409730911,9,2.31,0.87,0.5,7.116834999999999,-79.28,-81.02
1733129528510355647,1733129528510071039,9,2.31,0.87,0.5,7.104327333333333,-79.15,-80.71
1733129528610656448,1733129528610488891,9,2.31,0.87,0.5,7.079312000000001,-79.05,-81.0
1733129528710956957,1733129528710776567,9,2.31,0.87,0.5,7.079311999999999,-78.92,-80.66
1733129528810609900,1733129528810387611,9,2.31,0.87,0.5,7.079312000000001,-79.24,-80.75
1733129528909935160,1733129528909706830,9,2.31,0.87,0.5,7.091819666666666,-79.42,-80.82
1733129529010441977,1733129529010268211,9,2.31,0.87,0.5,7.091819666666666,-79.29,-80.89
1733129529110379421,1733129529110149621,9,2.31,0.87,0.5,7.104327333333333,-79.2,-80.81
1733129529210289997,1733129529210011959,9,2.31,0.87,0.5,7.116834999999999,-79.42,-80.84
1733129529310293666,1733129529310041427,9,2.31,0.87,0.5,7.123088666666667,-79.33,-80.87
1733129529409714481,1733129529409617900,9,2.31,0.87,0.5,7.098073333333333,-79.32,-80.67
1733129529510422037,1733129529510215759,9,2.31,0.87,0.5,7.104327333333333,-81.22,-81.52
1733129529609029884,1733129529608942031,9,2.31,0.87,0.5,7.098073666666667,-79.41,-80.82
1733129529709125395,1733129529708769798,9,2.31,0.87,0.5,7.110581333333333,-79.53,-80.62
1733129529809061309,1733129529808824539,9,2.31,0.87,0.5,7.091819666666666,-79.25,-80.97
1733129529908917792,1733129529908734321,9,2.31,0.87,0.5,7.091819666666666,-79.18,-80.77
1733129530009370151,1733129530009139537,9,2.31,0.87,0.5,7.079311999999999,-79.2,-80.61
1733129530110544489,1733129530110328674,9,2.31,0.87,0.5,7.091819666666666,-79.32,-80.83
1733129530310772515,1733129530310482740,9,2.31,0.87,0.5,7.085565666666667,-79.42,-81.29
1733129530410037535,1733129530409753322,9,2.31,0.87,0.5,7.110581,-79.4,-80.71
1733129530510426589,1733129530510153055,9,2.31,0.87,0.5,7.110581,-79.31,-80.68
1733129530610973271,1733129530610809087,9,2.31,0.87,0.5,7.110581,-79.63,-81.1
1733129531209159118,1733129531208911418,9,2.31,0.87,0.5,7.091820000000001,-79.45,-80.77
1733129531310138879,1733129531309925794,9,2.31,0.87,0.5,7.079312000000001,-79.22,-80.63
1733129531410468746,1733129531410304546,9,2.31,0.87,0.5,7.079311999999999,-79.42,-80.91
1733129531510416690,1733129531510257482,9,2.31,0.87,0.5,7.066804,-79.31,-80.98
1733129531608030039,1733129531607620239,9,2.31,0.87,0.5,7.085565666666667,-79.67,-80.85
1733129531708204709,1733129531707666873,9,2.31,0.87,0.5,7.0918193333333335,-79.43,-81.06
1733129531809825199,1733129531809743165,9,2.31,0.87,0.5,7.104327333333333,-79.23,-80.63
1733129531907910718,1733129531907610893,9,2.31,0.87,0.5,7.079311999999999,-79.36,-80.92
1733129532008035781,1733129532007620811,9,2.31,0.87,0.5,7.085565666666667,-79.42,-80.89
1733129532107857417,1733129532107604980,9,2.31,0.87,0.5,7.098073333333333,-79.46,-80.61
1733129532207972670,1733129532207613468,9,2.31,0.87,0.5,7.110581,-79.2,-80.64
1733129532308193756,1733129532307660579,9,2.31,0.87,0.5,7.110581,-79.27,-80.86
1733129532408712763,1733129532407686948,9,2.31,0.87,0.5,7.110581,-80.14,-80.84
1733129532508194061,1733129532507668018,9,2.31,0.87,0.5,7.104327333333333,-79.37,-80.89
1733129532607977519,1733129532607608318,9,2.31,0.87,0.5,7.085565666666667,-79.36,-80.86
1733129532707982918,1733129532707628726,9,2.31,0.87,0.5,7.091819666666666,-79.21,-80.54
1733129532807975166,1733129532807619094,9,2.31,0.87,0.5,7.066804333333333,-79.5,-80.99
1733129532907940580,1733129532907625198,9,2.31,0.87,0.5,7.048043333333333,-79.6,-81.16
1733129533008014285,1733129533007623672,9,2.31,0.87,0.5,7.004266666666666,-79.41,-80.75
1733129533108097986,1733129533107630729,9,2.31,0.87,0.5,6.985505333333333,-79.23,-80.9
1733129533207935595,1733129533207610368,9,2.31,0.87,0.5,6.972997666666667,-79.46,-81.1
1733129533308049191,1733129533307640314,9,2.31,0.87,0.5,6.947982333333333,-79.65,-80.96
1733129533408018305,1733129533407605171,9,2.31,0.87,0.5,6.935474666666667,-79.31,-80.77
1733129533509019085,1733129533508891582,9,2.31,0.87,0.5,6.897951666666667,-79.57,-80.94
1733129533608915134,1733129533608669757,9,2.31,0.87,0.5,6.872936333333333,-79.82,-80.87
1733129533710762063,1733129533710513591,9,2.31,0.87,0.5,6.835413333333334,-79.67,-80.89
1733129533809267434,1733129533808935642,9,2.31,0.87,0.5,6.785383,-79.59,-80.79
1733129533910814403,1733129533910574197,9,2.31,0.87,0.5,6.747860333333333,-80.03,-80.88
1733129534007931415,1733129534007628917,9,2.31,0.87,0.5,6.716591333333334,-79.72,-80.97
1733129534108012913,1733129534107643842,9,2.31,0.87,0.5,6.679068333333333,-80.0,-81.18
1733129534208012525,1733129534207655191,9,2.31,0.87,0.5,6.61653,-79.97,-81.43
1733129534307945953,1733129534307626962,9,2.31,0.87,0.5,6.535230333333334,-79.73,-80.91
1733129534410876644,1733129534410335779,9,2.31,0.87,0.5,6.510215,-79.81,-80.76
1733129534509460678,1733129534509062767,9,2.31,0.87,0.5,6.4789460000000005,-79.64,-80.9
1733129534609244664,1733129534608979225,9,2.31,0.87,0.5,6.441423333333333,-80.21,-81.08
1733129534708923830,1733129534708755016,9,2.31,0.87,0.5,6.385139,-79.67,-80.64
1733129534809060041,1733129534808769941,9,2.31,0.87,0.5,6.335108666666667,-79.48,-81.14
1733129534909015910,1733129534908735752,9,2.31,0.87,0.5,6.303839666666668,-79.04,-80.42
1733129535009484001,1733129535009152412,9,2.31,0.87,0.5,6.260063,-79.42,-80.97
1733129535109323812,1733129535109016418,9,2.31,0.87,0.5,6.210032333333333,-79.24,-80.72
1733129535209174823,1733129535208960771,9,2.31,0.87,0.5,6.153748,-79.26,-80.66
1733129535309087240,1733129535308744192,9,2.31,0.87,0.5,6.084956333333333,-79.21,-81.04
1733129535408933777,1733129535408763885,9,2.31,0.87,0.5,6.028672,-79.18,-80.81
1733129535509246040,1733129535508828639,9,2.31,0.87,0.5,5.972387666666666,-79.55,-80.92
1733129535609127370,1733129535609002828,9,2.31,0.87,0.5,5.947372333333334,-79.2,-80.78
1733129535709211878,1733129535708926439,9,2.31,0.87,0.5,5.916103333333333,-79.07,-80.6
1733129535809081080,1733129535808856487,9,2.31,0.87,0.5,5.878580333333333,-78.83,-80.49
1733129535909039334,1733129535908785581,9,2.31,0.87,0.5,5.834803666666666,-79.18,-80.59
1733129536009049280,1733129536008816480,9,2.31,0.87,0.5,5.7785193333333345,-78.99,-80.48
1733129536109008791,1733129536108895301,9,2.31,0.87,0.5,5.759758000000001,-79.12,-80.61
1733129536208959830,1733129536208744525,9,2.31,0.87,0.5,5.740996666666667,-79.14,-80.68
1733129536309375931,1733129536309037685,9,2.31,0.87,0.5,5.709727666666667,-79.29,-81.08
1733129536410011749,1733129536409683942,9,2.31,0.87,0.5,5.647189666666667,-78.67,-80.39
1733129536510829346,1733129536510647773,9,2.31,0.87,0.5,5.572144000000001,-78.84,-80.6
1733129536607946060,1733129536607649803,9,2.31,0.87,0.5,5.528367333333333,-78.69,-80.4
1733129536708104027,1733129536707645177,9,2.31,0.87,0.5,5.478336666666667,-79.44,-80.94
1733129536808037444,1733129536807642459,9,2.31,0.87,0.5,5.43456,-79.06,-80.64
1733129536909219410,1733129536908950567,9,2.31,0.87,0.5,5.403290999999999,-79.49,-81.18
1733129537009060151,1733129537008909940,9,2.31,0.87,0.5,5.4095450000000005,-79.04,-80.53
1733129537107927420,1733129537107644081,9,2.31,0.87,0.5,5.390783666666667,-79.04,-80.61
1733129537207838673,1733129537207641363,9,2.31,0.87,0.5,5.372022333333334,-78.84,-80.75
1733129537308087887,1733129537307654380,9,2.31,0.87,0.5,5.315738,-78.82,-80.68
1733129537408042805,1733129537407598257,9,2.31,0.87,0.5,5.2907226666666665,-79.0,-80.62
1733129537509024483,1733129537508726835,9,2.31,0.87,0.5,5.271961,-79.12,-80.54
1733129537609010745,1733129537608891725,9,2.31,0.87,0.5,5.259453333333333,-79.13,-80.52
1733129537808133177,1733129537807627677,9,2.31,0.87,0.5,5.240692,-79.17,-80.62
1733129537909591904,1733129537909335136,9,2.31,0.87,0.5,5.203169333333332,-79.26,-80.53
1733129538008125199,1733129538007614135,9,2.31,0.87,0.5,5.203169333333334,-80.87,-81.57
1733129538110272390,1733129538110183238,9,2.31,0.87,0.5,5.190661333333334,-79.53,-80.99
1733129538209076432,1733129538208992958,9,2.31,0.87,0.5,5.184407333333334,-79.65,-81.03
1733129538307980146,1733129538307609796,9,2.31,0.87,0.5,5.1719,-80.45,-81.2
1733129538410745481,1733129538410577058,9,2.31,0.87,0.5,5.1719,-79.69,-80.87
1733129538510451818,1733129538510226726,9,2.31,0.87,0.5,5.178154,-79.57,-80.85
1733129538610140178,1733129538609977245,9,2.31,0.87,0.5,5.178154,-79.26,-81.0
1733129538710708947,1733129538710566759,9,2.31,0.87,0.5,5.203169333333334,-79.29,-80.64
1733129538810471132,1733129538810316562,9,2.31,0.87,0.5,5.2281846666666665,-79.29,-80.6
1733129538910924262,1733129538910777807,9,2.31,0.87,0.5,5.246946,-79.06,-80.77
1733129539011290124,1733129539011021137,9,2.31,0.87,0.5,5.265707333333332,-79.11,-81.0
1733129539110688737,1733129539110412836,9,2.31,0.87,0.5,5.284468666666666,-79.01,-80.4
1733129539210510056,1733129539210333585,9,2.31,0.87,0.5,5.309484,-78.95,-80.47
1733129539310723870,1733129539310323476,9,2.31,0.87,0.5,5.328245666666667,-78.91,-80.38
1733129539410589871,1733129539410306215,9,2.31,0.87,0.5,5.359514666666667,-79.24,-80.72
1733129539510788063,1733129539510521888,9,2.31,0.87,0.5,5.390783333333334,-78.98,-80.96
1733129539610634759,1733129539610430955,9,2.31,0.87,0.5,5.43456,-78.93,-80.54
1733129539710561559,1733129539710362195,9,2.31,0.87,0.5,5.4720830000000005,-78.8,-80.69
1733129539810638585,1733129539810389995,9,2.31,0.87,0.5,5.509606000000001,-79.11,-81.07
1733129539911263067,1733129539910934925,9,2.31,0.87,0.5,5.565890333333333,-79.29,-80.76
1733129540010574424,1733129540010362386,9,2.31,0.87,0.5,5.622174333333334,-78.95,-80.52
1733129540110873707,1733129540110697984,9,2.31,0.87,0.5,5.703474,-78.88,-80.55
1733129540210550902,1733129540210360050,9,2.31,0.87,0.5,5.747250666666667,-78.68,-80.42
1733129540310490534,1733129540310418367,9,2.31,0.87,0.5,5.834804000000001,-78.89,-80.53
1733129540410231060,1733129540410130977,9,2.31,0.87,0.5,5.891088,-79.29,-80.89
1733129540510475703,1733129540510294198,9,2.31,0.87,0.5,5.953626,-79.14,-80.92
1733129540610519970,1733129540610211610,9,2.31,0.87,0.5,5.984895333333333,-79.26,-81.11
1733129540710496308,1733129540710297584,9,2.31,0.87,0.5,6.047433666666667,-79.17,-80.94
1733129540810605476,1733129540810467004,9,2.31,0.87,0.5,6.134987,-79.3,-80.82
1733129540910442205,1733129540910276889,9,2.31,0.87,0.5,6.222540333333334,-79.44,-80.83
1733129541010591441,1733129541010469913,9,2.31,0.87,0.5,6.285078333333334,-79.8,-81.16
1733129541110936884,1733129541110693454,9,2.31,0.87,0.5,6.353870333333333,-80.04,-81.98
1733129541210629931,1733129541210440158,9,2.31,0.87,0.5,6.428916,-79.32,-81.15
1733129541709622845,1733129541709480285,9,2.31,0.87,0.5,6.916712999999999,-78.96,-80.68
1733129541809921773,1733129541809729099,9,2.31,0.87,0.5,7.016774000000001,-78.97,-80.56
1733129541909702235,1733129541909533023,9,2.31,0.87,0.5,7.1043270000000005,-78.91,-80.75
1733129542008997721,1733129542008751869,9,2.31,0.87,0.5,7.179372666666666,-79.01,-80.57
1733129542110882463,1733129542110738754,9,2.31,0.87,0.5,7.266926000000001,-79.06,-80.61
1733129542210623122,1733129542210355520,9,2.31,0.87,0.5,7.366986999999999,-78.98,-80.69
1733129542311197771,1733129542310926198,9,2.31,0.87,0.5,7.473301666666667,-79.12,-80.75
1733129542410817593,1733129542410680055,9,2.31,0.87,0.5,7.560855,-78.96,-80.69
1733129542510613432,1733129542510476589,9,2.31,0.87,0.5,7.66717,-78.96,-80.4
1733129542907928609,1733129542907636404,9,2.31,0.87,0.5,7.861038333333333,-79.13,-80.49
1733129543009130012,1733129543008786201,9,2.31,0.87,0.5,8.048652666666667,-79.21,-80.61
1733129543108964197,1733129543108868360,9,2.31,0.87,0.5,8.223759333333332,-78.88,-80.48
1733129543209067395,1733129543208897590,9,2.31,0.87,0.5,8.323820333333334,-79.03,-80.63
1733129543309136493,1733129543308825254,9,2.31,0.87,0.5,8.461404333333334,-79.26,-80.75
1733129543407957239,1733129543407650709,9,2.31,0.87,0.5,8.567719333333333,-79.16,-80.62
1733129543608300227,1733129543607665300,9,2.31,0.87,0.5,8.724064666666665,-78.93,-80.41
1733129543709178416,1733129543708884000,9,2.31,0.87,0.5,8.849140666666665,-79.13,-80.7
1733129543810042492,1733129543809926986,9,2.31,0.87,0.5,9.017993333333335,-79.44,-80.73
1733129543910084647,1733129543910010814,9,2.31,0.87,0.5,9.130561666666667,-79.39,-80.44
1733129544008931918,1733129544008676767,9,2.31,0.87,0.5,9.243130333333333,-79.55,-80.82
1733129544109416797,1733129544109198331,9,2.31,0.87,0.5,9.343191333333332,-79.78,-81.65
1733129544209587872,1733129544209517478,9,2.31,0.87,0.5,9.45576,-80.49,-81.22
1733129544309782972,1733129544309592008,9,2.31,0.87,0.5,9.580836333333334,-80.97,-81.46
1733129544410087753,1733129544409789800,9,2.31,0.87,0.5,9.699658666666666,-84.46,-85.69
1733129544511725564,1733129544511398315,9,2.31,0.87,0.5,9.799719333333334,-81.14,-82.4
1733129544641018483,1733129544640485286,9,2.31,0.87,0.5,9.89978,-80.58,-82.46
1733129544709533208,1733129544709241390,9,2.31,0.87,0.5,9.993587,-80.51,-81.23
1733129544807932043,1733129544807606220,9,2.31,0.87,0.5,10.093648333333332,-80.33,-81.16
1733129544908017217,1733129544907619237,9,2.31,0.87,0.5,10.206217,-80.04,-81.1
1733129545007857016,1733129545007602453,9,2.31,0.87,0.5,10.331293333333333,-79.64,-81.25
1733129545108202226,1733129545107674837,9,2.31,0.87,0.5,10.456369666666667,-79.63,-80.79
1733129545209785955,1733129545209449291,9,2.31,0.87,0.5,10.562684666666668,-79.63,-80.72
1733129545309551665,1733129545309469223,9,2.31,0.87,0.5,10.668999333333334,-79.67,-81.11
1733129545410411954,1733129545409472227,9,2.31,0.87,0.5,10.781567666666668,-79.32,-80.97
1733129545509722402,1733129545509515285,9,2.31,0.87,0.5,10.919151333333332,-79.24,-80.53
1733129545609936607,1733129545609795331,9,2.31,0.87,0.5,11.03172,-79.0,-80.63
1733129545709926723,1733129545709725141,9,2.31,0.87,0.5,11.150542333333334,-79.48,-80.76
1733129545809817714,1733129545809611320,9,2.31,0.87,0.5,11.238095666666666,-79.31,-80.77
1733129545909821312,1733129545909615516,9,2.31,0.87,0.5,11.350664333333334,-79.24,-80.76
1733129546009134892,1733129546008941173,9,2.31,0.87,0.5,11.444471333333333,-79.08,-80.44
1733129546109623014,1733129546108938932,9,2.31,0.87,0.5,11.563293666666667,-79.32,-80.51
1733129546209279198,1733129546209074497,9,2.31,0.87,0.5,11.663354666666669,-79.06,-80.62
1733129546309179476,1733129546308885097,9,2.31,0.87,0.5,11.775923333333333,-79.36,-80.82
1733129546409199950,1733129546408975362,9,2.31,0.87,0.5,11.875984333333335,-79.2,-80.72
1733129546509069200,1733129546508875608,9,2.31,0.87,0.5,11.994806666666667,-79.32,-81.01
1733129546608943232,1733129546608678817,9,2.31,0.87,0.5,12.107375,-79.45,-80.95
1733129546709109433,1733129546708854198,9,2.31,0.87,0.5,12.345019333333333,-79.03,-80.82
1733129546808966763,1733129546808723211,9,2.31,0.87,0.5,12.482603333333335,-79.07,-80.69
1733129546907955634,1733129546907649993,9,2.31,0.87,0.5,12.607679666666668,-79.37,-80.6
1733129547007979868,1733129547007638692,9,2.31,0.87,0.5,12.726502333333334,-79.04,-80.49
1733129547107890026,1733129547107617855,9,2.31,0.87,0.5,12.820309333333334,-79.32,-80.93
1733129547209176178,1733129547209004402,9,2.31,0.87,0.5,12.926623999999999,-79.15,-80.53
1733129547309004056,1733129547308749675,9,2.31,0.87,0.5,13.039192333333332,-80.14,-80.83
1733129547409059613,1733129547408775091,9,2.31,0.87,0.5,13.164268666666667,-79.27,-80.5
1733129547509421206,1733129547509114027,9,2.31,0.87,0.5,13.289344999999999,-79.98,-81.27
1733129547608088344,1733129547607650995,9,2.31,0.87,0.5,13.414421333333332,-79.84,-80.92
1733129547708027475,1733129547707645893,9,2.31,0.87,0.5,13.545751333333333,-79.84,-80.87
1733129547807941683,1733129547807580947,9,2.31,0.87,0.5,13.670826999999997,-79.41,-80.76
1733129547907953518,1733129547907629013,9,2.31,0.87,0.5,13.814664666666665,-80.82,-81.23
1733129548008463786,1733129548007621049,9,2.31,0.87,0.5,13.952248666666668,-80.0,-80.91
1733129548108054499,1733129548107628822,9,2.31,0.87,0.5,14.083579,-79.97,-80.76
1733129548207950290,1733129548207628965,9,2.31,0.87,0.5,14.196147666666668,-79.7,-80.85
1733129548307875019,1733129548307610273,9,2.31,0.87,0.5,14.308715999999999,-79.8,-80.47
1733129548408099370,1733129548407624006,9,2.31,0.87,0.5,14.427538,-80.27,-81.29
1733129548507962693,1733129548507606983,9,2.31,0.87,0.5,14.546360333333332,-79.9,-81.02
1733129549109051378,1733129549108737468,9,2.31,0.87,0.5,15.328086666666666,-81.2,-81.65
1733129549209096061,1733129549208902597,9,2.31,0.87,0.5,15.453162999999998,-81.18,-81.09
1733129549308004206,1733129549307610511,9,2.31,0.87,0.5,15.565731666666666,-80.88,-81.32
1733129549408109599,1733129549407634258,9,2.31,0.87,0.5,15.684554,-81.79,-82.4
1733129549510801321,1733129549510582685,9,2.31,0.87,0.5,15.80963,-81.47,-81.73
1733129549640842278,1733129549640686035,9,2.31,0.87,0.5,15.947213666666665,-81.12,-81.65
1733129549710729759,1733129549710501670,9,2.31,0.87,0.5,16.072289666666666,-82.1,-82.19
1733129549810269528,1733129549810148239,9,2.31,0.87,0.5,16.222381,-83.51,-83.39
1733129549910538100,1733129549910419702,9,2.31,0.87,0.5,16.347457333333335,-82.77,-82.69
1733129550010753661,1733129550010544776,9,2.31,0.87,0.5,16.478787333333333,-83.41,-83.57
1733129550110111524,1733129550109878540,9,2.31,0.87,0.5,16.597609666666667,-83.83,-85.67
1733129550210293561,1733129550210084438,9,2.31,0.87,0.5,16.722685333333335,-84.02,-85.04
1733129550309796067,1733129550309609889,9,2.31,0.87,0.5,16.854015,-85.37,-85.35
1733129550409880195,1733129550409755468,9,2.31,0.87,0.5,16.972837000000002,-85.85,-86.2
1733129550510152267,1733129550509783267,9,2.31,0.87,0.5,17.09165966666667,-86.31,-87.7
1733129550609129302,1733129550608864784,9,2.31,0.87,0.5,17.204228333333337,-86.38,-87.08
1733129550709784595,1733129550709540128,9,2.31,0.87,0.5,17.31679766666667,-88.24,-89.73
1733129550808071259,1733129550807635307,9,2.31,0.87,0.5,17.429366,-87.98,-88.07
1733129550908046572,1733129550907644748,9,2.31,0.87,0.5,17.560695666666664,-87.27,-87.32
1733129551008083259,1733129551007610321,9,2.31,0.87,0.5,17.68577133333333,-87.65,-89.44
1733129551108077704,1733129551107620000,9,2.31,0.87,0.5,17.79834,-87.92,-88.98
1733129551208075842,1733129551207603693,9,2.31,0.87,0.5,17.923416333333336,-88.32,-89.22
1733129551307737876,1733129551307627916,9,2.31,0.87,0.5,18.054746666666666,-86.28,-87.4
1733129551411270613,1733129551410969972,9,2.31,0.87,0.5,18.211091999999997,-86.48,-87.84
1733129551509927099,1733129551509727478,9,2.31,0.87,0.5,18.342422000000003,-86.38,-86.63
1733129551609984551,1733129551609746932,9,2.31,0.87,0.5,18.46749766666667,-86.47,-86.54
1733129551709892472,1733129551709701061,9,2.31,0.87,0.5,18.605081,-85.47,-87.09
1733129551809800455,1733129551809578180,9,2.31,0.87,0.5,18.742665000000002,-85.54,-85.05
1733129551909837747,1733129551909695148,9,2.31,0.87,0.5,18.873995333333337,-85.38,-85.76
1733129552010108989,1733129552009890317,9,2.31,0.87,0.5,18.999071666666666,-84.75,-84.45
1733129552109942343,1733129552109735250,9,2.31,0.87,0.5,19.111640333333334,-84.48,-84.25
1733129552210217571,1733129552209938287,9,2.31,0.87,0.5,19.236716,-84.52,-84.35
1733129552309823225,1733129552309621095,9,2.31,0.87,0.5,19.368046,-83.2,-82.69
1733129552409238233,1733129552408849716,9,2.31,0.87,0.5,19.511883333333333,-83.76,-84.99
1733129552509983407,1733129552509774923,9,2.31,0.87,0.5,19.64946766666667,-83.02,-82.76
1733129552609756298,1733129552609612941,9,2.31,0.87,0.5,19.768290333333336,-83.27,-82.69
1733129552711036974,1733129552710821151,9,2.31,0.87,0.5,19.868351333333333,-83.76,-83.7
1733129552810534448,1733129552810342073,9,2.31,0.87,0.5,19.974666333333335,-82.98,-82.84
1733129552910874296,1733129552910609006,9,2.31,0.87,0.5,20.087234999999996,-83.16,-82.47
1733129553010934997,1733129553010743618,9,2.31,0.87,0.5,20.237326666666668,-82.52,-81.96
1733129553109983856,1733129553109756469,9,2.31,0.87,0.5,20.362402666666668,-82.41,-82.67
1733129553209174384,1733129553209018707,9,2.31,0.87,0.5,20.493732333333334,-82.46,-82.08
1733129553308981076,1733129553308861017,9,2.31,0.87,0.5,20.587539666666668,-82.18,-81.77
1733129553409306883,1733129553409021854,9,2.31,0.87,0.5,20.700108333333333,-82.3,-81.89
1733129553507885249,1733129553507627248,9,2.31,0.87,0.5,20.80642333333333,-81.87,-81.43
1733129553609295519,1733129553609062194,9,2.31,0.87,0.5,20.931499,-81.91,-82.12
1733129553709061738,1733129553708966255,9,2.31,0.87,0.5,21.062829,-82.67,-82.41
1733129553808857077,1733129553808680772,9,2.31,0.87,0.5,21.187905333333333,-82.73,-83.6
1733129553909092632,1733129553908771991,9,2.31,0.87,0.5,21.31298166666667,-81.99,-82.04
1733129554008932316,1733129554008750438,9,2.31,0.87,0.5,21.456819,-82.3,-81.82
1733129554108885687,1733129554108712196,9,2.31,0.87,0.5,21.581894666666667,-81.68,-81.26
1733129554209316146,1733129554208768606,9,2.31,0.87,0.5,21.719478666666664,-83.76,-85.1
1733129554308913046,1733129554308738231,9,2.31,0.87,0.5,21.832047333333332,-81.82,-81.52
1733129554409165391,1733129554408921957,9,2.31,0.87,0.5,21.969631333333336,-82.03,-81.64
1733129554509269824,1733129554508818149,9,2.31,0.87,0.5,22.082199666666668,-81.56,-81.51
1733129554639424709,1733129554639076232,9,2.31,0.87,0.5,22.201021666666666,-81.79,-81.53
1733129554707995922,1733129554707609415,9,2.31,0.87,0.5,22.313590333333334,-81.49,-81.61
1733129554807904148,1733129554807606220,9,2.31,0.87,0.5,22.432412666666664,-81.58,-81.91
1733129554908184358,1733129554907653570,9,2.31,0.87,0.5,22.557489,-81.51,-81.57
1733129555009323211,1733129555008987188,9,2.31,0.87,0.5,22.688818666666666,-81.76,-81.46
1733129555108901173,1733129555108812093,9,2.31,0.87,0.5,22.820149,-81.41,-81.22
1733129555209173906,1733129555208957195,9,2.31,0.87,0.5,22.957733,-81.61,-81.62
1733129555310644596,1733129555310408592,9,2.31,0.87,0.5,23.201631333333335,-81.84,-81.64
1733129555410851118,1733129555410608291,9,2.31,0.87,0.5,23.326707,-81.33,-82.74
1733129555510569034,1733129555510433197,9,2.31,0.87,0.5,23.458037,-81.16,-81.1
1733129555610833240,1733129555610688686,9,2.31,0.87,0.5,23.601874666666664,-81.6,-81.44
1733129555711222873,1733129555711043834,9,2.31,0.87,0.5,23.745712333333334,-81.4,-81.48
1733129555810681197,1733129555810386180,9,2.31,0.87,0.5,23.858280666666662,-81.02,-81.13
1733129555909162977,1733129555908912658,9,2.31,0.87,0.5,23.977103,-81.28,-81.5
1733129556009109397,1733129556008790493,9,2.31,0.87,0.5,24.077164333333332,-81.29,-81.56
1733129556110244950,1733129556110070228,9,2.31,0.87,0.5,24.21474866666667,-81.3,-81.25
1733129556209983032,1733129556209765195,9,2.31,0.87,0.5,24.33982466666667,-81.6,-82.63
1733129556309997646,1733129556309793949,9,2.31,0.87,0.5,24.471154666666667,-81.27,-82.05
1733129556409828682,1733129556409628629,9,2.31,0.87,0.5,24.58997666666667,-81.15,-82.13
1733129556509870247,1733129556509622097,9,2.31,0.87,0.5,24.715053,-81.06,-81.08
1733129556610383303,1733129556610080003,9,2.31,0.87,0.5,24.833875000000003,-82.49,-82.45
1733129556707875369,1733129556707608222,9,2.31,0.87,0.5,24.952697666666666,-81.61,-81.75
1733129556807988475,1733129556807624101,9,2.31,0.87,0.5,25.084027666666667,-81.67,-81.98
1733129556907975943,1733129556907626152,9,2.31,0.87,0.5,25.21535833333333,-81.48,-81.7
1733129557007979167,1733129557007611989,9,2.31,0.87,0.5,25.35294166666667,-80.92,-80.93
1733129557107895867,1733129557107643365,9,2.31,0.87,0.5,25.51554066666667,-82.17,-81.98
1733129557409337090,1733129557408997058,9,2.31,0.87,0.5,25.690647333333335,-81.2,-81.11
1733129557509089383,1733129557508786678,9,2.31,0.87,0.5,25.884515333333336,-81.72,-82.4
1733129557609064099,1733129557608776807,9,2.31,0.87,0.5,26.015845666666667,-80.98,-81.1
1733129557710197340,1733129557710099458,9,2.31,0.87,0.5,26.147175333333333,-81.74,-81.89
1733129557808703619,1733129557808576583,9,2.31,0.87,0.5,26.272251666666666,-81.7,-81.99
1733129557908042967,1733129557907622575,9,2.31,0.87,0.5,26.409835,-80.98,-81.27
1733129558010258964,1733129558009995937,9,2.31,0.87,0.5,26.516149333333335,-82.01,-82.44
1733129558109210652,1733129558109007596,9,2.31,0.87,0.5,26.609956666666665,-81.56,-81.59
1733129558209246560,1733129558208884239,9,2.31,0.87,0.5,26.722525333333333,-81.05,-81.34
1733129558308004464,1733129558307632684,9,2.31,0.87,0.5,26.853855999999997,-81.5,-82.27
1733129558409949633,1733129558409732103,9,2.31,0.87,0.5,26.997693666666667,-81.42,-81.41
1733129558509232893,1733129558508996248,9,2.31,0.87,0.5,27.141531333333333,-82.16,-83.64
1733129558610394435,1733129558610218524,9,2.31,0.87,0.5,27.285369000000003,-81.48,-81.46
1733129558710836310,1733129558710559606,9,2.31,0.87,0.5,27.523014,-80.98,-81.15
1733129558810734632,1733129558810542106,9,2.31,0.87,0.5,27.66059733333333,-81.26,-81.37
1733129558910920389,1733129558910752058,9,2.31,0.87,0.5,27.791926999999998,-81.18,-82.38
1733129559010936191,1733129559010642528,9,2.31,0.87,0.5,27.929511,-81.04,-81.46
1733129559111217681,1733129559110980749,9,2.31,0.87,0.5,28.048333666666668,-81.83,-81.88
1733129559211007361,1733129559210785865,9,2.31,0.87,0.5,28.17341,-81.88,-82.28
1733129559311039507,1733129559310962438,9,2.31,0.87,0.5,28.298486333333333,-81.22,-81.25
1733129559408241580,1733129559407645940,9,2.31,0.87,0.5,28.43606966666667,-80.99,-81.07
1733129559508108877,1733129559507647514,9,2.31,0.87,0.5,28.56739966666667,-81.55,-81.95
1733129559639467018,1733129559639205694,9,2.31,0.87,0.5,28.704983000000002,-81.55,-81.78
1733129559709118360,1733129559708884239,9,2.31,0.87,0.5,28.83631366666667,-81.26,-81.43
1733129559808817066,1733129559808611631,9,2.31,0.87,0.5,28.97389766666667,-81.17,-82.2
1733129559909306365,1733129559909080505,9,2.31,0.87,0.5,29.092720333333332,-81.1,-81.62
1733129560009489186,1733129560009082794,9,2.31,0.87,0.5,29.217795999999996,-81.12,-81.2
1733129560109339191,1733129560109085798,9,2.31,0.87,0.5,29.336618,-81.05,-81.58
1733129560208988144,1733129560208741664,9,2.31,0.87,0.5,29.480455666666668,-81.14,-81.74
1733129560309038419,1733129560308832406,9,2.31,0.87,0.5,29.599278333333334,-80.88,-81.36
1733129560408018559,1733129560407629251,9,2.31,0.87,0.5,29.730608999999998,-80.71,-81.58
1733129560508007066,1733129560507612466,9,2.31,0.87,0.5,29.85568533333333,-81.02,-82.89
1733129560608015563,1733129560607646942,9,2.31,0.87,0.5,29.987015333333336,-81.53,-82.23
1733129560708006649,1733129560707608222,9,2.31,0.87,0.5,30.118345,-81.13,-82.01
1733129560807886399,1733129560807626485,9,2.31,0.87,0.5,30.230913333333334,-81.73,-81.84
1733129560908120632,1733129560907672882,9,2.31,0.87,0.5,30.355989333333337,-81.21,-81.68
1733129561007920467,1733129561007608413,9,2.31,0.87,0.5,30.487319333333332,-82.24,-82.05
1733129561108045367,1733129561107557058,9,2.31,0.87,0.5,30.618649333333334,-81.21,-81.17
1733129561208116890,1733129561207628011,9,2.31,0.87,0.5,30.756232999999998,-82.08,-82.05
1733129561307959704,1733129561307612180,9,2.31,0.87,0.5,30.887562666666668,-81.5,-81.93
1733129561408175488,1733129561407638311,9,2.31,0.87,0.5,31.025146666666668,-82.81,-82.54
1733129561510161275,1733129561509928703,9,2.31,0.87,0.5,31.137715,-81.68,-82.27
1733129561610073360,1733129561609797477,9,2.31,0.87,0.5,31.250283666666665,-81.99,-82.39
1733129561709779888,1733129561709535598,9,2.31,0.87,0.5,31.375359333333336,-81.48,-81.81
1733129561809854426,1733129561809660673,9,2.31,0.87,0.5,31.500435666666665,-81.51,-81.51
1733129561910092123,1733129561909912109,9,2.31,0.87,0.5,31.631765333333334,-81.52,-81.89
1733129562009964411,1733129562009740352,9,2.31,0.87,0.5,31.750587999999997,-82.48,-82.56
1733129562108030520,1733129562107624292,9,2.31,0.87,0.5,31.900679333333333,-81.71,-81.82
1733129562208381648,1733129562207680702,9,2.31,0.87,0.5,32.01950233333333,-81.71,-81.82
1733129562308001635,1733129562307677507,9,2.31,0.87,0.5,32.15708633333333,-82.23,-82.09
1733129562408030052,1733129562407684803,9,2.31,0.87,0.5,32.275909000000006,-81.29,-81.6
1733129562508084193,1733129562507663011,9,2.31,0.87,0.5,32.40723866666667,-81.41,-82.02
1733129562607947461,1733129562607641696,9,2.31,0.87,0.5,32.53856866666667,-81.33,-81.18
1733129562707977106,1733129562707625150,9,2.31,0.87,0.5,32.65739133333333,-82.38,-82.43
1733129562807957856,1733129562807623147,9,2.31,0.87,0.5,32.78246766666666,-81.6,-81.57
1733129562907919325,1733129562907553911,9,2.31,0.87,0.5,32.907544,-81.82,-81.72
1733129563007868699,1733129563007633209,9,2.31,0.87,0.5,33.04512733333333,-81.36,-81.44
1733129563109118473,1733129563108806848,9,2.31,0.87,0.5,33.195219,-81.62,-81.69
1733129563209915258,1733129563209680795,9,2.31,0.87,0.5,33.32029533333333,-81.53,-81.58
1733129563310132693,1733129563309785842,9,2.31,0.87,0.5,33.457879,-82.73,-84.58
1733129563410937886,1733129563410807609,9,2.31,0.87,0.5,33.58295533333334,-81.49,-81.43
1733129563510752987,1733129563510640382,9,2.31,0.87,0.5,33.73304566666667,-82.99,-82.7
1733129563610840444,1733129563610505104,9,2.31,0.87,0.5,33.83310766666667,-82.15,-82.09
1733129564008094852,1733129564007689714,9,2.31,0.87,0.5,26.628719666666665,-82.01,-81.92
1733129564108055072,1733129564107689380,9,2.31,0.87,0.5,26.741287666666665,-81.41,-81.74
1733129564207931213,1733129564207648038,9,2.31,0.87,0.5,34.571056,-81.7,-81.8
1733129564307952049,1733129564307590961,9,2.31,0.87,0.5,34.714894,-81.93,-83.0
1733129564411068074,1733129564410820722,9,2.31,0.87,0.5,34.84622366666667,-81.69,-82.57
1733129564509677855,1733129564509523868,9,2.31,0.87,0.5,34.97130000000001,-81.59,-81.63
1733129564640592455,1733129564640345096,9,2.31,0.87,0.5,35.09012166666667,-82.43,-82.25
1733129564710232376,1733129564709935665,9,2.31,0.87,0.5,35.22770633333334,-81.69,-81.57
1733129564809976143,1733129564809607267,9,2.31,0.87,0.5,35.35278266666666,-82.31,-82.92
1733129564910250204,1733129564909986257,9,2.31,0.87,0.5,35.477859,-81.79,-82.97
1733129565009916394,1733129565009530067,9,2.31,0.87,0.5,35.62169600000001,-82.0,-81.78
1733129565109658384,1733129565109275341,9,2.31,0.87,0.5,35.753026,-81.72,-81.86
1733129565209225766,1733129565208923101,9,2.31,0.87,0.5,35.884355666666664,-82.94,-82.97
1733129565309785845,1733129565309211730,9,2.31,0.87,0.5,36.00317866666666,-81.96,-84.01
1733129565408827108,1733129565408645391,9,2.31,0.87,0.5,36.147016666666666,-81.52,-81.69
1733129565509865228,1733129565509568214,9,2.31,0.87,0.5,36.272093,-83.0,-83.22
1733129565611461246,1733129565611284732,9,2.31,0.87,0.5,36.403422666666664,-81.83,-82.5
1733129565711262989,1733129565710997819,9,2.31,0.87,0.5,36.509737,-81.94,-82.18
1733129565811579003,1733129565811408281,9,2.31,0.87,0.5,36.64732166666666,-82.53,-82.5
1733129565910991542,1733129565910825967,9,2.31,0.87,0.5,36.772398,-82.18,-82.08
1733129566011100102,1733129566010917901,9,2.31,0.87,0.5,36.922489999999996,-82.37,-83.27
1733129566109820785,1733129566109455585,9,2.31,0.87,0.5,37.05382,-82.75,-83.9
1733129566209086041,1733129566208853483,9,2.31,0.87,0.5,37.191403333333334,-82.86,-83.01
1733129566309133277,1733129566308847427,9,2.31,0.87,0.5,37.322733,-82.73,-82.25
1733129566409245607,1733129566408936500,9,2.31,0.87,0.5,37.441554333333336,-82.03,-81.78
1733129566509404371,1733129566509029626,9,2.31,0.87,0.5,37.560376999999995,-82.58,-82.47
1733129566609099229,1733129566608893632,9,2.31,0.87,0.5,37.67919866666667,-84.63,-84.35
1733129566709189750,1733129566708881616,9,2.31,0.87,0.5,37.804275,-82.13,-82.11
1733129566809199687,1733129566808881521,9,2.31,0.87,0.5,37.923098,-82.06,-82.3
1733129566909130698,1733129566908817052,9,2.31,0.87,0.5,38.04192066666667,-81.37,-82.1
1733129567009172125,1733129567008874416,9,2.31,0.87,0.5,38.17950533333334,-82.91,-83.44
1733129567109096605,1733129567108820199,9,2.31,0.87,0.5,38.31708866666667,-82.13,-82.88
1733129567209296480,1733129567208894252,9,2.31,0.87,0.5,38.579748333333335,-82.24,-84.06
1733129567308943080,1733129567308700084,9,2.31,0.87,0.5,38.70482466666667,-82.08,-81.79
1733129567409102529,1733129567408839464,9,2.31,0.87,0.5,38.848663,-82.17,-81.78
1733129567509037191,1733129567508774757,9,2.31,0.87,0.5,38.973739333333334,-82.38,-82.04
1733129567609587487,1733129567609187364,9,2.31,0.87,0.5,39.105069,-82.17,-82.18
1733129567709495389,1733129567708711385,9,2.31,0.87,0.5,39.22389033333334,-82.45,-82.99
1733129567808906489,1733129567808724880,9,2.31,0.87,0.5,39.342712999999996,-82.57,-83.76
1733129567909121337,1733129567908874988,9,2.31,0.87,0.5,39.474043,-82.39,-83.79
1733129568009145576,1733129568008846521,9,2.31,0.87,0.5,39.61162766666667,-82.28,-82.01
1733129568109254609,1733129568109034299,9,2.31,0.87,0.5,39.74295766666666,-82.92,-83.51
1733129568209433002,1733129568209106206,9,2.31,0.87,0.5,39.886796000000004,-83.35,-85.42
1733129568309263404,1733129568308847188,9,2.31,0.87,0.5,40.011871,-82.52,-82.48
1733129568409052235,1733129568408780574,9,2.31,0.87,0.5,40.14945433333333,-83.56,-83.82
1733129568508882492,1733129568508736371,9,2.31,0.87,0.5,40.26827566666666,-82.39,-83.93
1733129568608001333,1733129568607646226,9,2.31,0.87,0.5,40.393352,-82.61,-82.63
1733129568709352167,1733129568709013700,9,2.31,0.87,0.5,40.53093533333333,-82.4,-84.19
1733129568810195057,1733129568809939384,9,2.31,0.87,0.5,40.66852,-82.56,-82.43
1733129568909916417,1733129568909659624,9,2.31,0.87,0.5,40.79359633333333,-82.4,-82.86
1733129569009508045,1733129569009325027,9,2.31,0.87,0.5,40.92492633333333,-81.94,-81.8
1733129569110223825,1733129569109977006,9,2.31,0.87,0.5,41.04374766666667,-82.6,-83.84
1733129569209947587,1733129569209733963,9,2.31,0.87,0.5,41.19383933333334,-82.6,-82.43
1733129569309087464,1733129569308771848,9,2.31,0.87,0.5,41.30640833333333,-83.06,-83.5
1733129569408987488,1733129569408732652,9,2.31,0.87,0.5,41.42523133333333,-83.04,-84.82
1733129569509493215,1733129569509142875,9,2.31,0.87,0.5,41.544053999999996,-83.69,-83.6
1733129569640071341,1733129569639752149,9,2.31,0.87,0.5,41.675384,-83.35,-85.4
1733129569707958532,1733129569707601070,9,2.31,0.87,0.5,41.819221,-82.7,-82.7
1733129569807934765,1733129569807631731,9,2.31,0.87,0.5,41.96931166666666,-82.88,-84.12
1733129569908059885,1733129569907622098,9,2.31,0.87,0.5,42.10064166666667,-83.17,-83.05
1733129570008974412,1733129570008796691,9,2.31,0.87,0.5,42.22571766666667,-83.28,-84.4
1733129570109342908,1733129570109112262,9,2.31,0.87,0.5,42.332033333333335,-82.77,-82.58
1733129570208986337,1733129570208809375,9,2.31,0.87,0.5,42.463362999999994,-82.88,-82.55
1733129570309296903,1733129570308932065,9,2.31,0.87,0.5,42.594693,-84.92,-85.59
1733129570409206136,1733129570408958435,9,2.31,0.87,0.5,42.71976933333334,-82.83,-82.66
1733129570507995371,1733129570507622957,9,2.31,0.87,0.5,42.838592000000006,-84.47,-85.19
1733129570607971302,1733129570607618093,9,2.31,0.87,0.5,42.95116133333334,-83.75,-84.5
1733129570709017925,1733129570708755970,9,2.31,0.87,0.5,43.09499833333333,-83.96,-84.17
1733129570809133795,1733129570808935880,9,2.31,0.87,0.5,43.226328333333335,-84.29,-86.11
1733129570909481648,1733129570909132242,9,2.31,0.87,0.5,43.36391166666667,-83.57,-83.86
1733129571009600074,1733129571009203433,9,2.31,0.87,0.5,43.470226,-83.59,-83.44
1733129571109459550,1733129571109133243,9,2.31,0.87,0.5,43.582795000000004,-84.06,-83.99
1733129571209204251,1733129571208927154,9,2.31,0.87,0.5,43.720379666666666,-83.53,-83.14
1733129571309100570,1733129571308869361,9,2.31,0.87,0.5,43.85171066666667,-83.97,-83.97
1733129571408008318,1733129571407618522,9,2.31,0.87,0.5,44.008056333333336,-84.22,-83.63
1733129571508982648,1733129571508859872,9,2.31,0.87,0.5,44.139386,-84.21,-83.77
1733129571607949625,1733129571607630491,9,2.31,0.87,0.5,44.276969333333334,-84.48,-83.87
1733129571707909941,1733129571707611799,9,2.31,0.87,0.5,44.408299,-83.58,-84.37
1733129571808157158,1733129571807601690,9,2.31,0.87,0.5,44.53337533333333,-82.9,-82.46
1733129571907967801,1733129571907596588,9,2.31,0.87,0.5,44.670959,-83.36,-82.94
1733129572008020465,1733129572007636785,9,2.31,0.87,0.5,44.78978033333334,-84.16,-83.87
1733129572108018302,1733129572107621192,9,2.31,0.87,0.5,44.91485666666667,-83.58,-83.95
1733129572209706977,1733129572209366083,9,2.31,0.87,0.5,45.04618633333334,-83.42,-82.93
1733129572309061598,1733129572308937549,9,2.31,0.87,0.5,45.16500933333333,-84.53,-85.21
1733129572409089750,1733129572408904075,9,2.31,0.87,0.5,45.29633933333333,-83.53,-84.93
1733129572510226530,1733129572509968996,9,2.31,0.87,0.5,45.40890866666666,-84.1,-83.7
1733129572608087198,1733129572607626676,9,2.31,0.87,0.5,45.54023833333333,-84.54,-84.37
1733129572707985202,1733129572707632303,9,2.31,0.87,0.5,45.65905966666667,-84.77,-85.98
1733129572809287540,1733129572808844804,9,2.31,0.87,0.5,45.796642999999996,-83.54,-83.34
1733129572909336245,1733129572909158706,9,2.31,0.87,0.5,45.934226333333335,-83.97,-85.24
1733129573009066851,1733129573008885145,9,2.31,0.87,0.5,46.05930266666667,-83.91,-83.41
1733129573109996458,1733129573109754323,9,2.31,0.87,0.5,46.184379,-85.03,-85.85
1733129573209955522,1733129573209752559,9,2.31,0.87,0.5,46.303202,-83.76,-83.31
1733129573310048958,1733129573309749603,9,2.31,0.87,0.5,46.45329366666667,-84.97,-86.7
1733129573410191389,1733129573409953117,9,2.31,0.87,0.5,46.57837,-84.67,-84.09
1733129573510739531,1733129573510581254,9,2.31,0.87,0.5,46.734715333333334,-83.6,-83.08
1733129573609728676,1733129573609376430,9,2.31,0.87,0.5,46.85353833333334,-85.61,-87.36
1733129573709767842,1733129573709304571,9,2.31,0.87,0.5,46.991121666666665,-84.06,-84.56
1733129573807869475,1733129573807626962,9,2.31,0.87,0.5,47.103690666666665,-85.45,-86.23
1733129573908770752,1733129573907643318,9,2.31,0.87,0.5,47.23502033333333,-84.4,-86.21
1733129574008114550,1733129574007628440,9,2.31,0.87,0.5,47.34758933333333,-84.31,-83.92
1733129574107982662,1733129574107617855,9,2.31,0.87,0.5,47.43514166666666,-84.59,-84.25
1733129574208512920,1733129574207746744,9,2.31,0.87,0.5,47.528949000000004,-84.35,-84.05
1733129574310480985,1733129574310291290,9,2.31,0.87,0.5,47.60399433333333,-84.35,-85.27
1733129574410073693,1733129574409717321,9,2.31,0.87,0.5,47.66653266666666,-85.08,-84.87
1733129574509082937,1733129574508756160,9,2.31,0.87,0.5,47.716562333333336,-82.51,-82.06
1733129574608154803,1733129574607694864,9,2.31,0.87,0.5,47.754084999999996,-83.65,-83.31
1733129574710242143,1733129574710052967,9,2.31,0.87,0.5,47.785354000000005,-82.78,-83.05
1733129574809686485,1733129574809379339,9,2.31,0.87,0.5,47.804116,-82.73,-82.52
1733129574909542076,1733129574909187316,9,2.31,0.87,0.5,47.81662433333333,-82.24,-81.9
1733129575008081825,1733129575007618904,9,2.31,0.87,0.5,47.84789333333333,-83.12,-82.79
1733129575109944146,1733129575109440565,9,2.31,0.87,0.5,47.86040033333334,-83.88,-85.01
1733129575209009690,1733129575208793878,9,2.31,0.87,0.5,47.88541466666667,-86.12,-85.51
1733129575309539447,1733129575309395313,9,2.31,0.87,0.5,47.87290766666666,-83.67,-83.15
1733129575410395363,1733129575410269021,9,2.31,0.87,0.5,47.86665433333334,-82.71,-82.41
1733129575508165821,1733129575507625579,9,2.31,0.87,0.5,47.85414733333334,-82.76,-83.64
1733129575609021320,1733129575608740329,9,2.31,0.87,0.5,44.30823733333333,-83.69,-83.78
1733129575707915630,1733129575707612752,9,2.31,0.87,0.5,44.30823733333333,-82.94,-82.49
1733129575809212234,1733129575808943510,9,2.31,0.87,0.5,47.87290766666667,-83.62,-83.18
1733129575910008745,1733129575909763813,9,2.31,0.87,0.5,47.86040033333334,-82.79,-82.67
1733129576009898611,1733129576009701728,9,2.31,0.87,0.5,47.84163966666667,-82.51,-82.3
1733129576109187390,1733129576108858108,9,2.31,0.87,0.5,47.83538633333333,-83.66,-85.06
1733129576207957941,1733129576207618713,9,2.31,0.87,0.5,47.86040066666666,-82.74,-84.68
1733129576309346682,1733129576309060811,9,2.31,0.87,0.5,47.885415,-83.64,-83.22
1733129576408158774,1733129576407631874,9,2.31,0.87,0.5,47.885415,-82.95,-82.87
1733129576509783970,1733129576509506702,9,2.31,0.87,0.5,47.885415,-83.05,-82.81
1733129576610100463,1733129576609884262,9,2.31,0.87,0.5,47.885415,-82.66,-82.27
1733129576709189194,1733129576708923578,9,2.31,0.87,0.5,47.897922,-82.81,-82.39
1733129576807897654,1733129576807615518,9,2.31,0.87,0.5,47.91043033333333,-83.46,-83.7
1733129576908185492,1733129576907629013,9,2.31,0.87,0.5,47.922938666666674,-83.04,-85.06
1733129577009579155,1733129577008819341,9,2.31,0.87,0.5,47.947954333333335,-82.57,-84.05
1733129577108011138,1733129577107605695,9,2.31,0.87,0.5,47.947954333333335,-83.22,-82.96
1733129577208133814,1733129577207614660,9,2.31,0.87,0.5,47.954208,-83.04,-82.88
1733129577309006206,1733129577308797121,9,2.31,0.87,0.5,47.954208,-83.47,-84.76
1733129577409118638,1733129577408849000,9,2.31,0.87,0.5,47.954208,-83.14,-82.9
1733129577508977325,1733129577508808612,9,2.31,0.87,0.5,47.96046166666667,-82.53,-84.7
1733129577609899964,1733129577609722852,9,2.31,0.87,0.5,47.941701,-83.34,-84.27
1733129577708034148,1733129577707604885,9,2.31,0.87,0.5,47.941701,-83.39,-84.77
1733129577807899863,1733129577807658433,9,2.31,0.87,0.5,47.941701,-82.19,-81.88
1733129577908165828,1733129577907661199,9,2.31,0.87,0.5,47.954208,-82.68,-82.49
1733129578009407552,1733129578009136199,9,2.31,0.87,0.5,47.954208,-82.98,-82.68
1733129578109130354,1733129578108922004,9,2.31,0.87,0.5,47.960461333333335,-82.85,-82.55
1733129578209389731,1733129578209084749,9,2.31,0.87,0.5,47.966715,-84.04,-83.91
1733129578309095381,1733129578308828592,9,2.31,0.87,0.5,47.97296866666667,-82.58,-84.07
1733129578409113226,1733129578408851146,9,2.31,0.87,0.5,47.94795466666667,-83.49,-83.78
1733129578508972734,1733129578508777141,9,2.31,0.87,0.5,47.941701,-82.6,-82.59
1733129578608050177,1733129578607614994,9,2.31,0.87,0.5,47.941701,-83.07,-84.22
1733129578707930736,1733129578707663059,9,2.31,0.87,0.5,47.947954333333335,-82.97,-84.36
1733129578809935916,1733129578809718608,9,2.31,0.87,0.5,47.947954333333335,-83.59,-84.54
1733129578908913551,1733129578908736228,9,2.31,0.87,0.5,47.94170066666667,-83.33,-83.88
1733129579009208558,1733129579008963346,9,2.31,0.87,0.5,47.935447333333336,-82.57,-84.23
1733129579108925436,1733129579108803033,9,2.31,0.87,0.5,47.92294033333334,-83.39,-85.78
1733129579208147442,1733129579207744359,9,2.31,0.87,0.5,47.92294033333334,-81.97,-81.69
1733129579308098175,1733129579307689428,9,2.31,0.87,0.5,47.92294033333334,-82.66,-82.36
1733129579407928516,1733129579407637596,9,2.31,0.87,0.5,47.92919366666667,-82.38,-82.17
1733129579510878232,1733129579510772228,9,2.31,0.87,0.5,47.92294033333334,-82.56,-82.52
1733129579607933521,1733129579607637166,9,2.31,0.87,0.5,47.92294033333334,-82.89,-82.99
1733129579707894810,1733129579707613945,9,2.31,0.87,0.5,47.904178333333334,-82.75,-82.93
1733129579807874048,1733129579807593822,9,2.31,0.87,0.5,47.89166966666667,-82.57,-82.59
1733129579910802056,1733129579910590171,9,2.31,0.87,0.5,47.89166966666667,-83.72,-83.55
1733129580010675714,1733129580010415554,9,2.31,0.87,0.5,47.89792333333333,-82.57,-84.14
1733129580107959688,1733129580107651948,9,2.31,0.87,0.5,47.904177000000004,-84.41,-85.14
1733129580207982000,1733129580207657575,9,2.31,0.87,0.5,47.885415,-83.38,-83.66
1733129580309080901,1733129580308770418,9,2.31,0.87,0.5,47.885415,-83.33,-83.54
1733129580408997734,1733129580408816814,9,2.31,0.87,0.5,47.885415,-83.83,-84.2
1733129580509090484,1733129580508761405,9,2.31,0.87,0.5,47.897922,-82.19,-81.79
1733129580608849729,1733129580608747959,9,2.31,0.87,0.5,47.897922,-82.82,-82.55
1733129580709026682,1733129580708712100,9,2.31,0.87,0.5,47.885415,-82.61,-82.31
1733129580808935861,1733129580808776140,9,2.31,0.87,0.5,47.879161333333336,-82.62,-82.34
1733129580908057347,1733129580907622337,9,2.31,0.87,0.5,47.86665433333334,-82.86,-82.69
1733129581008010162,1733129581007592916,9,2.31,0.87,0.5,47.879161333333336,-83.93,-84.28
1733129581107947081,1733129581107626676,9,2.31,0.87,0.5,47.885415,-82.05,-83.32
1733129581509265700,1733129581508744955,9,2.31,0.87,0.5,47.885415,-82.97,-83.15
1733129581609496059,1733129581608948945,9,2.31,0.87,0.5,47.897922,-83.16,-82.76
1733129581708991697,1733129581708691596,9,2.31,0.87,0.5,47.891668333333335,-83.55,-83.27
1733129581808989528,1733129581808749198,9,2.31,0.87,0.5,47.879161333333336,-82.85,-82.62
1733129581907775949,1733129581907590389,9,2.31,0.87,0.5,47.86665433333334,-83.6,-83.55
1733129582009986105,1733129582009689092,9,2.31,0.87,0.5,47.879163000000005,-82.76,-84.09
1733129582109789648,1733129582109574317,9,2.31,0.87,0.5,47.88541633333333,-83.84,-85.65
1733129582209099465,1733129582208855390,9,2.31,0.87,0.5,47.89166966666667,-83.28,-84.61
1733129582309309736,1733129582308986663,9,2.31,0.87,0.5,47.87290766666667,-83.59,-84.08
1733129582408892746,1733129582408781766,9,2.31,0.87,0.5,47.86040066666667,-83.08,-84.28
1733129582509193431,1733129582508954048,9,2.31,0.87,0.5,47.85414733333334,-82.83,-82.48
1733129582609407125,1733129582609084606,9,2.31,0.87,0.5,47.86665433333334,-82.87,-82.58
1733129582709182406,1733129582708801031,9,2.31,0.87,0.5,47.885415,-82.61,-82.3
1733129582808952604,1733129582808839321,9,2.31,0.87,0.5,47.885415,-82.7,-82.4
1733129582908946419,1733129582908771276,9,2.31,0.87,0.5,47.885415,-83.7,-83.64
1733129583009273946,1733129583008938312,9,2.31,0.87,0.5,47.872908,-83.6,-85.56
1733129583109789241,1733129583108911037,9,2.31,0.87,0.5,47.89792333333333,-83.21,-82.87
1733129583209249548,1733129583208911657,9,2.31,0.87,0.5,47.89166966666667,-82.89,-85.27
1733129583308931337,1733129583308687210,9,2.31,0.87,0.5,47.916685,-82.16,-81.79
1733129583409165133,1733129583408859729,9,2.31,0.87,0.5,47.90417666666667,-82.93,-83.61
1733129583509681581,1733129583508737564,9,2.31,0.87,0.5,47.922938666666674,-83.02,-82.67
1733129583609600465,1733129583608984947,9,2.31,0.87,0.5,47.916685333333334,-83.38,-83.0
1733129583709254967,1733129583708944797,9,2.31,0.87,0.5,47.916685333333334,-83.64,-83.38
1733129583809049407,1733129583808799266,9,2.31,0.87,0.5,47.916685333333334,-82.65,-83.73
1733129583908983730,1733129583908709049,9,2.31,0.87,0.5,47.90417666666667,-82.66,-82.67
1733129584009186439,1733129584008826017,9,2.31,0.87,0.5,47.897923,-81.96,-81.77
1733129584108976623,1733129584108813524,9,2.31,0.87,0.5,47.866654000000004,-82.13,-81.82
1733129584209903449,1733129584209825038,9,2.31,0.87,0.5,47.84789333333333,-82.21,-82.08
1733129584408949200,1733129584408776760,9,2.31,0.87,0.5,47.79161,-82.62,-82.28
1733129584509218430,1733129584508935928,9,2.31,0.87,0.5,47.74783366666666,-83.08,-82.71
1733129584639441546,1733129584639026165,9,2.31,0.87,0.5,47.69780266666667,-84.35,-85.98
1733129584709451478,1733129584709202527,9,2.31,0.87,0.5,47.67278733333333,-84.14,-86.33
1733129584809114283,1733129584808841705,9,2.31,0.87,0.5,47.635263666666674,-84.59,-84.08
1733129584908947129,1733129584908698797,9,2.31,0.87,0.5,47.603994666666665,-86.68,-87.09
1733129585009961808,1733129585009671449,9,2.31,0.87,0.5,47.57272566666666,-84.96,-86.17
1733129585109819513,1733129585109692096,9,2.31,0.87,0.5,47.541456333333336,-85.04,-84.79
1733129585210338306,1733129585210126876,9,2.31,0.87,0.5,47.51644066666666,-85.3,-87.28
1733129585310606928,1733129585310395240,9,2.31,0.87,0.5,47.497678666666665,-85.09,-84.77
1733129585410729680,1733129585410480976,9,2.31,0.87,0.5,47.49142533333333,-84.36,-83.84
1733129585510606076,1733129585510380268,9,2.31,0.87,0.5,47.49142533333333,-85.0,-84.46
1733129585610665820,1733129585610409498,9,2.31,0.87,0.5,47.478918,-84.83,-84.6
1733129585710570401,1733129585710398197,9,2.31,0.87,0.5,47.46641066666667,-85.16,-85.6
1733129585810399833,1733129585810111284,9,2.31,0.87,0.5,47.460157333333335,-84.31,-83.96
1733129585908833281,1733129585908711194,9,2.31,0.87,0.5,47.478918,-85.25,-84.68
1733129586010202766,1733129586010071992,9,2.31,0.87,0.5,47.49142533333333,-85.49,-84.88
1733129586109909459,1733129586109726667,9,2.31,0.87,0.5,47.497678666666665,-84.65,-84.18
1733129586210630716,1733129586210406303,9,2.31,0.87,0.5,47.49142533333333,-85.21,-87.0
1733129586309737318,1733129586309521436,9,2.31,0.87,0.5,47.497678666666665,-84.96,-85.85
1733129586409755863,1733129586409670591,9,2.31,0.87,0.5,47.485171666666666,-84.09,-83.95
1733129586510061550,1733129586509845256,9,2.31,0.87,0.5,47.485171666666666,-85.55,-85.62
1733129586609052685,1733129586608788967,9,2.31,0.87,0.5,47.47891833333333,-85.61,-85.5
1733129586709008898,1733129586708728075,9,2.31,0.87,0.5,47.485172,-84.0,-84.69
1733129586808985797,1733129586808790206,9,2.31,0.87,0.5,47.47891833333333,-84.94,-84.89
1733129586909224046,1733129586908704519,9,2.31,0.87,0.5,47.453902666666664,-84.46,-84.48
1733129587009437950,1733129587009102106,9,2.31,0.87,0.5,47.428887,-84.8,-85.41
1733129587109473794,1733129587109046220,9,2.31,0.87,0.5,47.391364333333335,-83.86,-83.27
1733129587208972678,1733129587208740949,9,2.31,0.87,0.5,47.36635033333334,-85.0,-86.55
1733129587309215523,1733129587308950185,9,2.31,0.87,0.5,47.335081333333335,-85.07,-87.1
1733129587408849805,1733129587408750295,9,2.31,0.87,0.5,47.29755866666667,-83.88,-83.42
1733129587509092629,1733129587508865356,9,2.31,0.87,0.5,47.26003466666666,-83.92,-83.4
1733129587609263531,1733129587608952522,9,2.31,0.87,0.5,47.222511999999995,-84.67,-86.89
1733129587708969866,1733129587708810329,9,2.31,0.87,0.5,47.19124300000001,-85.04,-87.07
1733129587809164970,1733129587808926582,9,2.31,0.87,0.5,47.14746666666667,-84.63,-84.43
1733129587908985168,1733129587908765077,9,2.31,0.87,0.5,47.08492866666668,-84.71,-85.0
1733129588010570283,1733129588009668827,9,2.31,0.87,0.5,47.02864400000001,-84.27,-84.24
1733129588109239988,1733129588108946084,9,2.31,0.87,0.5,46.966106,-84.76,-84.43
1733129588209212472,1733129588208739519,9,2.31,0.87,0.5,46.90982266666666,-84.34,-83.9
1733129588309419676,1733129588309187412,9,2.31,0.87,0.5,46.79725366666667,-84.07,-85.9
1733129588409141077,1733129588408903121,9,2.31,0.87,0.5,46.72846066666667,-84.34,-85.65
1733129588509192830,1733129588508879899,9,2.31,0.87,0.5,46.65966866666667,-83.97,-85.89
1733129588609217383,1733129588608934164,9,2.31,0.87,0.5,46.603385333333335,-84.62,-84.2
1733129588709421786,1733129588709029912,9,2.31,0.87,0.5,46.522086333333334,-85.65,-86.12
1733129588810003673,1733129588809558868,9,2.31,0.87,0.5,46.44704133333334,-83.8,-83.25
1733129588909223040,1733129588908890485,9,2.31,0.87,0.5,46.34697933333334,-85.32,-86.39
1733129589009666565,1733129589008974075,9,2.31,0.87,0.5,46.27818766666667,-83.88,-83.6
1733129589109690173,1733129589109167098,9,2.31,0.87,0.5,46.171872,-84.38,-85.92
1733129589210256589,1733129589210111379,9,2.31,0.87,0.5,46.071811333333336,-83.8,-83.72
1733129589316217444,1733129589315575361,9,2.31,0.87,0.5,45.97175066666667,-84.96,-84.41
1733129589410061843,1733129589409796953,9,2.31,0.87,0.5,45.89670533333334,-84.61,-84.11
1733129589510240829,1733129589510076522,9,2.31,0.87,0.5,45.81540633333333,-84.83,-84.39
1733129589608342336,1733129589607636928,9,2.31,0.87,0.5,45.721599000000005,-83.95,-84.7
1733129589708074650,1733129589707606554,9,2.31,0.87,0.5,45.62153833333334,-84.73,-84.12
1733129589809046188,1733129589808789730,9,2.31,0.87,0.5,45.52147766666667,-83.92,-84.41
1733129589909208041,1733129589908935070,9,2.31,0.87,0.5,45.42141566666666,-84.68,-85.29
1733129590009228629,1733129590008976697,9,2.31,0.87,0.5,45.32135466666667,-85.19,-86.65
1733129590110024153,1733129590109508752,9,2.31,0.87,0.5,45.20878533333333,-83.26,-82.82
1733129590209877262,1733129590209745168,9,2.31,0.87,0.5,45.11497933333334,-83.74,-83.23
1733129590310242176,1733129590310039281,9,2.31,0.87,0.5,44.99615666666667,-83.63,-85.61
1733129590410184982,1733129590409970760,9,2.31,0.87,0.5,44.90234966666667,-83.28,-82.73
1733129590509931390,1733129590509702205,9,2.31,0.87,0.5,44.796034,-83.13,-82.6
1733129590609066572,1733129590608805894,9,2.31,0.87,0.5,44.68971966666667,-83.82,-84.84
1733129590709921414,1733129590709550380,9,2.31,0.87,0.5,44.57089666666667,-84.55,-84.5
1733129590808965189,1733129590808742284,9,2.31,0.87,0.5,44.44582033333333,-84.86,-84.61
1733129590909908591,1733129590909691095,9,2.31,0.87,0.5,44.33325133333333,-84.49,-84.84
1733129591010218720,1733129591009715318,9,2.31,0.87,0.5,44.220683666666666,-84.4,-84.48
1733129591110027679,1733129591109816789,9,2.31,0.87,0.5,44.10186233333334,-83.61,-83.28
1733129591209309252,1733129591209068536,9,2.31,0.87,0.5,43.98929433333333,-84.57,-84.19
1733129591308093930,1733129591307622194,9,2.31,0.87,0.5,43.88298,-83.51,-85.65
1733129591409080539,1733129591408873558,9,2.31,0.87,0.5,43.757903666666664,-85.53,-85.03
1733129591509099425,1733129591508771181,9,2.31,0.87,0.5,43.63282733333333,-85.19,-84.86
1733129591609944899,1733129591609702587,9,2.31,0.87,0.5,43.50149733333333,-83.47,-82.94
1733129591710339145,1733129591710143089,9,2.31,0.87,0.5,43.38267466666667,-84.07,-85.87
1733129591807982197,1733129591807606935,9,2.31,0.87,0.5,43.257598333333334,-83.59,-83.6
1733129591908280503,1733129591907637834,9,2.31,0.87,0.5,43.132521999999994,-85.81,-86.63
1733129592008114796,1733129592007604122,9,2.31,0.87,0.5,43.019952666666676,-83.85,-85.14
1733129592107979021,1733129592107627630,9,2.31,0.87,0.5,42.888622999999995,-83.77,-84.01
1733129592208154149,1733129592207638263,9,2.31,0.87,0.5,42.769800333333336,-84.6,-84.76
1733129592308156368,1733129592307611227,9,2.31,0.87,0.5,42.644725333333334,-84.6,-84.91
1733129592408050243,1733129592407631635,9,2.31,0.87,0.5,42.57593333333333,-83.29,-82.86
1733129592507825290,1733129592507612466,9,2.31,0.87,0.5,42.51964866666666,-84.39,-83.91
1733129592608051796,1733129592607612609,9,2.31,0.87,0.5,42.46961766666667,-84.44,-85.26
1733129592707893162,1733129592707609415,9,2.31,0.87,0.5,42.413333333333334,-86.21,-88.84
1733129592807773248,1733129592807603597,9,2.31,0.87,0.5,42.338288,-87.73,-89.43
1733129592907844107,1733129592907626390,9,2.31,0.87,0.5,42.30076533333334,-85.82,-85.68
1733129593008025594,1733129593007610797,9,2.31,0.87,0.5,42.24448066666667,-87.76,-87.8
1733129593108063497,1733129593107639551,9,2.31,0.87,0.5,42.194449666666664,-86.19,-85.85
1733129593208074950,1733129593207643747,9,2.31,0.87,0.5,42.15067233333333,-86.99,-86.49
1733129593307959321,1733129593307602405,9,2.31,0.87,0.5,42.125656666666664,-86.33,-85.91
1733129593407997446,1733129593407600879,9,2.31,0.87,0.5,42.11940333333333,-88.4,-90.12
1733129593507926554,1733129593507624149,9,2.31,0.87,0.5,42.100642666666666,-86.33,-88.13
1733129593608065874,1733129593607669830,9,2.31,0.87,0.5,42.09438933333333,-89.43,-88.81
1733129593709828864,1733129593709675550,9,2.31,0.87,0.5,42.088135666666666,-87.27,-87.4
1733129593810078999,1733129593809880495,9,2.31,0.87,0.5,42.088135666666666,-86.78,-86.63
1733129593909785507,1733129593909569501,9,2.31,0.87,0.5,42.100642666666666,-86.26,-87.57
1733129594009809400,1733129594009541749,9,2.31,0.87,0.5,42.100642666666666,-86.82,-86.31
1733129594110035674,1733129594109845876,9,2.31,0.87,0.5,42.094389,-86.61,-86.69
1733129594208021427,1733129594207647800,9,2.31,0.87,0.5,42.081882,-86.44,-87.01
1733129594308089790,1733129594307644367,9,2.31,0.87,0.5,42.088135666666666,-87.74,-88.16
1733129594408101182,1733129594407717704,9,2.31,0.87,0.5,42.09438933333333,-86.75,-87.01
1733129594508038424,1733129594507646799,9,2.31,0.87,0.5,42.088135666666666,-87.12,-87.89
1733129594908111473,1733129594907642364,9,2.31,0.87,0.5,42.100642666666666,-85.88,-85.4
1733129595007902760,1733129595007654666,9,2.31,0.87,0.5,42.08813433333333,-85.96,-85.94
1733129595109113230,1733129595108891248,9,2.31,0.87,0.5,42.07562733333333,-86.84,-89.04
1733129595209135755,1733129595208864450,9,2.31,0.87,0.5,42.06312,-85.75,-87.59
1733129595309012200,1733129595308777332,9,2.31,0.87,0.5,42.06937466666667,-87.4,-87.11
1733129595409023991,1733129595408778190,9,2.31,0.87,0.5,42.050612666666666,-86.22,-86.23
1733129595509048146,1733129595508779287,9,2.31,0.87,0.5,42.03810433333334,-86.04,-87.21
1733129595608913669,1733129595608749389,9,2.31,0.87,0.5,42.031849666666666,-86.14,-85.86
1733129595708471408,1733129595707608938,9,2.31,0.87,0.5,42.044357999999995,-87.01,-87.01
1733129595808187105,1733129595807633876,9,2.31,0.87,0.5,42.031850999999996,-86.11,-86.11
1733129595907886678,1733129595907605171,9,2.31,0.87,0.5,42.006836666666665,-86.14,-87.23
1733129596009146187,1733129596008901357,9,2.31,0.87,0.5,41.981821333333336,-86.05,-85.63
1733129596109198828,1733129596108971118,9,2.31,0.87,0.5,41.994328333333335,-86.64,-87.18
1733129596209736132,1733129596209272623,9,2.31,0.87,0.5,42.000582,-85.79,-86.89
1733129596308150484,1733129596307641029,9,2.31,0.87,0.5,42.000582,-85.77,-86.84
1733129596407938608,1733129596407599210,9,2.31,0.87,0.5,41.988075,-90.23,-93.42
1733129596507828355,1733129596507619619,9,2.31,0.87,0.5,41.981821333333336,-86.13,-85.84
1733129596608247413,1733129596607615709,9,2.31,0.87,0.5,41.969313,-90.3,-90.98
1733129596708102375,1733129596707612752,9,2.31,0.87,0.5,41.94429733333333,-86.49,-87.64
1733129596809316520,1733129596809057950,9,2.31,0.87,0.5,41.938043666666665,-86.23,-88.74
