%time,field.stamp,field.id,field.x,field.y,field.z,field.distanceFromTag,field.rssi,field.rssi_fp
1733037964618398643,1733037964618200063,12,-0.05,0.87,0.5,5.153138666666667,-79.43,-80.85
1733037964718448753,1733037964717767000,12,-0.05,0.87,0.5,5.146884666666667,-79.56,-80.96
1733037964818540521,1733037964818296909,12,-0.05,0.87,0.5,5.1719,-79.54,-82.56
1733037964918471612,1733037964918270826,12,-0.05,0.87,0.5,5.196915333333333,-79.37,-81.07
1733037965018148045,1733037965017925024,12,-0.05,0.87,0.5,5.203169333333334,-79.73,-82.63
1733037965118302726,1733037965118021726,12,-0.05,0.87,0.5,5.190661666666667,-79.84,-82.55
1733037965218229810,1733037965218028545,12,-0.05,0.87,0.5,5.178154,-79.72,-82.92
1733037965319386142,1733037965319152355,12,-0.05,0.87,0.5,5.178154,-79.44,-80.7
1733037965417908119,1733037965417772293,12,-0.05,0.87,0.5,5.1719,-79.56,-82.92
1733037965518076811,1733037965517894983,12,-0.05,0.87,0.5,5.153138666666667,-79.49,-81.51
1733037965617786724,1733037965617641925,12,-0.05,0.87,0.5,5.159392666666667,-79.69,-81.16
1733037965718152537,1733037965717882871,12,-0.05,0.87,0.5,5.178154333333333,-79.5,-81.26
1733037965817956311,1733037965817873954,12,-0.05,0.87,0.5,5.184408,-79.42,-81.17
1733037965917968457,1733037965917771339,12,-0.05,0.87,0.5,5.1719,-79.38,-80.76
1733037966018166708,1733037966017912626,12,-0.05,0.87,0.5,5.153138333333334,-80.77,-82.18
1733037966216541558,1733037966216348886,12,-0.05,0.87,0.5,5.1719,-79.4,-80.78
1733037966316644582,1733037966316450834,12,-0.05,0.87,0.5,5.1719,-79.4,-81.02
1733037966416742734,1733037966416467666,12,-0.05,0.87,0.5,5.184408,-79.54,-80.97
1733037966516489043,1733037966516281604,12,-0.05,0.87,0.5,5.1719,-79.35,-82.22
1733037966616570224,1733037966616409063,12,-0.05,0.87,0.5,5.178154,-79.35,-82.19
1733037966716532812,1733037966716302156,12,-0.05,0.87,0.5,5.165646,-79.22,-81.11
1733037966818167214,1733037966818024396,12,-0.05,0.87,0.5,5.165646,-79.37,-81.65
1733037967015514023,1733037967015222311,12,-0.05,0.87,0.5,5.165646,-79.61,-81.53
1733037967115512257,1733037967115202665,12,-0.05,0.87,0.5,5.146884666666666,-79.52,-81.03
1733037967215740819,1733037967215334653,12,-0.05,0.87,0.5,5.153138666666667,-79.75,-81.04
1733037967315513490,1733037967315219879,12,-0.05,0.87,0.5,5.153138666666667,-79.7,-81.42
1733037967415516423,1733037967415222883,12,-0.05,0.87,0.5,5.184408,-79.69,-81.46
1733037967515504656,1733037967515221595,12,-0.05,0.87,0.5,5.171900333333333,-79.55,-81.48
1733037967617928533,1733037967617793321,12,-0.05,0.87,0.5,5.165646333333334,-79.6,-81.16
1733037967718389024,1733037967718204259,12,-0.05,0.87,0.5,5.159392333333333,-79.64,-82.54
1733037967815504006,1733037967815220594,12,-0.05,0.87,0.5,5.165646,-79.07,-80.84
1733037967917546833,1733037967917273283,12,-0.05,0.87,0.5,5.1719,-79.62,-80.86
1733037968015536908,1733037968015259027,12,-0.05,0.87,0.5,5.178154,-79.6,-81.35
1733037968115547198,1733037968115254163,12,-0.05,0.87,0.5,5.184408,-79.74,-82.23
1733037968215509672,1733037968215228080,12,-0.05,0.87,0.5,5.178154,-79.55,-81.31
1733037968315668690,1733037968315250396,12,-0.05,0.87,0.5,5.1719,-79.57,-82.2
1733037968415500474,1733037968415220260,12,-0.05,0.87,0.5,5.178154,-79.68,-81.08
1733037968515530413,1733037968515228271,12,-0.05,0.87,0.5,5.1969156666666665,-79.54,-80.82
1733037968618250191,1733037968617945194,12,-0.05,0.87,0.5,5.171900333333333,-79.93,-81.42
1733037968717280153,1733037968717164039,12,-0.05,0.87,0.5,5.171900333333333,-79.78,-82.71
1733037968817547404,1733037968817288875,12,-0.05,0.87,0.5,5.159392666666666,-79.45,-81.22
1733037968917123444,1733037968916657924,12,-0.05,0.87,0.5,5.178154,-79.58,-81.19
1733037969016555123,1733037969016333103,12,-0.05,0.87,0.5,5.178154,-79.71,-81.21
1733037969116733523,1733037969116371393,12,-0.05,0.87,0.5,5.178154,-79.24,-81.89
1733037969216580125,1733037969216368675,12,-0.05,0.87,0.5,5.178154,-79.4,-82.59
1733037969316565786,1733037969316344261,12,-0.05,0.87,0.5,5.159392333333333,-79.46,-81.36
1733037969416576850,1733037969416320800,12,-0.05,0.87,0.5,5.140631,-80.02,-81.55
1733037969516716072,1733037969516379833,12,-0.05,0.87,0.5,5.140631,-79.4,-81.0
1733037969616727757,1733037969616391658,12,-0.05,0.87,0.5,5.140631,-79.24,-81.48
1733037969715659977,1733037969715261936,12,-0.05,0.87,0.5,5.159392333333333,-79.28,-82.01
1733037969815743317,1733037969815195560,12,-0.05,0.87,0.5,5.171900333333333,-79.5,-82.82
1733037969915859654,1733037969915206193,12,-0.05,0.87,0.5,5.1969156666666665,-79.37,-80.98
1733037970018318622,1733037970018126010,12,-0.05,0.87,0.5,5.2094233333333335,-79.28,-81.97
1733037970118529863,1733037970118254661,12,-0.05,0.87,0.5,5.2094233333333335,-79.57,-80.85
1733037970218704136,1733037970218389511,12,-0.05,0.87,0.5,5.1969156666666665,-79.49,-81.04
1733037970318488646,1733037970318362951,12,-0.05,0.87,0.5,5.1906620000000006,-79.65,-81.19
1733037970418530781,1733037970418464183,12,-0.05,0.87,0.5,5.184408,-79.66,-82.42
1733037970518520794,1733037970518343210,12,-0.05,0.87,0.5,5.178154,-79.37,-81.03
1733037970618408611,1733037970618137598,12,-0.05,0.87,0.5,5.165646,-79.74,-82.15
1733037970718068755,1733037970717845439,12,-0.05,0.87,0.5,5.153138333333334,-79.27,-81.85
1733037970819034062,1733037970818903446,12,-0.05,0.87,0.5,5.165646333333333,-79.24,-80.75
1733037970918567955,1733037970918346405,12,-0.05,0.87,0.5,5.184408,-79.46,-80.73
1733037971019615471,1733037971019288063,12,-0.05,0.87,0.5,5.190661666666667,-79.56,-80.92
1733037971115451929,1733037971115284204,12,-0.05,0.87,0.5,5.1969156666666665,-79.33,-82.04
1733037971216429929,1733037971216342210,12,-0.05,0.87,0.5,5.190661666666667,-79.58,-81.09
1733037971316580212,1733037971316411495,12,-0.05,0.87,0.5,5.1719,-79.6,-81.17
1733037971416949928,1733037971416588068,12,-0.05,0.87,0.5,5.1719,-79.3,-81.07
1733037971516804545,1733037971516433954,12,-0.05,0.87,0.5,5.178154,-80.17,-83.27
1733037971616555484,1733037971616347312,12,-0.05,0.87,0.5,5.1906620000000006,-79.48,-81.07
1733037971716892700,1733037971716526746,12,-0.05,0.87,0.5,5.1906620000000006,-80.16,-82.83
1733037971816858033,1733037971816479206,12,-0.05,0.87,0.5,5.190662,-79.4,-82.19
1733037971915831781,1733037971915289878,12,-0.05,0.87,0.5,5.178154,-80.08,-81.7
1733037972015611806,1733037972015212059,12,-0.05,0.87,0.5,5.1719,-79.4,-80.91
1733037972115608741,1733037972115181684,12,-0.05,0.87,0.5,5.159392333333333,-79.37,-80.81
1733037972215593558,1733037972215201616,12,-0.05,0.87,0.5,5.159392333333334,-79.22,-81.07
1733037972315575216,1733037972315215349,12,-0.05,0.87,0.5,5.153138333333334,-79.36,-81.42
1733037972515639085,1733037972515201330,12,-0.05,0.87,0.5,5.165646,-79.32,-80.82
1733037972615560540,1733037972615197181,12,-0.05,0.87,0.5,5.153138666666667,-79.53,-81.28
1733037972716737462,1733037972716411352,12,-0.05,0.87,0.5,5.1656466666666665,-79.08,-81.88
1733037972816563525,1733037972816413164,12,-0.05,0.87,0.5,5.1531389999999995,-79.14,-81.14
1733037972916673142,1733037972916570663,12,-0.05,0.87,0.5,5.165646333333334,-79.08,-81.62
1733037973016677728,1733037973016313314,12,-0.05,0.87,0.5,5.153138333333334,-79.1,-81.16
1733037973116654926,1733037973116373300,12,-0.05,0.87,0.5,5.159392,-79.31,-81.16
1733037973215481372,1733037973215209245,12,-0.05,0.87,0.5,5.140630666666667,-79.49,-81.49
1733037973315513414,1733037973315216302,12,-0.05,0.87,0.5,5.128123333333334,-79.38,-80.48
1733037973415461270,1733037973415201187,12,-0.05,0.87,0.5,5.128123333333334,-79.49,-80.93
1733037973515690900,1733037973515230417,12,-0.05,0.87,0.5,5.140631,-79.27,-80.87
1733037973615584857,1733037973615206003,12,-0.05,0.87,0.5,5.146884666666666,-79.51,-81.27
1733037973715471432,1733037973715203523,12,-0.05,0.87,0.5,5.134377333333333,-79.69,-80.73
1733037973815734131,1733037973815249681,12,-0.05,0.87,0.5,5.153139,-79.2,-80.63
1733037973918037958,1733037973917825460,12,-0.05,0.87,0.5,5.1656466666666665,-79.8,-80.72
1733037974018368567,1733037974018206119,12,-0.05,0.87,0.5,5.184408,-78.99,-80.58
1733037974117879009,1733037974117673635,12,-0.05,0.87,0.5,5.184408,-79.16,-80.4
1733037974218204204,1733037974218086719,12,-0.05,0.87,0.5,5.178154,-79.4,-80.75
1733037974318070141,1733037974317866325,12,-0.05,0.87,0.5,5.1719,-79.37,-81.11
1733037974418896763,1733037974418653488,12,-0.05,0.87,0.5,5.190661333333334,-79.36,-81.97
1733037974518607341,1733037974518433570,12,-0.05,0.87,0.5,5.221930666666666,-79.32,-80.71
1733037974618114902,1733037974617935657,12,-0.05,0.87,0.5,5.2532,-79.28,-81.26
1733037974717537969,1733037974717279672,12,-0.05,0.87,0.5,5.2719613333333335,-79.42,-81.21
1733037974817662806,1733037974817432165,12,-0.05,0.87,0.5,5.284468666666666,-79.29,-81.29
1733037974917495468,1733037974917272329,12,-0.05,0.87,0.5,5.296976,-79.38,-80.71
1733037975017444460,1733037975017280578,12,-0.05,0.87,0.5,5.315737333333334,-78.93,-80.61
1733037975117478384,1733037975117241144,12,-0.05,0.87,0.5,5.347006666666666,-78.84,-81.16
1733037975217588525,1733037975217375278,12,-0.05,0.87,0.5,5.372022,-79.14,-81.01
1733037975317620701,1733037975317429304,12,-0.05,0.87,0.5,5.403291,-79.18,-81.09
1733037975417462563,1733037975417228460,12,-0.05,0.87,0.5,5.428306,-79.0,-80.55
1733037975517412287,1733037975517184257,12,-0.05,0.87,0.5,5.484590333333333,-79.0,-81.17
1733037975616777359,1733037975616508245,12,-0.05,0.87,0.5,5.5096056666666655,-78.93,-81.07
1733037975717363283,1733037975717073917,12,-0.05,0.87,0.5,5.5533823333333325,-79.08,-81.03
1733037975817593017,1733037975817335367,12,-0.05,0.87,0.5,5.572143666666666,-78.94,-80.57
1733037975917380075,1733037975917157411,12,-0.05,0.87,0.5,5.603412666666667,-79.24,-81.13
1733037976017700910,1733037976017429828,12,-0.05,0.87,0.5,5.6284279999999995,-79.06,-80.56
1733037976117711851,1733037976117456197,12,-0.05,0.87,0.5,5.684712333333333,-79.21,-80.75
1733037976218067117,1733037976217954397,12,-0.05,0.87,0.5,5.734742999999999,-79.25,-81.09
1733037976317410281,1733037976317228794,12,-0.05,0.87,0.5,5.791027333333333,-79.25,-80.58
1733037976417712733,1733037976417426586,12,-0.05,0.87,0.5,5.828550333333333,-79.0,-80.67
1733037976517284541,1733037976517143011,12,-0.05,0.87,0.5,5.866073,-79.72,-80.88
1733037976618881529,1733037976618669986,12,-0.05,0.87,0.5,5.903595666666667,-79.05,-80.43
1733037976717816723,1733037976717605352,12,-0.05,0.87,0.5,5.959879999999999,-79.06,-80.98
1733037976818734098,1733037976818143606,12,-0.05,0.87,0.5,6.009910666666666,-79.43,-80.83
1733037976916517193,1733037976916269779,12,-0.05,0.87,0.5,6.072449,-79.24,-80.68
1733037977016948686,1733037977016669750,12,-0.05,0.87,0.5,6.1287329999999995,-79.26,-80.59
1733037977116716340,1733037977116368532,12,-0.05,0.87,0.5,6.197524666666666,-79.14,-80.43
1733037977216634597,1733037977216343879,12,-0.05,0.87,0.5,6.260062666666666,-79.54,-80.48
1733037977316728276,1733037977316454172,12,-0.05,0.87,0.5,6.322601,-79.65,-81.03
1733037977416727760,1733037977416495800,12,-0.05,0.87,0.5,6.391393,-79.41,-80.68
1733037977516666375,1733037977516416549,12,-0.05,0.87,0.5,6.478946333333333,-79.3,-80.77
1733037977617473048,1733037977617386102,12,-0.05,0.87,0.5,6.560245666666667,-79.41,-80.57
1733037977816721336,1733037977816444635,12,-0.05,0.87,0.5,6.685321999999999,-79.18,-80.67
1733037977916773887,1733037977916565418,12,-0.05,0.87,0.5,6.804144333333333,-79.35,-81.09
1733037978017592831,1733037978017253398,12,-0.05,0.87,0.5,6.910459333333333,-79.06,-80.45
1733037978116938153,1733037978116654872,12,-0.05,0.87,0.5,6.9792510000000005,-78.95,-80.76
1733037978216763512,1733037978216494083,12,-0.05,0.87,0.5,7.054296666666666,-79.12,-81.06
1733037978318331225,1733037978318084001,12,-0.05,0.87,0.5,7.141850000000001,-79.07,-80.71
1733037978418695677,1733037978418502092,12,-0.05,0.87,0.5,7.329464333333334,-79.11,-80.95
1733037978516522681,1733037978516273975,12,-0.05,0.87,0.5,7.423271333333333,-78.99,-80.69
1733037978616681804,1733037978616492748,12,-0.05,0.87,0.5,7.529585999999999,-79.01,-80.56
1733037978717927649,1733037978717720508,12,-0.05,0.87,0.5,7.617139333333333,-79.12,-80.49
1733037978817790371,1733037978817538976,12,-0.05,0.87,0.5,7.698438666666667,-78.95,-80.47
1733037978948418785,1733037978948260784,12,-0.05,0.87,0.5,7.798499666666667,-79.43,-80.96
1733037979017322503,1733037979017054319,12,-0.05,0.87,0.5,7.892307,-79.61,-80.56
1733037979117824915,1733037979117676019,12,-0.05,0.87,0.5,8.004875666666667,-78.95,-80.45
1733037979218849839,1733037979218336820,12,-0.05,0.87,0.5,8.104937,-79.45,-81.22
1733037979315658509,1733037979315214633,12,-0.05,0.87,0.5,8.211251666666668,-79.21,-80.46
1733037979415643329,1733037979415198326,12,-0.05,0.87,0.5,8.323820333333332,-79.79,-80.87
1733037979515451389,1733037979515257835,12,-0.05,0.87,0.5,8.442642666666666,-79.28,-81.06
1733037979615710183,1733037979615248918,12,-0.05,0.87,0.5,8.548957666666666,-79.62,-81.01
1733037979715764911,1733037979715229272,12,-0.05,0.87,0.5,8.649018666666665,-79.99,-81.07
1733037979815576960,1733037979815203905,12,-0.05,0.87,0.5,8.724064333333333,-79.25,-80.66
1733037979915438332,1733037979915242671,12,-0.05,0.87,0.5,8.817871333333335,-79.34,-80.81
1733037980015507658,1733037980015235424,12,-0.05,0.87,0.5,8.924186,-79.49,-80.88
1733037980117660339,1733037980117422103,12,-0.05,0.87,0.5,9.061769666666668,-79.8,-82.27
1733037980217953710,1733037980217674255,12,-0.05,0.87,0.5,9.174338333333333,-80.49,-81.34
1733037980317718118,1733037980317373275,12,-0.05,0.87,0.5,9.280653333333333,-79.85,-81.32
1733037980418126594,1733037980417837858,12,-0.05,0.87,0.5,9.386968333333334,-80.01,-81.28
1733037980517426530,1733037980517127752,12,-0.05,0.87,0.5,9.505790333333332,-80.93,-82.21
1733037980617303510,1733037980617164850,12,-0.05,0.87,0.5,9.637120333333334,-80.99,-82.06
1733037980716543916,1733037980716317653,12,-0.05,0.87,0.5,9.762196333333334,-80.82,-81.83
1733037980816913195,1733037980816731214,12,-0.05,0.87,0.5,9.881019,-81.25,-82.0
1733037980916829645,1733037980916564702,12,-0.05,0.87,0.5,9.999841333333334,-80.03,-81.78
1733037981016704503,1733037981016372203,12,-0.05,0.87,0.5,10.093648666666667,-79.54,-80.98
1733037981116719536,1733037981116351842,12,-0.05,0.87,0.5,10.218724666666667,-79.65,-80.62
1733037981216700725,1733037981216501951,12,-0.05,0.87,0.5,10.318785333333333,-79.95,-81.11
1733037981316634566,1733037981316344261,12,-0.05,0.87,0.5,10.4251,-79.57,-80.68
1733037981416584099,1733037981416364431,12,-0.05,0.87,0.5,10.506399666666667,-79.32,-80.68
1733037981517312996,1733037981517103910,12,-0.05,0.87,0.5,10.625222333333332,-79.27,-80.6
1733037981617434961,1733037981617235183,12,-0.05,0.87,0.5,10.750298666666666,-79.51,-81.19
1733037981717586569,1733037981717402219,12,-0.05,0.87,0.5,10.869121,-79.35,-80.82
1733037981818008228,1733037981817834854,12,-0.05,0.87,0.5,10.969181999999998,-79.27,-80.5
1733037981917536917,1733037981917360067,12,-0.05,0.87,0.5,11.069242666666668,-79.32,-80.59
1733037982017671633,1733037982017478227,12,-0.05,0.87,0.5,11.188065,-79.37,-80.51
1733037982116638148,1733037982116355419,12,-0.05,0.87,0.5,11.319395,-79.47,-81.19
1733037982216649444,1733037982216420888,12,-0.05,0.87,0.5,11.419456000000002,-79.21,-80.52
1733037982316487782,1733037982316301345,12,-0.05,0.87,0.5,11.532024666666667,-79.36,-80.57
1733037982416671549,1733037982416496992,12,-0.05,0.87,0.5,11.632085666666667,-79.14,-80.81
1733037982516569355,1733037982516297817,12,-0.05,0.87,0.5,11.782177333333332,-79.65,-80.89
1733037982616583051,1733037982616323232,12,-0.05,0.87,0.5,11.888492,-79.31,-81.25
1733037982717285987,1733037982717155694,12,-0.05,0.87,0.5,11.994806666666667,-79.24,-80.68
1733037982817011164,1733037982816695213,12,-0.05,0.87,0.5,12.094867333333333,-79.47,-80.54
1733037982917198717,1733037982916480779,12,-0.05,0.87,0.5,12.219943666666666,-79.37,-80.77
1733037983317455928,1733037983317016839,12,-0.05,0.87,0.5,12.713994666666666,-79.27,-80.68
1733037983415575292,1733037983415216445,12,-0.05,0.87,0.5,12.807801666666668,-79.41,-81.13
1733037983517451485,1733037983517240047,12,-0.05,0.87,0.5,12.926623666666666,-80.01,-81.2
1733037983617787872,1733037983617613315,12,-0.05,0.87,0.5,13.057953666666668,-79.7,-81.03
1733037983715724724,1733037983715247392,12,-0.05,0.87,0.5,13.195537666666667,-79.68,-80.64
1733037983815682947,1733037983815229415,12,-0.05,0.87,0.5,13.295598666666669,-80.21,-81.02
1733037983917186463,1733037983916980504,12,-0.05,0.87,0.5,13.420675000000001,-80.04,-81.5
1733037984017366621,1733037984017212390,12,-0.05,0.87,0.5,13.526989666666667,-79.96,-80.9
1733037984117529401,1733037984117362022,12,-0.05,0.87,0.5,13.664573333333331,-80.46,-81.26
1733037984217183923,1733037984217028141,12,-0.05,0.87,0.5,13.777141666666665,-80.11,-81.17
1733037984317351304,1733037984317205429,12,-0.05,0.87,0.5,13.895964333333334,-80.1,-80.99
1733037984416718006,1733037984416474103,12,-0.05,0.87,0.5,14.021040666666666,-81.0,-81.65
1733037984516856216,1733037984516507148,12,-0.05,0.87,0.5,14.139863333333333,-80.29,-81.01
1733037984616557209,1733037984616314649,12,-0.05,0.87,0.5,14.283700666666666,-80.96,-81.33
1733037984716515230,1733037984716348648,12,-0.05,0.87,0.5,14.402523333333335,-80.57,-81.01
1733037984816880097,1733037984816478013,12,-0.05,0.87,0.5,14.533853,-80.79,-81.33
1733037984916795367,1733037984916391134,12,-0.05,0.87,0.5,14.658929,-80.91,-81.0
1733037985016570127,1733037985016329050,12,-0.05,0.87,0.5,14.784005,-80.78,-81.26
1733037985117636956,1733037985116457462,12,-0.05,0.87,0.5,14.921588666666667,-81.08,-80.99
1733037985216774616,1733037985216457128,12,-0.05,0.87,0.5,15.046664999999999,-81.16,-81.26
1733037985316584979,1733037985316454172,12,-0.05,0.87,0.5,15.184249,-81.75,-82.21
1733037985416521130,1733037985416337728,12,-0.05,0.87,0.5,15.309325333333334,-81.78,-81.83
1733037985517217434,1733037985516802072,12,-0.05,0.87,0.5,15.446909,-81.87,-83.81
1733037985616801643,1733037985616515874,12,-0.05,0.87,0.5,15.578238666666666,-82.28,-82.71
1733037985716858724,1733037985716577053,12,-0.05,0.87,0.5,15.697061,-82.94,-83.6
1733037985816981887,1733037985816563367,12,-0.05,0.87,0.5,15.815883666666666,-82.0,-84.71
1733037985916572983,1733037985916401147,12,-0.05,0.87,0.5,15.928452333333334,-82.5,-83.84
1733037986017229238,1733037986016303062,12,-0.05,0.87,0.5,16.078543666666665,-83.72,-83.32
1733037986117644958,1733037986117089271,12,-0.05,0.87,0.5,16.203619333333332,-83.21,-84.08
1733037986216419137,1733037986216251611,12,-0.05,0.87,0.5,16.341202666666664,-83.11,-83.0
1733037986316444789,1733037986316328287,12,-0.05,0.87,0.5,16.578847333333332,-83.97,-83.8
1733037986416432176,1733037986416257381,12,-0.05,0.87,0.5,16.691416,-84.57,-84.77
1733037986516582310,1733037986516335248,12,-0.05,0.87,0.5,16.816492333333333,-84.81,-84.77
1733037986616669106,1733037986616266012,12,-0.05,0.87,0.5,16.916552999999997,-84.88,-86.58
1733037986716674141,1733037986716368913,12,-0.05,0.87,0.5,17.035375666666663,-85.63,-86.94
1733037986816654052,1733037986816401481,12,-0.05,0.87,0.5,17.160451999999996,-87.95,-91.82
1733037986916963734,1733037986916607379,12,-0.05,0.87,0.5,17.285528333333335,-85.28,-86.39
1733037987016625935,1733037987016506433,12,-0.05,0.87,0.5,17.410604000000003,-85.67,-87.92
1733037987117136610,1733037987116834640,12,-0.05,0.87,0.5,17.523172666666664,-86.78,-88.15
1733037987216594875,1733037987216407299,12,-0.05,0.87,0.5,17.629487666666666,-86.77,-87.12
1733037987316855393,1733037987316623210,12,-0.05,0.87,0.5,17.754564,-86.36,-89.21
1733037987416574101,1733037987416419982,12,-0.05,0.87,0.5,17.885893666666664,-86.0,-88.56
1733037987516602716,1733037987516370534,12,-0.05,0.87,0.5,18.029731333333334,-86.36,-87.29
1733037987616566229,1733037987616305828,12,-0.05,0.87,0.5,18.154807666666667,-87.37,-87.64
1733037987716634316,1733037987716342926,12,-0.05,0.87,0.5,18.286137666666665,-86.6,-88.12
1733037987816486202,1733037987816310167,12,-0.05,0.87,0.5,18.404959666666667,-86.61,-87.41
1733037987917294923,1733037987917093515,12,-0.05,0.87,0.5,18.511274666666665,-86.24,-86.86
1733037988017748724,1733037988017533779,12,-0.05,0.87,0.5,18.636351,-86.37,-86.25
1733037988117665466,1733037988117408275,12,-0.05,0.87,0.5,18.761427333333334,-85.62,-87.72
1733037988218488558,1733037988218328714,12,-0.05,0.87,0.5,18.905264666666667,-85.82,-85.9
1733037988315570908,1733037988315219640,12,-0.05,0.87,0.5,19.055355666666667,-84.96,-86.47
1733037988416729196,1733037988416445255,12,-0.05,0.87,0.5,19.211701,-85.69,-85.23
1733037988516698833,1733037988516449689,12,-0.05,0.87,0.5,19.343031,-84.91,-85.04
1733037988616898406,1733037988616613388,12,-0.05,0.87,0.5,19.455600333333333,-84.24,-84.13
1733037988716755418,1733037988716449975,12,-0.05,0.87,0.5,19.561914666666667,-84.39,-85.45
1733037988817041975,1733037988816644668,12,-0.05,0.87,0.5,19.686991000000003,-84.33,-84.36
1733037988947166331,1733037988946817636,12,-0.05,0.87,0.5,19.805813,-84.03,-84.96
1733037989017068204,1733037989016630172,12,-0.05,0.87,0.5,19.918382333333337,-84.25,-86.37
1733037989116717014,1733037989116503238,12,-0.05,0.87,0.5,20.03720433333333,-83.88,-84.84
1733037989215480984,1733037989215220689,12,-0.05,0.87,0.5,20.168534333333334,-83.75,-83.69
1733037989315522002,1733037989315216302,12,-0.05,0.87,0.5,20.306117666666665,-83.59,-85.8
1733037989515592897,1733037989515226602,12,-0.05,0.87,0.5,20.481224333333333,-83.39,-83.63
1733037989616634455,1733037989616387844,12,-0.05,0.87,0.5,20.637569666666664,-83.37,-85.0
1733037989715727171,1733037989715265512,12,-0.05,0.87,0.5,20.800168666666668,-82.82,-82.98
1733037989815596963,1733037989815225362,12,-0.05,0.87,0.5,20.944006333333334,-85.14,-85.16
1733037989918050655,1733037989917929410,12,-0.05,0.87,0.5,21.069082666666663,-83.18,-83.6
1733037990018264172,1733037990018022060,12,-0.05,0.87,0.5,21.200413,-82.57,-83.14
1733037990118633125,1733037990118454217,12,-0.05,0.87,0.5,21.325489333333334,-83.01,-82.81
1733037990215532221,1733037990215234279,12,-0.05,0.87,0.5,21.463072666666665,-83.92,-84.47
1733037990318170088,1733037990317929029,12,-0.05,0.87,0.5,21.600655999999997,-82.8,-83.08
1733037990418168977,1733037990417899370,12,-0.05,0.87,0.5,21.700716666666665,-82.16,-82.55
1733037990517851062,1733037990517729759,12,-0.05,0.87,0.5,21.825793,-82.56,-82.47
1733037990618763759,1733037990618549346,12,-0.05,0.87,0.5,21.932108,-82.56,-82.78
1733037990718324710,1733037990718114614,12,-0.05,0.87,0.5,22.075945666666666,-81.92,-81.86
1733037990818220407,1733037990817993402,12,-0.05,0.87,0.5,22.194768333333332,-82.04,-83.72
1733037990918178252,1733037990917951583,12,-0.05,0.87,0.5,22.338606,-82.07,-82.04
1733037991018137951,1733037991018019676,12,-0.05,0.87,0.5,22.463682333333335,-82.33,-82.33
1733037991118654678,1733037991118453979,12,-0.05,0.87,0.5,22.588758000000002,-81.87,-81.84
1733037991218238038,1733037991217966556,12,-0.05,0.87,0.5,22.70132666666667,-81.73,-82.5
1733037991318431424,1733037991318268060,12,-0.05,0.87,0.5,22.820149333333333,-81.89,-81.81
1733037991418390568,1733037991418115377,12,-0.05,0.87,0.5,22.932717666666672,-82.34,-82.24
1733037991517753881,1733037991517512798,12,-0.05,0.87,0.5,23.064047333333335,-81.69,-82.25
1733037991617605436,1733037991617440223,12,-0.05,0.87,0.5,23.19537733333333,-81.2,-81.53
1733037991717768378,1733037991717518806,12,-0.05,0.87,0.5,23.351723000000003,-81.56,-82.79
1733037991817461542,1733037991817229032,12,-0.05,0.87,0.5,23.483053,-81.46,-82.59
1733037991917765792,1733037991917579174,12,-0.05,0.87,0.5,23.595621333333337,-81.22,-81.96
1733037992017987190,1733037992017534494,12,-0.05,0.87,0.5,23.701936333333332,-81.2,-83.46
1733037992117348720,1733037992117128372,12,-0.05,0.87,0.5,23.801997,-81.44,-81.58
1733037992216621347,1733037992216339826,12,-0.05,0.87,0.5,23.927073333333336,-81.27,-82.57
1733037992316784555,1733037992316497564,12,-0.05,0.87,0.5,24.027134,-81.36,-82.21
1733037992415385234,1733037992415228843,12,-0.05,0.87,0.5,24.158464666666664,-82.15,-83.88
1733037992515858204,1733037992515186071,12,-0.05,0.87,0.5,24.277287,-81.72,-83.79
1733037992615800318,1733037992615253925,12,-0.05,0.87,0.5,24.39610966666667,-81.9,-82.19
1733037992715594061,1733037992715191364,12,-0.05,0.87,0.5,24.508678,-81.48,-82.44
1733037992815653826,1733037992815211296,12,-0.05,0.87,0.5,24.621246333333335,-82.05,-82.17
1733037992915860855,1733037992915198326,12,-0.05,0.87,0.5,24.752576333333334,-81.33,-82.17
1733037993015755492,1733037993015206098,12,-0.05,0.87,0.5,24.890159666666666,-81.42,-81.72
1733037993115542678,1733037993115187883,12,-0.05,0.87,0.5,25.027743666666666,-81.25,-81.44
1733037993215395844,1733037993215202569,12,-0.05,0.87,0.5,25.165327,-81.95,-82.54
1733037993315522650,1733037993315221786,12,-0.05,0.87,0.5,25.28415,-81.07,-81.47
1733037993415645291,1733037993415206193,12,-0.05,0.87,0.5,25.415480000000002,-81.7,-82.9
1733037993515673852,1733037993515227556,12,-0.05,0.87,0.5,25.54055633333333,-81.1,-81.7
1733037993615655204,1733037993615215539,12,-0.05,0.87,0.5,25.671886,-81.39,-81.45
1733037993715673154,1733037993715206861,12,-0.05,0.87,0.5,25.784454333333333,-81.2,-81.65
1733037993815765420,1733037993815204143,12,-0.05,0.87,0.5,25.909530666666665,-81.72,-82.35
1733037993915925745,1733037993915215015,12,-0.05,0.87,0.5,26.034606999999998,-81.16,-81.41
1733037994015602717,1733037994015183448,12,-0.05,0.87,0.5,26.153429333333335,-81.17,-81.5
1733037994117494958,1733037994117233514,12,-0.05,0.87,0.5,26.441103666666667,-81.08,-81.28
1733037994217709921,1733037994217477560,12,-0.05,0.87,0.5,26.59119533333333,-81.13,-81.8
1733037994317412916,1733037994317268371,12,-0.05,0.87,0.5,26.703764666666668,-81.51,-81.74
1733037994417550797,1733037994417366743,12,-0.05,0.87,0.5,26.828841,-81.35,-81.63
1733037994517599469,1733037994517345428,12,-0.05,0.87,0.5,26.966424333333332,-81.72,-81.71
1733037994615641898,1733037994615209579,12,-0.05,0.87,0.5,27.104007666666664,-81.29,-81.3
1733037994815714941,1733037994815433740,12,-0.05,0.87,0.5,27.26660666666667,-81.17,-81.6
1733037994916050949,1733037994915252685,12,-0.05,0.87,0.5,27.429206333333337,-81.21,-81.88
1733037995415698546,1733037995415204763,12,-0.05,0.87,0.5,28.104617666666666,-81.62,-81.55
1733037995516460306,1733037995516310214,12,-0.05,0.87,0.5,28.273470333333336,-81.51,-81.64
1733037995616667097,1733037995616437911,12,-0.05,0.87,0.5,28.398546333333332,-81.19,-81.35
1733037995717552098,1733037995717309951,12,-0.05,0.87,0.5,28.536130333333332,-81.19,-81.44
1733037995816207982,1733037995816035509,12,-0.05,0.87,0.5,28.648699000000004,-80.92,-81.51
1733037995918360514,1733037995918211221,12,-0.05,0.87,0.5,28.773775333333333,-81.39,-83.16
1733037996015645899,1733037996015262126,12,-0.05,0.87,0.5,28.873835999999997,-81.11,-81.37
1733037996115842296,1733037996115262746,12,-0.05,0.87,0.5,28.980150666666663,-81.46,-81.63
1733037996218107475,1733037996217867374,12,-0.05,0.87,0.5,29.048942333333333,-81.06,-82.05
1733037996318146219,1733037996318046808,12,-0.05,0.87,0.5,29.123988333333333,-80.96,-81.15
1733037996418010583,1733037996417857885,12,-0.05,0.87,0.5,29.19278033333333,-81.81,-82.27
1733037996518000481,1733037996517883539,12,-0.05,0.87,0.5,29.249064999999998,-82.11,-81.88
1733037996618358077,1733037996618266344,12,-0.05,0.87,0.5,29.292841666666664,-81.44,-81.49
1733037996718070671,1733037996717952013,12,-0.05,0.87,0.5,29.317857,-81.77,-81.67
1733037996818171773,1733037996817968606,12,-0.05,0.87,0.5,29.349126000000002,-81.09,-81.53
1733037996918365523,1733037996918156385,12,-0.05,0.87,0.5,29.38664866666667,-82.77,-84.3
1733037997018024666,1733037997017888307,12,-0.05,0.87,0.5,29.417917666666668,-81.61,-81.83
1733037997118174783,1733037997118025541,12,-0.05,0.87,0.5,29.424171333333334,-81.95,-82.07
1733037997217821794,1733037997217720508,12,-0.05,0.87,0.5,29.417918,-82.61,-84.22
1733037997318192872,1733037997318012475,12,-0.05,0.87,0.5,29.436679333333334,-84.99,-85.04
1733037997419006010,1733037997418752431,12,-0.05,0.87,0.5,29.467948333333336,-82.86,-85.52
1733037997518498567,1733037997518164873,12,-0.05,0.87,0.5,29.486709666666666,-83.12,-83.35
1733037997618542891,1733037997618265628,12,-0.05,0.87,0.5,29.467948333333336,-84.0,-84.92
1733037997718329943,1733037997717988252,12,-0.05,0.87,0.5,29.442933666666665,-87.36,-87.64
1733037997817868878,1733037997817631006,12,-0.05,0.87,0.5,29.430425666666668,-82.91,-83.22
1733037997917934059,1733037997917766571,12,-0.05,0.87,0.5,29.430425666666668,-83.1,-83.36
1733037998018072501,1733037998017843008,12,-0.05,0.87,0.5,29.430425666666668,-84.71,-86.16
1733037998117906605,1733037998117685794,12,-0.05,0.87,0.5,29.436679333333334,-83.91,-83.89
1733037998218033993,1733037998217897176,12,-0.05,0.87,0.5,29.430426,-83.32,-86.24
1733037998318807104,1733037998318523168,12,-0.05,0.87,0.5,29.424171666666666,-83.37,-84.0
1733037998418254640,1733037998418074607,12,-0.05,0.87,0.5,29.424171666666666,-83.75,-83.91
1733037998518051629,1733037998517933607,12,-0.05,0.87,0.5,29.442933,-82.86,-84.12
1733037998618300196,1733037998618005275,12,-0.05,0.87,0.5,29.455440666666664,-83.54,-85.34
1733037998718394615,1733037998717855215,12,-0.05,0.87,0.5,29.436679333333334,-83.16,-83.59
1733037998818443748,1733037998818225860,12,-0.05,0.87,0.5,29.430425,-83.55,-83.7
1733037998949452127,1733037998949359655,12,-0.05,0.87,0.5,29.424171666666666,-83.02,-83.73
1733037999018070883,1733037999017976284,12,-0.05,0.87,0.5,29.436679333333334,-82.82,-85.57
1733037999118297919,1733037999118085622,12,-0.05,0.87,0.5,29.424172333333335,-83.06,-83.74
1733037999218277757,1733037999218023777,12,-0.05,0.87,0.5,29.430425666666668,-83.19,-83.37
1733037999317531475,1733037999317276954,12,-0.05,0.87,0.5,29.417918,-82.69,-84.76
1733037999417411237,1733037999417251110,12,-0.05,0.87,0.5,29.40541,-82.3,-82.54
1733037999517725379,1733037999517496824,12,-0.05,0.87,0.5,29.392902333333335,-82.44,-84.19
1733037999617614969,1733037999617364645,12,-0.05,0.87,0.5,29.374140999999998,-82.4,-82.65
1733037999717702777,1733037999717584609,12,-0.05,0.87,0.5,29.361633333333334,-83.3,-83.19
1733037999817680569,1733037999817521810,12,-0.05,0.87,0.5,29.317856666666668,-82.94,-84.14
1733037999917683130,1733037999917498111,12,-0.05,0.87,0.5,29.29909533333333,-82.57,-82.68
1733038000017780094,1733038000017522096,12,-0.05,0.87,0.5,29.267826333333332,-82.5,-84.61
1733038000115679498,1733038000115250587,12,-0.05,0.87,0.5,29.255319,-82.67,-83.31
1733038000215731626,1733038000215224266,12,-0.05,0.87,0.5,29.230303666666668,-82.24,-82.47
1733038000315710044,1733038000315232276,12,-0.05,0.87,0.5,29.186526666666666,-81.99,-84.11
1733038000415850271,1733038000415230035,12,-0.05,0.87,0.5,29.130242,-82.35,-82.88
1733038000515534594,1733038000515196084,12,-0.05,0.87,0.5,29.09271933333333,-83.88,-86.58
1733038000616641828,1733038000616364479,12,-0.05,0.87,0.5,29.055197000000003,-82.0,-83.79
1733038000716615400,1733038000716381788,12,-0.05,0.87,0.5,29.011420333333334,-82.45,-83.15
1733038000817022650,1733038000816548585,12,-0.05,0.87,0.5,28.948882,-82.25,-82.72
1733038000915638256,1733038000915199041,12,-0.05,0.87,0.5,28.886343666666665,-82.19,-84.52
1733038001015639731,1733038001015254259,12,-0.05,0.87,0.5,28.82380566666667,-82.38,-82.85
1733038001117243329,1733038001117088556,12,-0.05,0.87,0.5,28.76126766666667,-82.75,-85.49
1733038001217218876,1733038001216622829,12,-0.05,0.87,0.5,28.711237333333333,-82.48,-84.64
1733038001318412292,1733038001318166732,12,-0.05,0.87,0.5,28.654953333333335,-83.14,-84.06
1733038001417010084,1733038001416827917,12,-0.05,0.87,0.5,28.58616166666667,-82.7,-82.76
1733038001515972845,1733038001515180587,12,-0.05,0.87,0.5,28.492354333333335,-83.0,-83.6
1733038001615827204,1733038001615228176,12,-0.05,0.87,0.5,12.257465999999999,-82.61,-84.71
1733038001716492252,1733038001716318368,12,-0.05,0.87,0.5,12.182419999999999,-82.87,-83.04
1733038001815821706,1733038001815222024,12,-0.05,0.87,0.5,12.132389666666667,-82.41,-82.32
1733038001915736544,1733038001915198802,12,-0.05,0.87,0.5,28.210932666666665,-82.34,-82.47
1733038002015470219,1733038002015254020,12,-0.05,0.87,0.5,28.05458733333333,-82.85,-83.05
1733038002115799841,1733038002115211963,12,-0.05,0.87,0.5,28.00455666666667,-82.41,-84.24
1733038002217028317,1733038002216581821,12,-0.05,0.87,0.5,27.935765,-82.2,-82.48
1733038002315768708,1733038002315232753,12,-0.05,0.87,0.5,27.860719000000003,-82.92,-83.87
1733038002416687307,1733038002416449308,12,-0.05,0.87,0.5,27.779419666666666,-82.7,-84.16
1733038002516601799,1733038002516444444,12,-0.05,0.87,0.5,27.704374,-82.77,-83.01
1733038002617250122,1733038002616864681,12,-0.05,0.87,0.5,27.629328,-84.13,-84.57
1733038002716525439,1733038002716321229,12,-0.05,0.87,0.5,27.548028666666667,-83.28,-83.39
1733038002816685697,1733038002816488027,12,-0.05,0.87,0.5,27.466729,-83.41,-83.36
1733038002916653134,1733038002916386842,12,-0.05,0.87,0.5,27.379176,-82.85,-83.39
1733038003015670449,1733038003015211582,12,-0.05,0.87,0.5,27.30413,-83.34,-85.42
1733038003115626005,1733038003115232706,12,-0.05,0.87,0.5,27.197815666666667,-82.75,-83.22
1733038003218078861,1733038003217856884,12,-0.05,0.87,0.5,27.116516333333333,-82.48,-82.41
1733038003317821323,1733038003317724227,12,-0.05,0.87,0.5,27.028963333333333,-82.27,-82.45
1733038003418572395,1733038003418289899,12,-0.05,0.87,0.5,26.953917333333333,-82.41,-82.67
1733038003519468605,1733038003518800497,12,-0.05,0.87,0.5,26.85385633333333,-82.32,-83.17
1733038003618568596,1733038003618377923,12,-0.05,0.87,0.5,26.753794999999997,-82.26,-82.53
1733038003719152574,1733038003718885898,12,-0.05,0.87,0.5,26.659988,-82.2,-83.92
1733038003818215992,1733038003818079233,12,-0.05,0.87,0.5,26.578688,-82.36,-82.42
1733038003919040018,1733038003918818235,12,-0.05,0.87,0.5,26.47237366666667,-82.84,-85.14
1733038004018585796,1733038004018307209,12,-0.05,0.87,0.5,26.37856633333333,-82.3,-82.56
1733038004118839299,1733038004118515729,12,-0.05,0.87,0.5,26.28475966666667,-82.48,-82.72
1733038004218017294,1733038004217898845,12,-0.05,0.87,0.5,26.172190999999998,-84.36,-84.69
1733038004318603530,1733038004318268060,12,-0.05,0.87,0.5,26.059622333333333,-82.47,-84.71
1733038004417904770,1733038004417729139,12,-0.05,0.87,0.5,25.940799666666663,-83.34,-84.33
1733038004518454149,1733038004518225431,12,-0.05,0.87,0.5,25.853246,-82.24,-83.71
1733038004618384790,1733038004618136882,12,-0.05,0.87,0.5,25.746931333333333,-82.99,-83.3
1733038004718699793,1733038004718474388,12,-0.05,0.87,0.5,25.634362999999997,-82.64,-84.09
1733038004818135493,1733038004817911624,12,-0.05,0.87,0.5,25.528048666666663,-83.54,-83.97
1733038004918245702,1733038004918041944,12,-0.05,0.87,0.5,25.427987666666667,-82.76,-83.11
1733038005018446650,1733038005018224954,12,-0.05,0.87,0.5,25.321672666666668,-82.64,-83.14
1733038005149178150,1733038005148989677,12,-0.05,0.87,0.5,25.190342,-82.32,-82.52
1733038005217843331,1733038005217721939,12,-0.05,0.87,0.5,25.065265666666665,-82.89,-84.51
1733038005318193406,1733038005317917585,12,-0.05,0.87,0.5,24.927682,-82.73,-83.0
1733038005418371319,1733038005417768001,12,-0.05,0.87,0.5,24.815113666666665,-82.56,-82.69
1733038005518181411,1733038005517950534,12,-0.05,0.87,0.5,24.721307333333332,-82.35,-82.28
1733038005619138421,1733038005618949890,12,-0.05,0.87,0.5,24.633753666666667,-82.67,-82.87
1733038005715569610,1733038005715208768,12,-0.05,0.87,0.5,24.533693,-82.71,-86.26
1733038005815742740,1733038005815245628,12,-0.05,0.87,0.5,24.408616666666664,-83.26,-85.48
1733038005915587726,1733038005915216445,12,-0.05,0.87,0.5,24.289794666666666,-82.21,-82.46
1733038006015911987,1733038006015242576,12,-0.05,0.87,0.5,24.177226,-83.24,-83.63
1733038006115533944,1733038006115242719,12,-0.05,0.87,0.5,24.058403,-82.02,-84.18
1733038006215620276,1733038006215241909,12,-0.05,0.87,0.5,23.939581,-83.22,-83.49
1733038006315597396,1733038006315209388,12,-0.05,0.87,0.5,23.808251000000002,-82.1,-82.31
1733038006415603000,1733038006415252208,12,-0.05,0.87,0.5,23.67066766666667,-84.23,-84.21
1733038006515619927,1733038006515219926,12,-0.05,0.87,0.5,23.533083666666666,-81.95,-82.12
1733038006615653317,1733038006615273237,12,-0.05,0.87,0.5,23.426768666666664,-81.85,-82.1
1733038006715666170,1733038006715227842,12,-0.05,0.87,0.5,23.314200333333332,-82.14,-82.41
1733038006815521630,1733038006815228700,12,-0.05,0.87,0.5,23.207885333333333,-81.92,-82.16
1733038006915513376,1733038006915217161,12,-0.05,0.87,0.5,23.070302,-81.85,-82.01
1733038007015759277,1733038007015251874,12,-0.05,0.87,0.5,22.976494666666667,-81.8,-82.01
1733038007116087491,1733038007115245342,12,-0.05,0.87,0.5,22.863926000000003,-81.65,-82.62
1733038007215508258,1733038007215199470,12,-0.05,0.87,0.5,22.751357,-81.52,-81.92
1733038007316487076,1733038007316321134,12,-0.05,0.87,0.5,22.613773,-81.17,-82.09
1733038007517806091,1733038007517569303,12,-0.05,0.87,0.5,22.438666333333334,-81.65,-84.64
1733038007617522069,1733038007617287874,12,-0.05,0.87,0.5,22.257306,-82.29,-84.14
1733038007717311971,1733038007717056751,12,-0.05,0.87,0.5,22.082199333333335,-81.61,-82.74
1733038007816694642,1733038007816370725,12,-0.05,0.87,0.5,21.957123,-81.59,-81.98
1733038007916442842,1733038007916247129,12,-0.05,0.87,0.5,21.825793,-81.66,-82.37
1733038008016706932,1733038008016506671,12,-0.05,0.87,0.5,21.700716666666665,-83.56,-84.16
1733038008118473227,1733038008118253231,12,-0.05,0.87,0.5,21.550625666666665,-82.02,-83.66
1733038008218560301,1733038008218317747,12,-0.05,0.87,0.5,21.438057333333333,-81.83,-83.26
1733038008317972340,1733038008317718982,12,-0.05,0.87,0.5,21.331743,-81.28,-83.1
1733038008515473237,1733038008515203237,12,-0.05,0.87,0.5,21.200413,-82.15,-84.2
1733038008615676006,1733038008615218400,12,-0.05,0.87,0.5,21.062829,-82.67,-83.62
1733038008715725485,1733038008715249776,12,-0.05,0.87,0.5,20.868961,-81.9,-83.68
1733038008816734761,1733038008816601753,12,-0.05,0.87,0.5,20.731377,-82.28,-83.85
1733038008915547519,1733038008915199518,12,-0.05,0.87,0.5,20.600047,-82.64,-85.23
1733038009015872945,1733038009015208721,12,-0.05,0.87,0.5,20.512493333333335,-82.48,-83.84
1733038009117897027,1733038009117723941,12,-0.05,0.87,0.5,20.406178999999998,-82.34,-84.01
1733038009217797126,1733038009217637062,12,-0.05,0.87,0.5,20.281102666666666,-82.37,-85.51
1733038009316747989,1733038009316460847,12,-0.05,0.87,0.5,20.131011333333333,-82.46,-85.94
1733038009416648100,1733038009416389942,12,-0.05,0.87,0.5,20.012188666666663,-82.54,-86.4
1733038009516698256,1733038009516420125,12,-0.05,0.87,0.5,19.887112333333334,-81.81,-84.22
1733038009615584891,1733038009615177869,12,-0.05,0.87,0.5,19.793305333333336,-82.46,-84.31
1733038009715866443,1733038009715223312,12,-0.05,0.87,0.5,19.674483,-82.11,-84.89
1733038009815707499,1733038009815206289,12,-0.05,0.87,0.5,19.555661,-84.82,-87.66
1733038009915628905,1733038009915196180,12,-0.05,0.87,0.5,19.436837999999998,-82.78,-85.56
1733038010015855017,1733038010015177965,12,-0.05,0.87,0.5,19.311761999999998,-82.83,-84.25
1733038010115884886,1733038010115238666,12,-0.05,0.87,0.5,19.19919333333333,-84.17,-85.81
1733038010215667996,1733038010215175151,12,-0.05,0.87,0.5,19.080371333333332,-84.58,-86.46
1733038010315663099,1733038010315200567,12,-0.05,0.87,0.5,18.992817666666667,-83.3,-85.21
1733038010415845092,1733038010415236234,12,-0.05,0.87,0.5,18.905264000000003,-83.63,-84.79
1733038010515754233,1733038010515205144,12,-0.05,0.87,0.5,18.811457,-83.63,-84.25
1733038010615492391,1733038010615249395,12,-0.05,0.87,0.5,18.767680666666667,-85.28,-86.8
1733038010715550193,1733038010715211629,12,-0.05,0.87,0.5,18.592574666666668,-85.22,-88.23
1733038010815679903,1733038010815224647,12,-0.05,0.87,0.5,18.123539,-87.17,-92.69
1733038010915561184,1733038010915229558,12,-0.05,0.87,0.5,17.979701333333335,-87.74,-90.86
1733038011015527198,1733038011015263557,12,-0.05,0.87,0.5,17.860878666666668,-87.55,-92.6
1733038011115698126,1733038011115226984,12,-0.05,0.87,0.5,17.767071666666666,-86.8,-90.23
1733038011215419314,1733038011215223312,12,-0.05,0.87,0.5,17.673264666666668,-86.52,-91.02
1733038011315530898,1733038011315208673,12,-0.05,0.87,0.5,17.573203666666668,-87.06,-91.07
1733038011415779489,1733038011415197610,12,-0.05,0.87,0.5,17.479396333333334,-86.45,-88.15
1733038011515503930,1733038011515204906,12,-0.05,0.87,0.5,17.379335,-87.28,-88.66
1733038011615476856,1733038011615119695,12,-0.05,0.87,0.5,17.27302,-86.36,-87.42
1733038011715709487,1733038011715237379,12,-0.05,0.87,0.5,17.154197999999997,-85.95,-90.21
1733038011815567136,1733038011815216541,12,-0.05,0.87,0.5,17.035375666666663,-85.51,-87.48
1733038011915697439,1733038011915228843,12,-0.05,0.87,0.5,16.929061333333333,-85.72,-89.87
1733038012015749672,1733038012015240192,12,-0.05,0.87,0.5,16.810238666666667,-84.55,-85.33
1733038012115555283,1733038012115251541,12,-0.05,0.87,0.5,16.703923666666665,-86.03,-89.39
1733038012215695908,1733038012215198755,12,-0.05,0.87,0.5,16.597608666666662,-86.64,-88.12
1733038012315654127,1733038012315233945,12,-0.05,0.87,0.5,16.472532333333334,-86.0,-87.89
1733038012415510681,1733038012415199041,12,-0.05,0.87,0.5,16.347455999999998,-86.86,-89.21
1733038012516703174,1733038012516476869,12,-0.05,0.87,0.5,16.228634,-85.97,-86.23
1733038012616770376,1733038012616483211,12,-0.05,0.87,0.5,16.147334333333333,-85.15,-84.81
1733038012716949216,1733038012716710805,12,-0.05,0.87,0.5,16.066035666666668,-83.5,-83.67
1733038012817466694,1733038012817237854,12,-0.05,0.87,0.5,15.978482333333334,-84.18,-85.6
1733038012917605171,1733038012917207002,12,-0.05,0.87,0.5,15.884675666666666,-84.21,-87.45
1733038013017245615,1733038013017005205,12,-0.05,0.87,0.5,15.797122333333334,-84.44,-85.78
1733038013116830284,1733038013116553068,12,-0.05,0.87,0.5,15.715823,-84.59,-86.75
1733038013215499123,1733038013215219259,12,-0.05,0.87,0.5,15.653284999999999,-84.4,-85.01
1733038013315538794,1733038013315211534,12,-0.05,0.87,0.5,15.597000666666666,-85.15,-85.28
1733038013415475781,1733038013415206670,12,-0.05,0.87,0.5,15.54697,-83.27,-84.98
1733038013515716080,1733038013515262126,12,-0.05,0.87,0.5,15.484432,-83.14,-85.99
1733038013615507547,1733038013615221977,12,-0.05,0.87,0.5,15.421894,-82.47,-82.88
1733038013715507469,1733038013715215206,12,-0.05,0.87,0.5,15.371863333333332,-82.04,-83.65
1733038013817476283,1733038013817255496,12,-0.05,0.87,0.5,15.321832666666667,-82.05,-83.88
1733038013915469395,1733038013915203332,12,-0.05,0.87,0.5,15.278055666666667,-82.52,-82.41
1733038014115479686,1733038014115236759,12,-0.05,0.87,0.5,15.190502333333335,-82.6,-83.46
1733038014216353956,1733038014216202020,12,-0.05,0.87,0.5,15.102949,-82.6,-84.09
1733038014316543271,1733038014316394090,12,-0.05,0.87,0.5,15.027903333333333,-82.81,-82.95
1733038014415624677,1733038014415226936,12,-0.05,0.87,0.5,14.977873,-82.94,-83.13
1733038014916976512,1733038014916586637,12,-0.05,0.87,0.5,14.877812666666665,-82.98,-83.49
1733038015016729508,1733038015016451358,12,-0.05,0.87,0.5,14.846543666666667,-85.27,-84.59
1733038015146817896,1733038015146584987,12,-0.05,0.87,0.5,14.834035666666665,-82.92,-84.57
1733038015217822558,1733038015217546939,12,-0.05,0.87,0.5,14.815274333333333,-82.92,-82.84
1733038015316680019,1733038015316469192,12,-0.05,0.87,0.5,14.777751333333333,-84.1,-83.97
1733038015418364975,1733038015418232679,12,-0.05,0.87,0.5,14.746482666666665,-84.23,-84.8
1733038015515508709,1733038015515236616,12,-0.05,0.87,0.5,14.733974666666667,-82.89,-82.4
1733038015615537727,1733038015615238904,12,-0.05,0.87,0.5,14.721467333333331,-83.73,-84.81
1733038015718310868,1733038015718164682,12,-0.05,0.87,0.5,14.740228666666667,-83.67,-83.36
1733038015818720283,1733038015818537950,12,-0.05,0.87,0.5,14.708959666666667,-84.58,-84.79
1733038015918018865,1733038015917890787,12,-0.05,0.87,0.5,14.702705666666667,-83.95,-85.47
1733038016018429473,1733038016018124341,12,-0.05,0.87,0.5,14.646421333333334,-83.95,-84.63
1733038016118323018,1733038016118091821,12,-0.05,0.87,0.5,14.633913999999999,-84.43,-86.65
1733038016217913655,1733038016217689514,12,-0.05,0.87,0.5,14.627660333333333,-83.77,-83.57
1733038016317711419,1733038016317468643,12,-0.05,0.87,0.5,14.633914333333331,-83.67,-84.03
1733038016417675947,1733038016417483568,12,-0.05,0.87,0.5,14.652675666666665,-83.66,-83.2
1733038016517617318,1733038016517379283,12,-0.05,0.87,0.5,14.640167999999997,-84.26,-86.31
1733038016617602519,1733038016617359638,12,-0.05,0.87,0.5,14.627660333333333,-85.73,-86.06
1733038016717653290,1733038016717415332,12,-0.05,0.87,0.5,14.596391333333335,-85.23,-86.36
1733038016817809318,1733038016817600250,12,-0.05,0.87,0.5,14.583883666666665,-84.95,-84.83
1733038016917668289,1733038016917377948,12,-0.05,0.87,0.5,14.590137333333333,-84.25,-86.03
1733038017017428803,1733038017017261505,12,-0.05,0.87,0.5,14.583883333333333,-84.13,-85.56
1733038017117619588,1733038017117349863,12,-0.05,0.87,0.5,14.577629666666667,-84.14,-86.15
1733038017217513198,1733038017217290639,12,-0.05,0.87,0.5,14.565122,-83.04,-83.55
1733038017316694132,1733038017316538810,12,-0.05,0.87,0.5,14.546360666666667,-82.37,-82.9
1733038017416924402,1733038017416698694,12,-0.05,0.87,0.5,14.502584,-82.17,-82.02
1733038017516727906,1733038017516627550,12,-0.05,0.87,0.5,14.465061333333333,-81.05,-81.4
1733038017616594351,1733038017616303205,12,-0.05,0.87,0.5,14.421284333333332,-80.98,-81.45
1733038017716922249,1733038017716377258,12,-0.05,0.87,0.5,14.390015333333332,-81.1,-82.36
1733038017816476095,1733038017816285371,12,-0.05,0.87,0.5,14.371253666666666,-81.67,-82.72
1733038017916648341,1733038017916391372,12,-0.05,0.87,0.5,14.358746333333334,-81.04,-82.06
1733038018016551129,1733038018016457557,12,-0.05,0.87,0.5,14.339984666666666,-81.05,-81.02
1733038018115989323,1733038018115226507,12,-0.05,0.87,0.5,14.314969666666668,-81.46,-81.71
1733038018215608528,1733038018215207576,12,-0.05,0.87,0.5,14.314969666666668,-81.51,-81.67
1733038018315620604,1733038018315186023,12,-0.05,0.87,0.5,14.333731333333334,-81.61,-81.75
1733038018415876714,1733038018415227174,12,-0.05,0.87,0.5,14.339985,-82.36,-82.09
1733038018515589701,1733038018515183210,12,-0.05,0.87,0.5,14.327477333333334,-80.92,-81.31
1733038018615508883,1733038018615184307,12,-0.05,0.87,0.5,14.321223333333334,-81.78,-81.62
1733038018715827017,1733038018715204238,12,-0.05,0.87,0.5,14.321223333333334,-81.17,-81.25
1733038018815477986,1733038018815185070,12,-0.05,0.87,0.5,14.321223333333334,-81.72,-81.58
1733038018915769301,1733038018915206432,12,-0.05,0.87,0.5,14.296208333333334,-80.61,-81.19
1733038019015573046,1733038019015193462,12,-0.05,0.87,0.5,14.283700666666666,-80.87,-80.96
1733038019115660225,1733038019115214109,12,-0.05,0.87,0.5,14.271193333333335,-80.66,-81.53
1733038019215503504,1733038019215203285,12,-0.05,0.87,0.5,14.271193333333335,-80.97,-81.71
1733038019315945523,1733038019315237522,12,-0.05,0.87,0.5,14.277447333333335,-81.67,-81.45
1733038019415688950,1733038019415173530,12,-0.05,0.87,0.5,14.289954666666667,-80.62,-81.38
1733038019515487260,1733038019515210151,12,-0.05,0.87,0.5,14.289954666666668,-80.91,-81.23
1733038019615578339,1733038019615190267,12,-0.05,0.87,0.5,14.264939333333333,-81.21,-81.62
1733038019715740493,1733038019715234041,12,-0.05,0.87,0.5,14.271193333333335,-80.95,-81.21
1733038019815587478,1733038019815207958,12,-0.05,0.87,0.5,14.258685333333332,-80.72,-81.26
1733038019915826440,1733038019915265798,12,-0.05,0.87,0.5,14.271193000000002,-81.18,-81.08
1733038020147426197,1733038020147207736,12,-0.05,0.87,0.5,14.233670000000002,-80.99,-81.33
1733038020217460279,1733038020217293977,12,-0.05,0.87,0.5,14.208655,-81.2,-81.31
1733038020317867114,1733038020317660093,12,-0.05,0.87,0.5,14.171132,-80.92,-81.08
1733038020418504810,1733038020418160438,12,-0.05,0.87,0.5,14.139862666666666,-80.77,-80.93
1733038020517962048,1733038020517661333,12,-0.05,0.87,0.5,14.108593333333333,-80.91,-81.02
1733038021016615806,1733038021016418933,12,-0.05,0.87,0.5,13.889711,-80.88,-81.14
1733038021115553464,1733038021115209817,12,-0.05,0.87,0.5,13.820918666666666,-80.84,-81.4
1733038021216625249,1733038021216385841,12,-0.05,0.87,0.5,13.764634333333333,-80.87,-81.64
1733038021317478032,1733038021317277908,12,-0.05,0.87,0.5,13.714603666666667,-80.49,-80.84
1733038021416236908,1733038021416017293,12,-0.05,0.87,0.5,13.652065666666667,-80.62,-81.58
1733038021516706623,1733038021516399145,12,-0.05,0.87,0.5,13.589527666666667,-80.56,-81.62
1733038021618282390,1733038021618135452,12,-0.05,0.87,0.5,13.520736,-80.11,-81.95
1733038021718035440,1733038021717938899,12,-0.05,0.87,0.5,13.451944333333332,-80.01,-80.72
1733038021817762072,1733038021817667245,12,-0.05,0.87,0.5,13.383152333333333,-79.84,-81.05
1733038021915605517,1733038021915227174,12,-0.05,0.87,0.5,13.301852666666667,-81.14,-81.02
1733038022015644472,1733038022015215635,12,-0.05,0.87,0.5,13.208045333333333,-80.42,-81.23
1733038022115629087,1733038022115211963,12,-0.05,0.87,0.5,13.126745999999999,-80.55,-81.46
1733038022216086205,1733038022215242147,12,-0.05,0.87,0.5,13.026685,-80.23,-81.07
1733038022315648961,1733038022315204620,12,-0.05,0.87,0.5,12.932878,-80.6,-81.13
1733038022415635225,1733038022415213584,12,-0.05,0.87,0.5,12.851578333333334,-80.21,-81.6
1733038022515465872,1733038022515207767,12,-0.05,0.87,0.5,12.782786666666667,-80.68,-82.02
1733038022615658005,1733038022615227937,12,-0.05,0.87,0.5,12.701487,-79.98,-81.22
1733038022715715070,1733038022715207338,12,-0.05,0.87,0.5,12.595172,-80.22,-81.2
1733038022815562750,1733038022815206766,12,-0.05,0.87,0.5,12.513872,-79.93,-80.74
1733038022915543624,1733038022915229558,12,-0.05,0.87,0.5,12.438826333333333,-80.47,-82.01
1733038023015705247,1733038023015254020,12,-0.05,0.87,0.5,12.363781000000001,-80.25,-80.82
1733038023115630054,1733038023115237712,12,-0.05,0.87,0.5,12.257466333333333,-80.74,-80.98
1733038023215663498,1733038023215219259,12,-0.05,0.87,0.5,12.151151333333333,-80.35,-81.66
1733038023315683536,1733038023315241575,12,-0.05,0.87,0.5,12.05109,-80.56,-81.12
1733038023415704666,1733038023415217161,12,-0.05,0.87,0.5,11.944775333333334,-80.01,-80.86
1733038023518567821,1733038023518258571,12,-0.05,0.87,0.5,11.838461,-79.99,-80.52
1733038023618282200,1733038023618124008,12,-0.05,0.87,0.5,11.725892666666667,-79.53,-80.48
1733038023719579151,1733038023719317674,12,-0.05,0.87,0.5,11.625831666666665,-80.38,-81.56
1733038023817721186,1733038023817385196,12,-0.05,0.87,0.5,11.532024333333334,-79.47,-80.75
1733038023917326221,1733038023917110204,12,-0.05,0.87,0.5,11.438217333333332,-79.65,-80.63
1733038024017879557,1733038024017387866,12,-0.05,0.87,0.5,11.344410333333334,-79.75,-80.78
1733038024117640136,1733038024117408037,12,-0.05,0.87,0.5,11.231841666666668,-80.38,-80.87
1733038024217561046,1733038024217323541,12,-0.05,0.87,0.5,11.113019333333334,-79.59,-80.47
1733038024317596893,1733038024317440509,12,-0.05,0.87,0.5,10.994197,-79.71,-80.9
1733038024417650189,1733038024417265415,12,-0.05,0.87,0.5,10.881628666666666,-80.12,-81.27
1733038024517467384,1733038024517292261,12,-0.05,0.87,0.5,10.781567333333333,-80.21,-81.18
1733038024617799784,1733038024617325305,12,-0.05,0.87,0.5,10.668999,-79.95,-81.6
1733038024717418893,1733038024717263460,12,-0.05,0.87,0.5,10.562684333333335,-80.52,-81.1
1733038024817641281,1733038024817514419,12,-0.05,0.87,0.5,10.443862000000001,-80.25,-81.34
1733038024917332126,1733038024917133569,12,-0.05,0.87,0.5,10.337547,-80.22,-81.25
1733038025016913115,1733038025016419649,12,-0.05,0.87,0.5,10.224978333333334,-80.28,-81.23
1733038025147072453,1733038025146626710,12,-0.05,0.87,0.5,10.124917666666667,-79.86,-80.87
1733038025216759876,1733038025216635227,12,-0.05,0.87,0.5,10.006095,-80.04,-80.61
1733038025315726459,1733038025315276861,12,-0.05,0.87,0.5,9.881018666666668,-80.37,-80.85
1733038025415921336,1733038025415265798,12,-0.05,0.87,0.5,9.749688333333333,-80.73,-81.37
1733038025515469227,1733038025515250921,12,-0.05,0.87,0.5,9.630866333333332,-80.69,-81.88
1733038025615832823,1733038025615207195,12,-0.05,0.87,0.5,9.518298,-81.41,-81.7
1733038025718065672,1733038025717908382,12,-0.05,0.87,0.5,9.399476,-82.6,-83.7
1733038025818143076,1733038025818073749,12,-0.05,0.87,0.5,9.268146,-81.93,-82.18
1733038025917642627,1733038025917470455,12,-0.05,0.87,0.5,9.130562,-81.97,-84.09
1733038026017017724,1733038026016544103,12,-0.05,0.87,0.5,8.999232,-81.47,-83.83
1733038026116804938,1733038026116536140,12,-0.05,0.87,0.5,8.874155666666667,-81.63,-82.04
1733038026217000800,1733038026216658592,12,-0.05,0.87,0.5,8.749079666666667,-80.8,-83.31
1733038026316548272,1733038026316290616,12,-0.05,0.87,0.5,8.636511,-79.96,-81.14
1733038026717538592,1733038026717314481,12,-0.05,0.87,0.5,8.148714,-79.55,-80.71
1733038026817466133,1733038026817201852,12,-0.05,0.87,0.5,8.004876000000001,-79.68,-81.54
1733038026917395079,1733038026917181968,12,-0.05,0.87,0.5,7.873545666666666,-79.86,-81.01
1733038027017461032,1733038027017301082,12,-0.05,0.87,0.5,7.735961666666667,-79.97,-81.54
1733038027115829963,1733038027115202665,12,-0.05,0.87,0.5,7.610885333333333,-79.38,-80.76
1733038027215580515,1733038027215201377,12,-0.05,0.87,0.5,7.492063333333333,-79.38,-80.45
1733038027315617223,1733038027315216779,12,-0.05,0.87,0.5,7.373241,-80.01,-81.34
1733038027415802041,1733038027415257930,12,-0.05,0.87,0.5,7.235657333333333,-79.49,-80.96
1733038027515827217,1733038027515218734,12,-0.05,0.87,0.5,7.079311999999999,-80.18,-81.15
1733038027615594444,1733038027615221500,12,-0.05,0.87,0.5,6.8416673333333335,-80.56,-81.33
1733038027716614873,1733038027716301202,12,-0.05,0.87,0.5,6.716591,-80.33,-81.66
1733038027816594545,1733038027816308498,12,-0.05,0.87,0.5,6.566499666666666,-80.54,-81.46
1733038027916942253,1733038027916498899,12,-0.05,0.87,0.5,6.435169666666667,-81.95,-82.68
1733038028016894924,1733038028016620874,12,-0.05,0.87,0.5,6.310093666666667,-82.17,-83.29
1733038028116850819,1733038028116480588,12,-0.05,0.87,0.5,6.191271333333333,-81.82,-82.72
1733038028216729769,1733038028216310262,12,-0.05,0.87,0.5,6.0661950000000004,-80.17,-80.87
1733038028316773912,1733038028316413879,12,-0.05,0.87,0.5,5.934864999999999,-80.08,-80.82
1733038028416463274,1733038028416207075,12,-0.05,0.87,0.5,5.791027333333333,-80.02,-80.73
1733038028516643404,1733038028516482830,12,-0.05,0.87,0.5,5.678458666666667,-79.74,-80.69
1733038028617097353,1733038028616300106,12,-0.05,0.87,0.5,5.56589,-79.59,-80.55
1733038028716557559,1733038028716360092,12,-0.05,0.87,0.5,5.440813666666666,-79.02,-80.86
1733038028816570670,1733038028816263437,12,-0.05,0.87,0.5,5.290722333333332,-79.67,-80.67
1733038028916816443,1733038028916542530,12,-0.05,0.87,0.5,5.165646333333333,-79.92,-81.04
1733038029016676874,1733038029016359329,12,-0.05,0.87,0.5,5.059331666666666,-79.96,-80.87
1733038029116608040,1733038029116405487,12,-0.05,0.87,0.5,4.934255666666666,-80.58,-81.22
1733038029216528812,1733038029216318130,12,-0.05,0.87,0.5,4.790418,-80.52,-81.67
1733038029316632119,1733038029316458940,12,-0.05,0.87,0.5,4.646580666666666,-81.42,-82.45
1733038029416697068,1733038029416338682,12,-0.05,0.87,0.5,4.534012,-80.76,-82.0
1733038029517001754,1733038029516645431,12,-0.05,0.87,0.5,4.46522,-79.63,-81.59
1733038029616582277,1733038029616421461,12,-0.05,0.87,0.5,4.390174,-79.29,-81.29
1733038029716560864,1733038029716341018,12,-0.05,0.87,0.5,4.327636,-80.43,-81.02
1733038029816814101,1733038029816515684,12,-0.05,0.87,0.5,4.240082666666667,-78.69,-81.2
1733038029916501130,1733038029916262865,12,-0.05,0.87,0.5,4.165037000000001,-79.16,-80.51
1733038030016648252,1733038030016427993,12,-0.05,0.87,0.5,4.089991,-79.51,-80.68
1733038030147155420,1733038030146759271,12,-0.05,0.87,0.5,4.008691333333334,-79.66,-80.54
1733038030216578336,1733038030216403961,12,-0.05,0.87,0.5,3.946153333333333,-79.58,-80.44
1733038030316596746,1733038030316325902,12,-0.05,0.87,0.5,3.877361666666667,-79.37,-80.45
1733038030416795577,1733038030416694164,12,-0.05,0.87,0.5,3.833585,-79.92,-80.96
1733038030517421454,1733038030516531705,12,-0.05,0.87,0.5,3.771047,-79.03,-81.31
1733038030616672870,1733038030616351842,12,-0.05,0.87,0.5,3.7147626666666667,-79.04,-80.85
1733038030715614069,1733038030715241670,12,-0.05,0.87,0.5,3.6647323333333333,-79.0,-80.89
1733038030815528408,1733038030815231800,12,-0.05,0.87,0.5,3.6209556666666667,-79.28,-81.15
1733038030915583725,1733038030915222167,12,-0.05,0.87,0.5,3.6084480000000005,-79.56,-80.88
1733038031015564359,1733038031015252113,12,-0.05,0.87,0.5,3.583432666666667,-79.08,-80.51
1733038031115621546,1733038031115244626,12,-0.05,0.87,0.5,3.5834326666666665,-79.05,-80.83
1733038031215599957,1733038031215229511,12,-0.05,0.87,0.5,3.5771789999999997,-79.2,-81.07
1733038031315581905,1733038031315220594,12,-0.05,0.87,0.5,3.583433,-79.04,-80.76
1733038031416773386,1733038031416529893,12,-0.05,0.87,0.5,3.5521636666666665,-78.92,-80.43
1733038031516659605,1733038031516441583,12,-0.05,0.87,0.5,3.5459096666666667,-79.08,-80.66
1733038031616849025,1733038031616571664,12,-0.05,0.87,0.5,3.570924666666667,-78.9,-80.55
1733038031716767958,1733038031716437578,12,-0.05,0.87,0.5,3.6209553333333333,-79.21,-80.88
1733038031816750812,1733038031816560029,12,-0.05,0.87,0.5,3.6647319999999994,-78.95,-81.26
1733038031916672367,1733038031916451930,12,-0.05,0.87,0.5,3.6772396666666665,-79.29,-81.23
1733038032016791443,1733038032016555547,12,-0.05,0.87,0.5,3.708508666666667,-79.04,-80.76
1733038032117626219,1733038032117405652,12,-0.05,0.87,0.5,3.7272700000000003,-78.84,-80.62
1733038032615751643,1733038032615286350,12,-0.05,0.87,0.5,3.902377,-78.89,-80.46
1733038032715769767,1733038032715268611,12,-0.05,0.87,0.5,3.939899666666667,-79.1,-80.62
1733038032815625374,1733038032815232753,12,-0.05,0.87,0.5,3.964915,-78.95,-80.51
1733038032915876829,1733038032915223121,12,-0.05,0.87,0.5,4.0086916666666665,-78.93,-80.49
1733038033017472314,1733038033017291545,12,-0.05,0.87,0.5,4.077483666666667,-79.36,-80.89
1733038033118338703,1733038033118080615,12,-0.05,0.87,0.5,4.140021666666667,-79.28,-80.88
1733038033217608429,1733038033217467546,12,-0.05,0.87,0.5,4.1900520000000006,-79.12,-81.04
1733038033317637264,1733038033317373514,12,-0.05,0.87,0.5,4.246336333333333,-79.17,-81.01
1733038033417162509,1733038033416800022,12,-0.05,0.87,0.5,4.302620666666667,-79.34,-80.9
1733038033517466491,1733038033517238378,12,-0.05,0.87,0.5,4.402681666666667,-79.2,-80.78
1733038033616917021,1733038033616500854,12,-0.05,0.87,0.5,4.465219666666667,-79.12,-80.74
1733038033715618744,1733038033715250730,12,-0.05,0.87,0.5,4.540265333333333,-78.95,-80.52
1733038033815674640,1733038033815199851,12,-0.05,0.87,0.5,4.5902959999999995,-79.22,-80.62
1733038033915574454,1733038033915198802,12,-0.05,0.87,0.5,4.659088,-79.26,-80.9
1733038034015631588,1733038034015213489,12,-0.05,0.87,0.5,4.740387666666667,-79.23,-80.79
1733038034115543307,1733038034115193367,12,-0.05,0.87,0.5,4.821687,-78.93,-80.42
1733038034216746428,1733038034216515302,12,-0.05,0.87,0.5,4.890479,-79.08,-80.8
1733038034315694834,1733038034315184354,12,-0.05,0.87,0.5,4.971778666666666,-80.47,-81.26
1733038034415773958,1733038034415224313,12,-0.05,0.87,0.5,5.040570666666667,-79.32,-80.83
1733038034517805385,1733038034517632961,12,-0.05,0.87,0.5,5.128124000000001,-80.06,-81.99
1733038034617077540,1733038034616758823,12,-0.05,0.87,0.5,5.2094233333333335,-79.83,-81.15
1733038034716897074,1733038034716479301,12,-0.05,0.87,0.5,5.2907226666666665,-80.18,-80.87
1733038034816938026,1733038034816729545,12,-0.05,0.87,0.5,5.390783333333334,-79.58,-80.9
1733038034916760042,1733038034916474342,12,-0.05,0.87,0.5,5.478336666666666,-79.37,-81.07
1733038035016968804,1733038035016719818,12,-0.05,0.87,0.5,5.597159,-79.13,-80.89
1733038035147172581,1733038035146733283,12,-0.05,0.87,0.5,5.684712333333333,-79.28,-81.11
1733038035216876483,1733038035216625213,12,-0.05,0.87,0.5,5.791027,-79.26,-80.59
1733038035316844607,1733038035316477537,12,-0.05,0.87,0.5,5.972387333333333,-79.45,-80.79
1733038035417090652,1733038035416832447,12,-0.05,0.87,0.5,6.072448333333334,-79.32,-80.94
1733038035516998135,1733038035516712903,12,-0.05,0.87,0.5,6.203778333333333,-79.09,-80.76
1733038035617073479,1733038035616591691,12,-0.05,0.87,0.5,6.328854666666667,-79.24,-80.89
1733038035716389309,1733038035716250658,12,-0.05,0.87,0.5,6.453931,-79.47,-81.15
1733038035816670561,1733038035816314220,12,-0.05,0.87,0.5,6.566499666666666,-81.15,-83.28
