%time,field.stamp,field.id,field.x,field.y,field.z,field.distanceFromTag,field.rssi,field.rssi_fp
1733037964617749112,1733037964617370605,3,2.21,0.19,1.79,4.946763333333333,-79.71,-81.04
1733037964717349928,1733037964717112302,3,2.21,0.19,1.79,4.928002,-79.34,-80.47
1733037964817624565,1733037964817449808,3,2.21,0.19,1.79,4.928002,-79.56,-80.47
1733037964917673496,1733037964917395830,3,2.21,0.19,1.79,4.928002,-79.87,-81.08
1733037965017410077,1733037965017271995,3,2.21,0.19,1.79,4.921748,-80.01,-80.53
1733037965117495573,1733037965117305755,3,2.21,0.19,1.79,4.928002,-80.02,-81.0
1733037965217515714,1733037965217380762,3,2.21,0.19,1.79,4.940509333333334,-79.52,-80.88
1733037965318605534,1733037965318360805,3,2.21,0.19,1.79,4.953017,-79.49,-80.48
1733037965417370633,1733037965417174339,3,2.21,0.19,1.79,4.953017,-79.79,-80.89
1733037965517406942,1733037965517164230,3,2.21,0.19,1.79,4.946763333333333,-79.8,-80.67
1733037965617269595,1733037965617091655,3,2.21,0.19,1.79,4.953017,-79.5,-80.74
1733037965717258658,1733037965717180490,3,2.21,0.19,1.79,4.959270666666666,-79.83,-81.04
1733037965817399902,1733037965817166566,3,2.21,0.19,1.79,4.971778333333333,-79.68,-80.57
1733037965917363774,1733037965917123794,3,2.21,0.19,1.79,4.959271,-79.28,-80.59
1733037966017359167,1733037966017147302,3,2.21,0.19,1.79,4.953017333333334,-79.5,-80.5
1733037966215485362,1733037966215226173,3,2.21,0.19,1.79,4.934256,-79.92,-80.72
1733037966315580031,1733037966315221786,3,2.21,0.19,1.79,4.934256,-79.65,-80.73
1733037966415571379,1733037966415259599,3,2.21,0.19,1.79,4.934256,-79.31,-80.52
1733037966515568857,1733037966515216112,3,2.21,0.19,1.79,4.934256,-79.52,-80.44
1733037966615520129,1733037966615219354,3,2.21,0.19,1.79,4.934256,-79.58,-80.61
1733037966715579560,1733037966715226650,3,2.21,0.19,1.79,4.934256,-79.3,-80.42
1733037966817380335,1733037966817277193,3,2.21,0.19,1.79,4.934256,-79.29,-80.49
1733037967615562869,1733037967615259408,3,2.21,0.19,1.79,4.934255666666666,-79.36,-80.59
1733037967715632221,1733037967715239286,3,2.21,0.19,1.79,4.946763333333333,-79.25,-80.41
1733037967915531431,1733037967915225267,3,2.21,0.19,1.79,4.953017,-79.64,-80.47
1733037968317731422,1733037968317654132,3,2.21,0.19,1.79,4.934255666666666,-80.01,-80.94
1733037968417250737,1733037968417099475,3,2.21,0.19,1.79,4.934255666666666,-79.75,-80.79
1733037968518618497,1733037968518400430,3,2.21,0.19,1.79,4.921748,-79.63,-80.59
1733037968616572800,1733037968616331338,3,2.21,0.19,1.79,4.928001666666667,-79.62,-80.61
1733037968716571177,1733037968716396093,3,2.21,0.19,1.79,4.915494,-79.52,-80.49
1733037968816639690,1733037968816406965,3,2.21,0.19,1.79,4.940509333333334,-79.86,-80.48
1733037968915864351,1733037968915292263,3,2.21,0.19,1.79,4.940509333333334,-79.53,-80.43
1733037969015642085,1733037969015255689,3,2.21,0.19,1.79,4.946763333333333,-79.64,-80.69
1733037969115580609,1733037969115187644,3,2.21,0.19,1.79,4.940509666666667,-79.81,-80.84
1733037969215681446,1733037969215238094,3,2.21,0.19,1.79,4.921748333333333,-79.52,-80.57
1733037969315649525,1733037969315216779,3,2.21,0.19,1.79,4.909240666666666,-79.39,-80.39
1733037969415362686,1733037969415199041,3,2.21,0.19,1.79,4.896733,-79.38,-80.45
1733037969515607833,1733037969515215635,3,2.21,0.19,1.79,4.909240666666666,-79.56,-80.63
1733037969615580552,1733037969615184545,3,2.21,0.19,1.79,4.921748333333333,-79.24,-80.35
1733037969718574410,1733037969718255519,3,2.21,0.19,1.79,4.934256,-80.4,-80.64
1733037969818139788,1733037969817993879,3,2.21,0.19,1.79,4.915494333333334,-79.53,-80.44
1733037969918571945,1733037969918360233,3,2.21,0.19,1.79,4.909240333333333,-79.62,-80.61
1733037970017562296,1733037970017393589,3,2.21,0.19,1.79,4.909240333333333,-79.39,-80.53
1733037970117714076,1733037970117598533,3,2.21,0.19,1.79,4.921748,-79.49,-80.53
1733037970217850723,1733037970217711687,3,2.21,0.19,1.79,4.928002,-79.45,-80.45
1733037970317889411,1733037970317615985,3,2.21,0.19,1.79,4.928002,-79.65,-80.64
1733037970418032535,1733037970417829036,3,2.21,0.19,1.79,4.928002,-79.76,-80.71
1733037970517812510,1733037970517610788,3,2.21,0.19,1.79,4.928002,-79.61,-80.36
1733037970617864727,1733037970617508888,3,2.21,0.19,1.79,4.928002,-79.81,-80.72
1733037970717355037,1733037970717181682,3,2.21,0.19,1.79,4.928002,-79.57,-80.63
1733037970818228482,1733037970818051338,3,2.21,0.19,1.79,4.928002,-79.81,-80.79
1733037970917575656,1733037970917434930,3,2.21,0.19,1.79,4.915494333333334,-79.68,-80.43
1733037971018516718,1733037971018292665,3,2.21,0.19,1.79,4.915494333333334,-80.05,-81.07
1733037971118565987,1733037971118430614,3,2.21,0.19,1.79,4.909240333333333,-79.46,-80.5
1733037971215659224,1733037971215202808,3,2.21,0.19,1.79,4.934255333333333,-79.74,-80.39
1733037971316036860,1733037971315194606,3,2.21,0.19,1.79,4.946763,-79.7,-80.61
1733037971415600751,1733037971415214538,3,2.21,0.19,1.79,4.959270666666666,-79.38,-80.47
1733037971515590400,1733037971515192031,3,2.21,0.19,1.79,4.946763333333333,-79.41,-80.43
1733037971615509778,1733037971615203142,3,2.21,0.19,1.79,4.928002,-79.65,-80.84
1733037971716258144,1733037971715204238,3,2.21,0.19,1.79,4.902986666666667,-79.67,-80.75
1733037971815579683,1733037971815226078,3,2.21,0.19,1.79,4.896732666666666,-79.69,-80.65
1733037971918921151,1733037971918683290,3,2.21,0.19,1.79,4.915494,-79.46,-80.47
1733037972049097979,1733037972048882484,3,2.21,0.19,1.79,4.928001666666667,-79.6,-80.57
1733037972118150983,1733037972117932081,3,2.21,0.19,1.79,4.928001666666667,-79.31,-80.38
1733037972218025893,1733037972217873573,3,2.21,0.19,1.79,4.915494,-79.33,-80.38
1733037972318144735,1733037972317951679,3,2.21,0.19,1.79,4.921748,-79.55,-80.73
1733037972715655072,1733037972715218067,3,2.21,0.19,1.79,4.934255666666666,-79.92,-81.22
1733037972815509101,1733037972815218448,3,2.21,0.19,1.79,4.915494,-79.48,-80.64
1733037972915515310,1733037972915227413,3,2.21,0.19,1.79,4.902986333333334,-79.25,-80.97
1733037973015585814,1733037973015215873,3,2.21,0.19,1.79,4.909240333333333,-80.12,-80.93
1733037973416435413,1733037973416348934,3,2.21,0.19,1.79,4.865463666666667,-79.18,-80.75
1733037973517287763,1733037973516395568,3,2.21,0.19,1.79,4.834194666666666,-79.37,-81.37
1733037973616909442,1733037973616295099,3,2.21,0.19,1.79,4.809179333333333,-79.29,-80.5
1733037973716720665,1733037973716416835,3,2.21,0.19,1.79,4.809179333333333,-79.46,-82.27
1733037973816952657,1733037973816582918,3,2.21,0.19,1.79,4.802925666666667,-79.81,-81.24
1733037973916591382,1733037973916324138,3,2.21,0.19,1.79,4.809179666666666,-79.47,-82.22
1733037974016997298,1733037974016705513,3,2.21,0.19,1.79,4.771656666666667,-79.14,-80.98
1733037974116531162,1733037974116243124,3,2.21,0.19,1.79,4.740387666666667,-78.83,-81.29
1733037974216678983,1733037974216585159,3,2.21,0.19,1.79,4.715372333333334,-78.91,-81.23
1733037974316495997,1733037974316328048,3,2.21,0.19,1.79,4.696611,-78.59,-80.8
1733037974416846551,1733037974416676759,3,2.21,0.19,1.79,4.702864666666667,-78.76,-80.66
1733037974516842983,1733037974516617298,3,2.21,0.19,1.79,4.671595666666666,-79.49,-81.0
1733037974616678651,1733037974616470336,3,2.21,0.19,1.79,4.652834333333334,-79.14,-80.48
1733037974715547502,1733037974715232849,3,2.21,0.19,1.79,4.621565333333333,-79.42,-80.47
1733037974815610421,1733037974815187454,3,2.21,0.19,1.79,4.590296333333334,-79.77,-80.72
1733037974915453453,1733037974915195941,3,2.21,0.19,1.79,4.559027333333333,-79.58,-80.44
1733037975015532044,1733037975015213727,3,2.21,0.19,1.79,4.540266,-79.63,-80.87
1733037975115568927,1733037975115204095,3,2.21,0.19,1.79,4.521504333333334,-79.48,-80.86
1733037975215737601,1733037975215209722,3,2.21,0.19,1.79,4.508996666666666,-79.45,-81.04
1733037975315559543,1733037975315189838,3,2.21,0.19,1.79,4.502742666666666,-79.62,-80.65
1733037975415596783,1733037975415212869,3,2.21,0.19,1.79,4.508996666666666,-79.65,-80.91
1733037975515457618,1733037975515201807,3,2.21,0.19,1.79,4.521504333333333,-79.36,-81.24
1733037975715577639,1733037975715183734,3,2.21,0.19,1.79,4.515250666666667,-79.24,-80.72
1733037975815722003,1733037975815201520,3,2.21,0.19,1.79,4.521504333333334,-79.73,-80.96
1733037975915508284,1733037975915191888,3,2.21,0.19,1.79,4.515250333333333,-79.34,-80.59
1733037976015694182,1733037976015231847,3,2.21,0.19,1.79,4.496488666666667,-79.7,-80.8
1733037976115546358,1733037976115190982,3,2.21,0.19,1.79,4.490234999999999,-79.57,-80.64
1733037976216717127,1733037976216376304,3,2.21,0.19,1.79,4.477727333333333,-79.47,-80.87
1733037976617311658,1733037976616995334,3,2.21,0.19,1.79,4.5277579999999995,-79.99,-80.88
1733037976715399172,1733037976715200424,3,2.21,0.19,1.79,4.5277579999999995,-79.9,-80.92
1733037976815579147,1733037976815216302,3,2.21,0.19,1.79,4.534011666666667,-79.84,-80.7
1733037976915706782,1733037976915191888,3,2.21,0.19,1.79,4.5277579999999995,-80.1,-80.78
1733037977015526964,1733037977015196323,3,2.21,0.19,1.79,4.565281,-79.78,-80.66
1733037977115645331,1733037977115198612,3,2.21,0.19,1.79,4.627819,-79.84,-80.89
1733037977215614595,1733037977215205192,3,2.21,0.19,1.79,4.690357,-79.6,-80.69
1733037977315636093,1733037977315200567,3,2.21,0.19,1.79,4.7403873333333335,-79.66,-81.46
1733037977415501595,1733037977415204763,3,2.21,0.19,1.79,4.771656666666666,-79.44,-81.66
1733037977515523805,1733037977515184879,3,2.21,0.19,1.79,4.821687,-79.28,-81.65
1733037977616792785,1733037977616553544,3,2.21,0.19,1.79,4.852956,-79.77,-80.95
1733037978016691318,1733037978016430139,3,2.21,0.19,1.79,5.04057,-79.0,-80.96
1733037978115558405,1733037978115221261,3,2.21,0.19,1.79,5.109362,-79.23,-80.51
1733037978215749624,1733037978215191364,3,2.21,0.19,1.79,5.1719,-79.05,-80.84
1733037978315845355,1733037978315218448,3,2.21,0.19,1.79,5.209423,-79.25,-80.45
1733037978415570664,1733037978415199518,3,2.21,0.19,1.79,5.271961,-79.76,-81.12
1733037978517254392,1733037978517103910,3,2.21,0.19,1.79,5.334499,-79.26,-80.95
1733037978718957238,1733037978718680381,3,2.21,0.19,1.79,5.465828999999999,-79.13,-80.84
1733037978818250321,1733037978818182229,3,2.21,0.19,1.79,5.572143666666666,-79.06,-80.55
1733037978949315497,1733037978949044704,3,2.21,0.19,1.79,5.684712333333333,-79.13,-81.26
1733037979018001797,1733037979017875671,3,2.21,0.19,1.79,5.747250333333334,-78.97,-80.6
1733037979118577182,1733037979118439197,3,2.21,0.19,1.79,5.822296333333333,-79.01,-80.57
1733037979219508964,1733037979219348430,3,2.21,0.19,1.79,5.916103666666667,-78.79,-80.71
1733037979316774554,1733037979316441297,3,2.21,0.19,1.79,6.028672333333333,-78.82,-81.13
1733037979416644953,1733037979416335105,3,2.21,0.19,1.79,6.1287329999999995,-79.31,-80.64
1733037979516801297,1733037979516579389,3,2.21,0.19,1.79,6.203778666666667,-79.02,-80.87
1733037979616715900,1733037979616487741,3,2.21,0.19,1.79,6.291332,-79.09,-80.51
1733037979717081922,1733037979716675043,3,2.21,0.19,1.79,6.385139333333334,-79.64,-80.82
1733037979816707289,1733037979816324234,3,2.21,0.19,1.79,6.466438666666666,-79.28,-80.56
1733037979916728150,1733037979916458606,3,2.21,0.19,1.79,6.553992,-78.89,-81.02
1733037980016826961,1733037980016535997,3,2.21,0.19,1.79,6.654053,-79.05,-80.9
1733037980118365245,1733037980118081092,3,2.21,0.19,1.79,6.7666216666666665,-79.6,-81.17
1733037980218659646,1733037980218381166,3,2.21,0.19,1.79,6.872936333333333,-80.25,-80.9
1733037980318306622,1733037980318166017,3,2.21,0.19,1.79,6.9479820000000005,-79.27,-81.21
1733037980418726658,1733037980418588399,3,2.21,0.19,1.79,7.066804333333333,-79.16,-80.58
1733037980518037963,1733037980517737150,3,2.21,0.19,1.79,7.160611666666667,-79.4,-80.81
1733037980618054901,1733037980617841720,3,2.21,0.19,1.79,7.2856879999999995,-78.96,-80.76
1733037980717349698,1733037980717142343,3,2.21,0.19,1.79,7.3794949999999995,-79.03,-80.86
1733037980817763992,1733037980817569732,3,2.21,0.19,1.79,7.498317,-79.23,-81.57
1733037980917701973,1733037980917370796,3,2.21,0.19,1.79,7.610885333333333,-80.37,-83.4
1733037981017367315,1733037981017181634,3,2.21,0.19,1.79,7.729708,-79.26,-81.6
1733037981117502348,1733037981117269754,3,2.21,0.19,1.79,7.848530666666666,-79.5,-81.2
1733037981217639508,1733037981217478752,3,2.21,0.19,1.79,7.961099666666667,-79.4,-80.66
1733037981317396540,1733037981317142009,3,2.21,0.19,1.79,8.054907,-79.4,-80.59
1733037981417459395,1733037981417245388,3,2.21,0.19,1.79,8.167475666666666,-80.23,-81.03
1733037981517891019,1733037981517726182,3,2.21,0.19,1.79,8.273790333333332,-79.43,-80.83
1733037981618180105,1733037981617976665,3,2.21,0.19,1.79,8.40512,-79.05,-80.92
1733037981718348945,1733037981718105554,3,2.21,0.19,1.79,8.511434666666666,-79.78,-82.51
1733037981818832063,1733037981818716526,3,2.21,0.19,1.79,8.624003,-79.7,-81.76
1733037981918216834,1733037981918004035,3,2.21,0.19,1.79,8.724064333333333,-79.44,-80.99
1733037982018534727,1733037982018377780,3,2.21,0.19,1.79,8.842886666666667,-79.25,-80.96
1733037982117267708,1733037982117071628,3,2.21,0.19,1.79,8.955455333333333,-79.48,-80.71
1733037982217331343,1733037982217135190,3,2.21,0.19,1.79,9.074277666666665,-79.55,-80.81
1733037982317493159,1733037982317251682,3,2.21,0.19,1.79,9.168085,-79.29,-80.52
1733037982417563959,1733037982417364597,3,2.21,0.19,1.79,9.274399666666666,-79.5,-80.38
1733037982517337869,1733037982517039537,3,2.21,0.19,1.79,9.405729333333333,-79.5,-80.75
1733037982617590504,1733037982617099523,3,2.21,0.19,1.79,9.568328333333334,-81.55,-81.78
1733037982718009272,1733037982717835187,3,2.21,0.19,1.79,9.687150666666666,-79.6,-81.12
1733037983516921118,1733037983516421556,3,2.21,0.19,1.79,10.612714333333333,-79.93,-80.86
1733037983616979622,1733037983616635084,3,2.21,0.19,1.79,10.719028999999999,-80.13,-81.01
1733037983718688658,1733037983718400001,3,2.21,0.19,1.79,10.831597666666667,-79.81,-80.72
1733037983818216633,1733037983818001508,3,2.21,0.19,1.79,10.969181333333333,-79.88,-81.19
1733037983918119493,1733037983917673587,3,2.21,0.19,1.79,11.069242666666668,-79.85,-81.0
1733037984018100392,1733037984017959356,3,2.21,0.19,1.79,11.194319,-81.74,-81.92
1733037984118494827,1733037984118245840,3,2.21,0.19,1.79,11.313141666666667,-80.32,-81.82
1733037984217970121,1733037984217769145,3,2.21,0.19,1.79,11.456978999999999,-80.65,-83.95
1733037984318084819,1733037984317894220,3,2.21,0.19,1.79,11.557039666666668,-81.07,-82.91
1733037984417701062,1733037984417440176,3,2.21,0.19,1.79,11.663354333333336,-80.6,-81.5
1733037984517553963,1733037984517374992,3,2.21,0.19,1.79,11.794684333333334,-80.3,-81.08
1733037984617516112,1733037984617361068,3,2.21,0.19,1.79,11.938522,-80.14,-80.98
1733037984717383910,1733037984717174053,3,2.21,0.19,1.79,12.076106000000001,-80.71,-81.04
1733037984817561059,1733037984817261934,3,2.21,0.19,1.79,12.201182333333334,-80.4,-81.06
1733037984917699899,1733037984917434930,3,2.21,0.19,1.79,12.34502,-80.39,-80.9
1733037985017163334,1733037985017083406,3,2.21,0.19,1.79,12.463842333333332,-80.42,-81.1
1733037985117718377,1733037985117367506,3,2.21,0.19,1.79,12.582664666666666,-79.88,-80.99
1733037985217549288,1733037985217312574,3,2.21,0.19,1.79,12.695233333333334,-80.73,-80.9
1733037985317597791,1733037985317430496,3,2.21,0.19,1.79,12.826563,-80.74,-81.15
1733037985417487178,1733037985417188644,3,2.21,0.19,1.79,12.945385333333334,-80.62,-81.02
1733037985518236199,1733037985517888545,3,2.21,0.19,1.79,13.076715333333334,-81.28,-81.56
1733037985617512396,1733037985617339372,3,2.21,0.19,1.79,13.220553,-81.09,-81.5
1733037985717709068,1733037985717463016,3,2.21,0.19,1.79,13.351883,-80.67,-81.39
1733037985817675691,1733037985817413568,3,2.21,0.19,1.79,13.464451666666667,-81.6,-82.17
1733037985917370156,1733037985917238235,3,2.21,0.19,1.79,13.577020333333332,-81.46,-81.95
1733037986017521087,1733037986017271995,3,2.21,0.19,1.79,13.695842666666666,-82.14,-84.35
1733037986118529664,1733037986118243217,3,2.21,0.19,1.79,13.827172333333332,-81.49,-82.67
1733037986217207429,1733037986217015027,3,2.21,0.19,1.79,13.952248666666668,-81.54,-82.59
1733037986317603970,1733037986317333221,3,2.21,0.19,1.79,14.077325000000002,-81.33,-81.86
1733037986417138952,1733037986417044401,3,2.21,0.19,1.79,14.202401333333334,-81.45,-82.13
1733037986517507167,1733037986517058849,3,2.21,0.19,1.79,14.333731,-80.64,-81.41
1733037986617321935,1733037986617107152,3,2.21,0.19,1.79,14.477568666666665,-80.71,-81.08
1733037986717324178,1733037986717188596,3,2.21,0.19,1.79,14.621406333333333,-80.48,-80.91
1733037986817323669,1733037986817162036,3,2.21,0.19,1.79,14.740229,-80.57,-80.96
1733037986917861914,1733037986917604446,3,2.21,0.19,1.79,14.859051,-80.49,-80.88
1733037987017717069,1733037987017503976,3,2.21,0.19,1.79,14.971619666666667,-80.38,-80.86
1733037987118090287,1733037987117824077,3,2.21,0.19,1.79,15.096695666666667,-80.56,-80.95
1733037987217535861,1733037987217396497,3,2.21,0.19,1.79,15.221772,-80.73,-81.11
1733037987317844158,1733037987317617177,3,2.21,0.19,1.79,15.359355666666666,-81.26,-81.44
1733037987417419645,1733037987417243719,3,2.21,0.19,1.79,15.484431666666666,-80.79,-81.06
1733037987517516472,1733037987517288684,3,2.21,0.19,1.79,15.615761999999998,-80.13,-81.04
1733037987617247314,1733037987617022991,3,2.21,0.19,1.79,15.722076666666666,-80.3,-80.59
1733037987717314283,1733037987717056035,3,2.21,0.19,1.79,15.847153,-80.93,-80.88
1733037987915628114,1733037987915213346,3,2.21,0.19,1.79,15.99098966666667,-81.58,-81.76
1733037988015718783,1733037988015212535,3,2.21,0.19,1.79,16.166096,-80.92,-80.89
1733037988115695928,1733037988115267038,3,2.21,0.19,1.79,16.34120233333333,-81.08,-81.14
1733037988215819169,1733037988215283393,3,2.21,0.19,1.79,16.491294333333332,-81.26,-81.33
1733037988417402217,1733037988417272567,3,2.21,0.19,1.79,16.666400999999997,-81.91,-83.9
1733037988617623045,1733037988617536544,3,2.21,0.19,1.79,16.860269,-83.01,-84.54
1733037989218011409,1733037989217769622,3,2.21,0.19,1.79,17.616979666666666,-83.37,-84.95
1733037989717791203,1733037989717482328,3,2.21,0.19,1.79,18.40496033333333,-81.63,-81.57
1733037989818122398,1733037989817956209,3,2.21,0.19,1.79,18.548798,-81.45,-81.26
1733037989916672715,1733037989916436433,3,2.21,0.19,1.79,18.673874333333334,-83.05,-82.69
1733037990016559269,1733037990016348361,3,2.21,0.19,1.79,18.79895,-81.17,-81.74
1733037990117866784,1733037990117596626,3,2.21,0.19,1.79,18.911518333333337,-81.16,-81.51
1733037990216645053,1733037990216382503,3,2.21,0.19,1.79,19.030341000000004,-81.16,-81.41
1733037990316649038,1733037990316425323,3,2.21,0.19,1.79,19.155417000000003,-80.81,-81.35
1733037990416691292,1733037990416433811,3,2.21,0.19,1.79,19.286747000000002,-80.86,-80.87
1733037990516580185,1733037990516322851,3,2.21,0.19,1.79,19.418076666666668,-81.09,-81.43
1733037990617179055,1733037990616822719,3,2.21,0.19,1.79,19.549406666666666,-80.86,-81.15
1733037990716807266,1733037990716572761,3,2.21,0.19,1.79,19.680736666666665,-81.41,-81.38
1733037990816744191,1733037990816413640,3,2.21,0.19,1.79,19.799559,-80.91,-81.48
1733037990916686396,1733037990916458129,3,2.21,0.19,1.79,19.930889666666666,-81.36,-81.41
1733037991016518544,1733037991016341924,3,2.21,0.19,1.79,20.05596566666667,-80.71,-81.29
1733037991116617822,1733037991116506814,3,2.21,0.19,1.79,20.212311,-80.71,-81.11
1733037991216731525,1733037991216396570,3,2.21,0.19,1.79,20.349894333333335,-81.16,-81.61
1733037991316704296,1733037991316606521,3,2.21,0.19,1.79,20.474970666666664,-81.43,-81.37
1733037991416832519,1733037991416499376,3,2.21,0.19,1.79,20.59379266666667,-81.78,-81.92
1733037991515540355,1733037991515208244,3,2.21,0.19,1.79,20.712615333333332,-81.11,-81.38
1733037991615707387,1733037991615246295,3,2.21,0.19,1.79,20.850199,-81.21,-81.7
1733037991715559595,1733037991715255737,3,2.21,0.19,1.79,20.981529666666667,-81.09,-81.13
1733037991815635954,1733037991815224647,3,2.21,0.19,1.79,21.119113000000002,-81.43,-81.43
1733037991915406552,1733037991915203571,3,2.21,0.19,1.79,21.250443333333333,-82.03,-81.9
1733037992015617089,1733037992015225648,3,2.21,0.19,1.79,21.363011666666665,-82.21,-82.42
1733037992119365775,1733037992119139432,3,2.21,0.19,1.79,21.481834333333335,-82.61,-84.54
1733037992218039709,1733037992217893600,3,2.21,0.19,1.79,21.606910666666668,-82.9,-83.25
1733037992318432222,1733037992318171739,3,2.21,0.19,1.79,21.744494333333336,-84.19,-84.87
1733037992417417247,1733037992417240858,3,2.21,0.19,1.79,21.888332000000002,-82.76,-82.86
1733037992517602265,1733037992517385005,3,2.21,0.19,1.79,21.98839266666667,-82.73,-83.12
1733037992618018121,1733037992617880821,3,2.21,0.19,1.79,22.113468666666666,-83.25,-83.41
1733037992717383919,1733037992717285871,3,2.21,0.19,1.79,22.226037333333334,-82.46,-84.61
1733037992817906944,1733037992817653179,3,2.21,0.19,1.79,22.37612866666667,-83.57,-83.82
1733037992917628322,1733037992917405605,3,2.21,0.19,1.79,22.501205,-83.19,-83.08
1733037993017641500,1733037993017342090,3,2.21,0.19,1.79,22.620026999999997,-82.68,-83.48
1733037993117249209,1733037993117075443,3,2.21,0.19,1.79,22.757610999999997,-83.37,-83.6
1733037993217657324,1733037993217499971,3,2.21,0.19,1.79,22.882687333333333,-87.05,-88.05
1733037993317654433,1733037993317419290,3,2.21,0.19,1.79,23.01401733333333,-85.33,-86.39
1733037993418057059,1733037993417764186,3,2.21,0.19,1.79,23.12033166666667,-85.55,-88.01
1733037993517834997,1733037993517552614,3,2.21,0.19,1.79,23.232900333333333,-84.36,-86.65
1733037993617861226,1733037993617574691,3,2.21,0.19,1.79,23.357976666666662,-84.72,-88.79
1733037993717750483,1733037993717425346,3,2.21,0.19,1.79,23.50806833333333,-85.48,-89.68
1733037993817685946,1733037993817545413,3,2.21,0.19,1.79,23.664413666666665,-86.09,-86.24
1733037993948321953,1733037993948117494,3,2.21,0.19,1.79,23.795743333333334,-88.17,-89.0
1733037994115628139,1733037994115201711,3,2.21,0.19,1.79,23.95834233333333,-86.51,-87.34
1733037994215718552,1733037994215214729,3,2.21,0.19,1.79,24.114687,-86.81,-87.58
1733037994315526535,1733037994315195560,3,2.21,0.19,1.79,24.296048,-85.17,-87.46
1733037994415773629,1733037994415254354,3,2.21,0.19,1.79,24.433632000000003,-85.59,-88.7
1733037994516587782,1733037994516397476,3,2.21,0.19,1.79,24.596231000000003,-87.37,-88.77
1733037995117230410,1733037995117057323,3,2.21,0.19,1.79,25.346688,-83.02,-82.65
1733037995916868450,1733037995916577577,3,2.21,0.19,1.79,26.466119666666668,-81.98,-82.33
1733037996016487501,1733037996016298770,3,2.21,0.19,1.79,26.541164999999996,-81.93,-81.66
1733037996118599007,1733037996118405580,3,2.21,0.19,1.79,26.634972333333334,-81.61,-81.51
1733037996215603838,1733037996215202093,3,2.21,0.19,1.79,26.722526000000002,-82.24,-82.33
1733037996316683512,1733037996316465139,3,2.21,0.19,1.79,26.810079666666667,-82.33,-82.25
1733037996416441111,1733037996416280269,3,2.21,0.19,1.79,26.885125666666667,-82.12,-83.2
1733037996516646562,1733037996516345739,3,2.21,0.19,1.79,26.947664,-81.68,-81.66
1733037996616931594,1733037996616643905,3,2.21,0.19,1.79,26.99144,-81.75,-81.96
1733037996716682800,1733037996716410398,3,2.21,0.19,1.79,27.016454666666665,-81.86,-81.92
1733037996816599388,1733037996816336393,3,2.21,0.19,1.79,27.053977333333336,-82.31,-82.19
1733037996916746545,1733037996916463613,3,2.21,0.19,1.79,27.085246333333334,-83.84,-85.61
1733037997016718669,1733037997016396760,3,2.21,0.19,1.79,27.10400766666667,-84.7,-85.59
1733037997116759942,1733037997116514444,3,2.21,0.19,1.79,27.122769,-83.76,-85.45
1733037997216561565,1733037997216321229,3,2.21,0.19,1.79,27.135277000000002,-83.77,-85.46
1733037997316576742,1733037997316376924,3,2.21,0.19,1.79,27.141531333333333,-84.55,-86.92
1733037997417180780,1733037997416846275,3,2.21,0.19,1.79,27.116516333333333,-85.13,-86.71
1733037997516860486,1733037997516527652,3,2.21,0.19,1.79,27.110262666666667,-87.18,-87.87
1733037997616939809,1733037997616547107,3,2.21,0.19,1.79,27.116516333333333,-84.62,-84.36
1733037997716703654,1733037997716439723,3,2.21,0.19,1.79,27.122770000000003,-84.76,-85.74
1733037997916603265,1733037997916290998,3,2.21,0.19,1.79,27.129023666666665,-84.45,-85.5
1733037998016635778,1733037998016398668,3,2.21,0.19,1.79,27.110262333333335,-84.78,-84.66
1733037998116491596,1733037998116225719,3,2.21,0.19,1.79,27.10400866666667,-85.17,-84.94
1733037998216508236,1733037998216330289,3,2.21,0.19,1.79,27.097755000000003,-84.64,-84.31
1733037998317126428,1733037998316691875,3,2.21,0.19,1.79,27.110262666666667,-84.59,-84.27
1733037998416825566,1733037998416494369,3,2.21,0.19,1.79,27.129024,-84.68,-87.02
1733037998516729668,1733037998516485929,3,2.21,0.19,1.79,27.129024,-84.76,-85.37
1733037998616689146,1733037998616456985,3,2.21,0.19,1.79,27.116516333333333,-85.6,-85.55
1733037998716779397,1733037998716382741,3,2.21,0.19,1.79,27.116516333333333,-84.37,-83.92
1733037998817039051,1733037998816627979,3,2.21,0.19,1.79,27.10400866666667,-87.96,-87.68
1733037998947438070,1733037998947045803,3,2.21,0.19,1.79,27.110262000000002,-84.56,-84.31
1733037999016493089,1733037999016365766,3,2.21,0.19,1.79,27.10400766666667,-84.6,-85.25
1733037999116608949,1733037999116440296,3,2.21,0.19,1.79,27.097754,-84.87,-85.4
1733037999216623357,1733037999216438293,3,2.21,0.19,1.79,27.078992666666668,-86.24,-86.62
1733037999315525359,1733037999315187454,3,2.21,0.19,1.79,27.047723666666666,-85.16,-85.59
1733037999415750172,1733037999415200233,3,2.21,0.19,1.79,27.053977333333336,-85.24,-87.98
1733037999515555770,1733037999515223503,3,2.21,0.19,1.79,27.066485333333333,-84.05,-85.39
1733037999615447379,1733037999615198373,3,2.21,0.19,1.79,27.072739666666667,-83.8,-84.58
1733037999715643937,1733037999715217590,3,2.21,0.19,1.79,27.035217,-84.04,-85.88
1733037999815680511,1733037999815243959,3,2.21,0.19,1.79,26.985186666666667,-83.89,-86.03
1733037999915574267,1733037999915254116,3,2.21,0.19,1.79,26.95391766666667,-83.96,-85.26
1733038000015748178,1733038000015243053,3,2.21,0.19,1.79,26.947663333333335,-83.93,-84.44
1733038000317402465,1733038000317203998,3,2.21,0.19,1.79,26.910140666666667,-84.17,-84.02
1733038000417699532,1733038000417460680,3,2.21,0.19,1.79,26.84760233333333,-83.7,-83.88
1733038000517659368,1733038000517387628,3,2.21,0.19,1.79,26.76004933333333,-83.09,-83.97
1733038000618232937,1733038000617898225,3,2.21,0.19,1.79,26.691256999999997,-83.94,-85.05
1733038000917607854,1733038000917434215,3,2.21,0.19,1.79,26.584941999999998,-83.38,-84.31
1733038001116588553,1733038001116348743,3,2.21,0.19,1.79,26.478627,-83.41,-84.06
1733038001316728322,1733038001316474914,3,2.21,0.19,1.79,26.353550666666667,-83.61,-84.25
1733038001417928066,1733038001417737960,3,2.21,0.19,1.79,26.259743666666665,-84.69,-85.65
1733038001517903766,1733038001517639636,3,2.21,0.19,1.79,26.184698,-83.47,-84.94
1733038001917466738,1733038001917318344,3,2.21,0.19,1.79,25.95330733333333,-84.17,-85.94
1733038002017788764,1733038002017577409,3,2.21,0.19,1.79,25.872007999999997,-84.63,-85.91
1733038002117961858,1733038002117898702,3,2.21,0.19,1.79,25.759439,-86.78,-88.49
1733038002215979963,1733038002215355634,3,2.21,0.19,1.79,25.640617000000002,-85.72,-87.44
1733038002417514099,1733038002417278766,3,2.21,0.19,1.79,25.496779333333336,-85.62,-88.81
1733038002618249951,1733038002618098020,3,2.21,0.19,1.79,25.359195666666665,-86.7,-89.28
1733038003016694069,1733038003016438007,3,2.21,0.19,1.79,24.858890666666667,-87.27,-91.92
1733038003118129429,1733038003117918968,3,2.21,0.19,1.79,24.746322000000003,-87.37,-93.03
1733038003215470553,1733038003215202331,3,2.21,0.19,1.79,24.652514999999998,-88.46,-94.06
1733038003315648116,1733038003315197467,3,2.21,0.19,1.79,24.558707666666667,-88.25,-93.82
1733038003416997447,1733038003416606903,3,2.21,0.19,1.79,24.483661666666666,-88.46,-95.73
1733038003517173446,1733038003516994953,3,2.21,0.19,1.79,24.377347333333333,-87.65,-94.6
1733038003617613272,1733038003616671562,3,2.21,0.19,1.79,24.27728666666667,-87.05,-93.5
1733038003717460182,1733038003717057228,3,2.21,0.19,1.79,24.170972333333335,-86.67,-92.77
1733038003816836849,1733038003816514730,3,2.21,0.19,1.79,24.070910666666666,-87.02,-92.84
1733038003917367568,1733038003917107820,3,2.21,0.19,1.79,23.989611333333333,-86.58,-90.32
1733038004016981875,1733038004016632795,3,2.21,0.19,1.79,23.914565666666665,-86.4,-88.71
1733038004117221992,1733038004116943597,3,2.21,0.19,1.79,23.83952066666667,-86.2,-88.17
1733038004216668390,1733038004216321468,3,2.21,0.19,1.79,23.770729,-85.96,-87.28
1733038004316806233,1733038004316496849,3,2.21,0.19,1.79,23.701937,-85.1,-86.27
1733038004416531929,1733038004416354417,3,2.21,0.19,1.79,23.601875333333336,-84.9,-86.35
1733038004516990640,1733038004516661643,3,2.21,0.19,1.79,23.501813666666663,-83.88,-84.1
1733038004616865482,1733038004616544485,3,2.21,0.19,1.79,23.408006666666665,-84.09,-84.03
1733038004717181776,1733038004716508150,3,2.21,0.19,1.79,23.32670733333333,-83.62,-83.44
1733038004816625233,1733038004816504001,3,2.21,0.19,1.79,23.220393,-82.95,-82.83
1733038004917139689,1733038004916376352,3,2.21,0.19,1.79,23.095316666666665,-83.48,-83.71
1733038005016646178,1733038005016534566,3,2.21,0.19,1.79,22.982748,-82.73,-82.47
1733038005146869936,1733038005146619081,3,2.21,0.19,1.79,22.882686666666668,-82.33,-82.05
1733038005216548048,1733038005216301918,3,2.21,0.19,1.79,22.776371666666666,-82.27,-82.02
1733038005316560376,1733038005316286325,3,2.21,0.19,1.79,22.663803333333334,-82.27,-82.59
1733038005416585167,1733038005416321992,3,2.21,0.19,1.79,22.532473666666665,-81.76,-82.92
1733038005516765172,1733038005516517877,3,2.21,0.19,1.79,22.407397333333332,-81.34,-81.74
1733038005616761807,1733038005616656780,3,2.21,0.19,1.79,22.288574999999998,-81.56,-81.64
1733038005717300312,1733038005717139005,3,2.21,0.19,1.79,22.169752666666664,-81.49,-82.45
1733038005818514999,1733038005818228960,3,2.21,0.19,1.79,22.05093066666667,-81.38,-81.62
1733038005917545934,1733038005917346477,3,2.21,0.19,1.79,21.938362333333334,-82.18,-81.62
1733038006018309419,1733038006018111705,3,2.21,0.19,1.79,21.813286,-81.1,-81.77
1733038006117561153,1733038006117294549,3,2.21,0.19,1.79,21.688209666666665,-81.24,-81.45
1733038006217557695,1733038006217243194,3,2.21,0.19,1.79,21.531864333333335,-81.26,-81.25
1733038006317298230,1733038006317132949,3,2.21,0.19,1.79,21.413042333333337,-81.13,-81.19
1733038006418098160,1733038006417909860,3,2.21,0.19,1.79,21.287966,-80.62,-81.38
1733038006517594583,1733038006517409324,3,2.21,0.19,1.79,21.175397333333333,-81.25,-81.15
1733038006618083989,1733038006617918729,3,2.21,0.19,1.79,21.044067000000002,-80.84,-81.37
1733038006717459670,1733038006717286109,3,2.21,0.19,1.79,20.925245,-81.55,-81.38
1733038006817406191,1733038006817229270,3,2.21,0.19,1.79,20.812676333333332,-81.12,-81.21
1733038007017795897,1733038007017545461,3,2.21,0.19,1.79,20.662584999999996,-81.41,-81.35
1733038007516407204,1733038007516129255,3,2.21,0.19,1.79,20.080980666666665,-81.37,-81.57
1733038007618172601,1733038007618034124,3,2.21,0.19,1.79,19.918381666666665,-80.79,-81.39
1733038007715457305,1733038007715201377,3,2.21,0.19,1.79,19.755782,-81.14,-81.9
1733038007815514756,1733038007815222740,3,2.21,0.19,1.79,19.643213333333332,-81.02,-81.35
1733038007915569785,1733038007915204763,3,2.21,0.19,1.79,19.524391333333334,-81.35,-81.82
1733038008015768734,1733038008015217781,3,2.21,0.19,1.79,19.368046666666668,-82.12,-82.42
1733038008117713703,1733038008117442131,3,2.21,0.19,1.79,19.236716666666666,-81.64,-81.96
1733038008218049490,1733038008217509269,3,2.21,0.19,1.79,19.105386666666664,-81.75,-83.6
1733038008317173209,1733038008317042827,3,2.21,0.19,1.79,18.999071666666666,-82.01,-82.75
1733038008815431330,1733038008815238237,3,2.21,0.19,1.79,18.342422000000003,-86.62,-90.74
1733038008917511632,1733038008917261600,3,2.21,0.19,1.79,18.148554,-83.68,-89.19
1733038009018714883,1733038009018173694,3,2.21,0.19,1.79,18.023477666666665,-83.92,-88.44
1733038009118724989,1733038009118478536,3,2.21,0.19,1.79,17.87964,-83.78,-87.54
1733038009218761768,1733038009218454360,3,2.21,0.19,1.79,17.77957933333333,-82.78,-85.3
1733038009317569784,1733038009317319154,3,2.21,0.19,1.79,17.692025666666666,-83.02,-84.57
1733038009418089796,1733038009417914867,3,2.21,0.19,1.79,17.585710666666667,-81.72,-83.02
1733038009518041766,1733038009517828941,3,2.21,0.19,1.79,17.498157666666668,-81.62,-83.32
1733038009617708212,1733038009617544412,3,2.21,0.19,1.79,17.360574333333332,-81.44,-82.17
1733038009717505390,1733038009717417955,3,2.21,0.19,1.79,17.248006,-81.78,-82.46
1733038009817777039,1733038009817502737,3,2.21,0.19,1.79,17.122929666666664,-80.83,-80.95
1733038009917697742,1733038009917492389,3,2.21,0.19,1.79,17.022868999999996,-80.57,-81.08
1733038010017554849,1733038010017479896,3,2.21,0.19,1.79,16.910300333333335,-80.4,-81.09
1733038010148508400,1733038010148342370,3,2.21,0.19,1.79,16.753954999999998,-80.4,-81.23
1733038010217431496,1733038010217226505,3,2.21,0.19,1.79,16.628878666666665,-80.19,-81.06
1733038010317645110,1733038010317433834,3,2.21,0.19,1.79,16.522563666666667,-80.4,-80.78
1733038010417592642,1733038010417398691,3,2.21,0.19,1.79,16.416248666666668,-80.05,-81.25
1733038010518860334,1733038010518464565,3,2.21,0.19,1.79,16.309933666666666,-80.35,-81.21
1733038010617569072,1733038010617449760,3,2.21,0.19,1.79,16.191111666666668,-81.23,-81.64
1733038010717759404,1733038010717587232,3,2.21,0.19,1.79,16.091051,-80.44,-81.05
1733038010817552499,1733038010817374467,3,2.21,0.19,1.79,15.978482666666666,-80.22,-80.95
1733038010917898841,1733038010917552232,3,2.21,0.19,1.79,15.859660666666668,-80.41,-80.92
1733038011018003491,1733038011017736434,3,2.21,0.19,1.79,15.753346,-80.94,-81.41
1733038011117820669,1733038011117574691,3,2.21,0.19,1.79,15.628269666666666,-80.48,-81.43
1733038011217607222,1733038011217347621,3,2.21,0.19,1.79,15.521954666666666,-80.46,-81.05
1733038011317627663,1733038011317520141,3,2.21,0.19,1.79,15.409386333333332,-81.54,-82.79
1733038011417584497,1733038011417295932,3,2.21,0.19,1.79,15.315579333333332,-81.33,-81.83
1733038011518007361,1733038011517849206,3,2.21,0.19,1.79,15.203010666666666,-81.3,-82.23
1733038011617525864,1733038011617398262,3,2.21,0.19,1.79,15.134218666666667,-80.99,-82.38
1733038011717522768,1733038011717270851,3,2.21,0.19,1.79,15.009142666666667,-81.66,-83.95
1733038011817521923,1733038011817334890,3,2.21,0.19,1.79,14.859051333333333,-83.32,-86.19
1733038011917684028,1733038011917593717,3,2.21,0.19,1.79,14.671436666666667,-82.81,-87.5
1733038012017569855,1733038012017334222,3,2.21,0.19,1.79,14.521344999999998,-83.78,-89.65
1733038012117657692,1733038012117480278,3,2.21,0.19,1.79,14.415030333333334,-83.63,-87.58
1733038012217367381,1733038012217212200,3,2.21,0.19,1.79,14.302462,-83.19,-86.1
1733038012317511715,1733038012317286252,3,2.21,0.19,1.79,14.208654666666668,-81.83,-84.1
1733038012516099312,1733038012515219688,3,2.21,0.19,1.79,14.121101000000001,-81.93,-83.91
1733038012615644483,1733038012615201473,3,2.21,0.19,1.79,14.02104,-82.35,-82.98
1733038012715615252,1733038012715218544,3,2.21,0.19,1.79,13.927233333333334,-80.63,-82.01
1733038012815587283,1733038012815211534,3,2.21,0.19,1.79,13.808411,-81.17,-81.83
1733038012915651955,1733038012915230512,3,2.21,0.19,1.79,13.727111666666667,-81.11,-81.44
1733038013015466426,1733038013015197992,3,2.21,0.19,1.79,13.627050333333335,-80.85,-81.05
1733038013118358666,1733038013118057727,3,2.21,0.19,1.79,13.558258666666667,-80.8,-81.66
1733038013217565993,1733038013217315673,3,2.21,0.19,1.79,13.476959333333333,-81.03,-81.51
1733038013317518917,1733038013317268371,3,2.21,0.19,1.79,13.445690333333333,-80.92,-80.91
1733038013417635358,1733038013417275667,3,2.21,0.19,1.79,13.389406000000001,-80.77,-81.44
1733038013517664437,1733038013517561197,3,2.21,0.19,1.79,13.345629,-80.73,-80.99
1733038013617316013,1733038013617157936,3,2.21,0.19,1.79,13.295598666666669,-83.38,-83.31
1733038013816561862,1733038013816386461,3,2.21,0.19,1.79,13.239314666666667,-81.52,-82.0
1733038014218412956,1733038014218164443,3,2.21,0.19,1.79,12.995416,-81.09,-82.3
1733038014318394894,1733038014318250894,3,2.21,0.19,1.79,12.932877666666668,-81.19,-82.0
1733038014418526445,1733038014418242216,3,2.21,0.19,1.79,12.907862,-81.68,-82.55
1733038014617172692,1733038014616714954,3,2.21,0.19,1.79,12.901608666666666,-81.15,-82.12
1733038015416850713,1733038015416561841,3,2.21,0.19,1.79,12.670217666666666,-83.53,-85.58
1733038015516645793,1733038015516474485,3,2.21,0.19,1.79,12.632694666666666,-83.24,-85.73
1733038015617973180,1733038015617728948,3,2.21,0.19,1.79,12.595172,-83.75,-86.09
1733038015715591775,1733038015715218782,3,2.21,0.19,1.79,12.570157,-83.98,-86.58
1733038015816944184,1733038015816745519,3,2.21,0.19,1.79,12.570157,-84.21,-86.33
1733038015916706283,1733038015916336297,3,2.21,0.19,1.79,12.557649333333332,-84.74,-87.87
1733038016016892527,1733038016016505718,3,2.21,0.19,1.79,12.545141666666666,-84.57,-87.4
1733038016116628466,1733038016116403341,3,2.21,0.19,1.79,12.532634333333334,-84.69,-88.29
1733038016215662817,1733038016215233087,3,2.21,0.19,1.79,12.520126666666668,-85.4,-88.03
1733038016315518702,1733038016315228462,3,2.21,0.19,1.79,12.532634333333334,-85.45,-86.64
1733038016415597821,1733038016415226697,3,2.21,0.19,1.79,12.526380333333334,-85.86,-87.08
1733038016515580454,1733038016515229940,3,2.21,0.19,1.79,12.557649333333332,-86.95,-87.61
1733038016615641933,1733038016615228176,3,2.21,0.19,1.79,12.570156666666668,-85.67,-88.86
1733038016715658090,1733038016715213537,3,2.21,0.19,1.79,12.582664333333334,-86.44,-87.48
1733038016815819973,1733038016815228223,3,2.21,0.19,1.79,12.576410666666668,-85.61,-87.06
1733038016915457637,1733038016915192604,3,2.21,0.19,1.79,12.551395666666666,-85.51,-88.45
1733038017015545233,1733038017015211105,3,2.21,0.19,1.79,12.551395666666666,-84.7,-88.86
1733038017115610761,1733038017115192651,3,2.21,0.19,1.79,12.532634333333334,-84.88,-86.73
1733038017215612642,1733038017215226411,3,2.21,0.19,1.79,12.520126333333332,-83.41,-86.14
1733038017318675207,1733038017318552017,3,2.21,0.19,1.79,12.520126333333335,-82.5,-85.19
1733038017418509689,1733038017418388843,3,2.21,0.19,1.79,12.545141333333333,-81.5,-83.21
1733038017518745973,1733038017518479585,3,2.21,0.19,1.79,12.563903000000002,-80.63,-82.96
1733038017617932613,1733038017617737531,3,2.21,0.19,1.79,12.507618666666668,-80.56,-82.74
1733038017717979576,1733038017717793226,3,2.21,0.19,1.79,12.457588333333334,-81.24,-83.01
1733038017818024223,1733038017817792177,3,2.21,0.19,1.79,12.395050333333332,-81.02,-82.32
1733038017918129389,1733038017917896032,3,2.21,0.19,1.79,12.401304000000001,-81.04,-82.53
1733038018018447394,1733038018018340349,3,2.21,0.19,1.79,12.376288666666667,-80.77,-83.15
1733038018118064323,1733038018117806196,3,2.21,0.19,1.79,12.388796,-81.08,-82.91
1733038018217421054,1733038018217296123,3,2.21,0.19,1.79,12.363781000000001,-81.24,-83.44
1733038018317816254,1733038018317501068,3,2.21,0.19,1.79,12.388796333333332,-80.89,-82.4
1733038018417660291,1733038018417381048,3,2.21,0.19,1.79,12.388796333333334,-80.81,-83.58
1733038018517672994,1733038018517509698,3,2.21,0.19,1.79,12.39505,-81.23,-83.72
1733038018617665742,1733038018617575407,3,2.21,0.19,1.79,12.388796,-81.32,-82.79
1733038018717618413,1733038018717317581,3,2.21,0.19,1.79,12.370034666666664,-81.39,-83.34
1733038018817701772,1733038018817409753,3,2.21,0.19,1.79,12.363780999999998,-81.01,-83.29
1733038018917421718,1733038018917262554,3,2.21,0.19,1.79,12.345019666666667,-81.42,-82.99
1733038019017565718,1733038019017369747,3,2.21,0.19,1.79,12.338766,-81.5,-82.7
1733038019117537893,1733038019117282152,3,2.21,0.19,1.79,12.332512,-81.32,-81.79
1733038019217486176,1733038019217284917,3,2.21,0.19,1.79,5.547129000000001,-82.97,-82.83
1733038019317376143,1733038019317192792,3,2.21,0.19,1.79,5.559636666666666,-81.41,-81.44
1733038019417366846,1733038019417168855,3,2.21,0.19,1.79,5.565890666666667,-81.7,-81.69
1733038019517394549,1733038019517238378,3,2.21,0.19,1.79,12.34502,-81.99,-82.83
1733038019617787592,1733038019617482423,3,2.21,0.19,1.79,12.34502,-81.51,-82.89
1733038019717744818,1733038019717489957,3,2.21,0.19,1.79,12.338766,-81.52,-83.43
1733038019817219006,1733038019817070484,3,2.21,0.19,1.79,12.338766,-82.09,-83.53
1733038019919648413,1733038019919352054,3,2.21,0.19,1.79,12.326258333333334,-81.98,-83.76
1733038020146374596,1733038020145926952,3,2.21,0.19,1.79,12.282482,-81.63,-82.53
1733038020216505714,1733038020216226816,3,2.21,0.19,1.79,12.232451666666668,-82.32,-84.0
1733038020316810058,1733038020316611528,3,2.21,0.19,1.79,12.194929,-82.96,-85.02
1733038020417114097,1733038020417012691,3,2.21,0.19,1.79,12.182421,-82.78,-82.65
1733038020516875357,1733038020516664505,3,2.21,0.19,1.79,12.163659333333333,-82.29,-83.37
1733038020717811553,1733038020717580795,3,2.21,0.19,1.79,12.107375,-81.71,-81.68
1733038021316333207,1733038021316158771,3,2.21,0.19,1.79,11.807192,-80.75,-81.14
1733038021416917603,1733038021416679143,3,2.21,0.19,1.79,11.732146666666667,-81.04,-81.11
1733038021515489888,1733038021515213251,3,2.21,0.19,1.79,11.650847333333333,-80.37,-80.72
1733038021615499627,1733038021615213871,3,2.21,0.19,1.79,11.563294,-80.39,-81.01
1733038021715700693,1733038021715218544,3,2.21,0.19,1.79,11.488248,-80.13,-81.18
1733038021818846555,1733038021818552732,3,2.21,0.19,1.79,11.419456000000002,-80.56,-81.82
1733038021916341829,1733038021916260004,3,2.21,0.19,1.79,11.344410333333334,-80.61,-81.04
1733038022017045328,1733038022016771793,3,2.21,0.19,1.79,11.263110666666668,-80.66,-81.26
1733038022116519780,1733038022116359472,3,2.21,0.19,1.79,11.175557666666668,-80.0,-80.66
1733038022217193588,1733038022216438055,3,2.21,0.19,1.79,11.088004333333332,-79.96,-80.83
1733038022316712655,1733038022316298007,3,2.21,0.19,1.79,10.98169,-80.73,-81.4
1733038022416629593,1733038022416342496,3,2.21,0.19,1.79,10.894136666666666,-79.92,-80.57
1733038022516414825,1733038022516329765,3,2.21,0.19,1.79,10.812837000000002,-79.79,-80.68
1733038022616841016,1733038022616606473,3,2.21,0.19,1.79,10.744044666666667,-80.44,-81.48
1733038022716891731,1733038022716616630,3,2.21,0.19,1.79,10.662744666666667,-80.13,-81.24
1733038022816539183,1733038022816251277,3,2.21,0.19,1.79,10.581445,-79.91,-81.26
1733038022916722748,1733038022916498422,3,2.21,0.19,1.79,10.487638333333333,-80.26,-81.55
1733038023017010414,1733038023016569375,3,2.21,0.19,1.79,10.406339000000001,-79.92,-82.83
1733038023116994503,1733038023116483688,3,2.21,0.19,1.79,10.318786000000001,-80.56,-81.73
1733038023216722060,1733038023216292619,3,2.21,0.19,1.79,10.206217,-80.5,-81.58
1733038023317039544,1733038023316715240,3,2.21,0.19,1.79,10.074886999999999,-80.71,-83.43
1733038023416763755,1733038023416380882,3,2.21,0.19,1.79,9.937303,-80.56,-81.57
1733038023515768508,1733038023515235424,3,2.21,0.19,1.79,9.830988333333332,-80.09,-82.77
1733038023615574420,1733038023615242004,3,2.21,0.19,1.79,9.71842,-79.81,-80.99
1733038023716013610,1733038023715274810,3,2.21,0.19,1.79,9.599597666666666,-80.0,-80.89
1733038023917883470,1733038023917751789,3,2.21,0.19,1.79,9.493283,-79.4,-81.57
1733038024018699457,1733038024018420934,3,2.21,0.19,1.79,9.380714333333332,-79.91,-80.95
1733038024118119187,1733038024118028402,3,2.21,0.19,1.79,9.286907333333334,-79.9,-81.05
1733038024218240699,1733038024218051910,3,2.21,0.19,1.79,9.161831,-79.83,-81.03
1733038024318557710,1733038024318292617,3,2.21,0.19,1.79,9.049262333333333,-80.17,-80.75
1733038024418288980,1733038024418081760,3,2.21,0.19,1.79,8.924186,-80.95,-81.2
1733038024518056605,1733038024517921209,3,2.21,0.19,1.79,8.79911,-81.76,-82.2
1733038024618263273,1733038024618000268,3,2.21,0.19,1.79,8.680287666666667,-80.99,-81.57
1733038024718181855,1733038024717889070,3,2.21,0.19,1.79,8.561465333333334,-80.45,-81.07
1733038024818551178,1733038024818244695,3,2.21,0.19,1.79,8.442642999999999,-80.65,-81.25
1733038024918052458,1733038024917817592,3,2.21,0.19,1.79,8.323820666666668,-80.78,-81.13
1733038025017518627,1733038025017312288,3,2.21,0.19,1.79,8.230013333333332,-80.17,-80.91
1733038025417508319,1733038025417013645,3,2.21,0.19,1.79,7.717200333333333,-80.4,-81.13
1733038025516943890,1733038025516544818,3,2.21,0.19,1.79,7.567108999999999,-80.25,-80.77
1733038025617047482,1733038025616622686,3,2.21,0.19,1.79,7.435779,-80.09,-80.69
1733038025716600937,1733038025716349363,3,2.21,0.19,1.79,7.316956666666667,-80.28,-80.72
1733038025817574334,1733038025817353725,3,2.21,0.19,1.79,7.191880333333334,-79.83,-80.48
1733038025917023884,1733038025916503667,3,2.21,0.19,1.79,7.060550333333334,-80.2,-81.12
1733038026015676256,1733038026015188932,3,2.21,0.19,1.79,6.904205,-80.29,-81.3
1733038026115389272,1733038026115207910,3,2.21,0.19,1.79,6.772875333333334,-79.96,-80.82
1733038026215973060,1733038026215202093,3,2.21,0.19,1.79,6.647799333333334,-79.69,-80.47
1733038026315569471,1733038026315187454,3,2.21,0.19,1.79,6.535230666666667,-79.94,-80.84
1733038026415724161,1733038026415187597,3,2.21,0.19,1.79,6.416408333333333,-79.54,-81.06
1733038026515550103,1733038026515200138,3,2.21,0.19,1.79,6.303839666666666,-80.04,-81.75
1733038026616567927,1733038026616267681,3,2.21,0.19,1.79,6.1850173333333345,-79.64,-80.71
1733038026716780958,1733038026716547012,3,2.21,0.19,1.79,6.047433333333333,-79.79,-80.78
1733038026816694079,1733038026816343069,3,2.21,0.19,1.79,5.903595666666667,-79.33,-81.3
1733038026916614670,1733038026916404485,3,2.21,0.19,1.79,5.766012,-79.94,-81.47
1733038027017066885,1733038027016267538,3,2.21,0.19,1.79,5.640936,-79.56,-80.48
1733038027116687354,1733038027116417884,3,2.21,0.19,1.79,5.497098666666666,-79.6,-80.72
1733038027216818388,1733038027216268539,3,2.21,0.19,1.79,5.353261,-79.38,-81.28
1733038027317209413,1733038027316634893,3,2.21,0.19,1.79,5.190661666666666,-79.95,-80.6
1733038027416827940,1733038027416564464,3,2.21,0.19,1.79,5.071839000000001,-79.46,-83.0
1733038027516723160,1733038027516532897,3,2.21,0.19,1.79,4.940509,-78.89,-81.54
1733038027617099769,1733038027616647481,3,2.21,0.19,1.79,4.821687,-79.5,-80.57
1733038027717505102,1733038027717223644,3,2.21,0.19,1.79,4.671595666666667,-79.17,-81.37
1733038027817394974,1733038027817111253,3,2.21,0.19,1.79,4.534012000000001,-79.29,-81.41
1733038027917881360,1733038027917549371,3,2.21,0.19,1.79,4.383920333333333,-79.5,-80.73
1733038028017834637,1733038028017551183,3,2.21,0.19,1.79,4.252590333333333,-78.75,-80.53
1733038028117648013,1733038028117289543,3,2.21,0.19,1.79,4.1212599999999995,-79.71,-81.19
1733038028217446784,1733038028217111587,3,2.21,0.19,1.79,4.002437666666666,-79.47,-81.06
1733038028317552730,1733038028317349195,3,2.21,0.19,1.79,3.864854,-79.04,-80.95
1733038028417198092,1733038028416963815,3,2.21,0.19,1.79,3.7335239999999996,-79.53,-80.83
1733038028517478396,1733038028517316818,3,2.21,0.19,1.79,3.6084476666666667,-78.99,-81.28
1733038028617397917,1733038028617129564,3,2.21,0.19,1.79,3.483371333333334,-79.51,-80.73
1733038028717420306,1733038028717200040,3,2.21,0.19,1.79,3.345787666666667,-79.09,-81.45
1733038028817119644,1733038028816980361,3,2.21,0.19,1.79,3.208204,-79.45,-81.0
1733038028917817476,1733038028917587280,3,2.21,0.19,1.79,3.0831280000000003,-79.07,-80.8
1733038029017378398,1733038029017176866,3,2.21,0.19,1.79,2.951798,-78.81,-80.55
1733038029117509984,1733038029117295265,3,2.21,0.19,1.79,2.826722,-79.43,-80.56
1733038029217419648,1733038029217211723,3,2.21,0.19,1.79,2.720407,-79.66,-80.97
1733038029317916265,1733038029317670345,3,2.21,0.19,1.79,2.632853666666666,-78.99,-80.6
1733038029417483314,1733038029417246103,3,2.21,0.19,1.79,2.5703153333333333,-79.36,-80.63
1733038029517758154,1733038029517527580,3,2.21,0.19,1.79,2.501523666666667,-79.76,-80.79
1733038029617394479,1733038029617242097,3,2.21,0.19,1.79,2.4202243333333335,-79.3,-81.35
1733038029717361902,1733038029717231512,3,2.21,0.19,1.79,2.326417333333333,-78.55,-80.62
1733038029817504562,1733038029817342042,3,2.21,0.19,1.79,2.213848666666667,-78.37,-80.68
1733038029917254523,1733038029917052268,3,2.21,0.19,1.79,2.1137876666666666,-78.13,-80.83
1733038030017386899,1733038030017164707,3,2.21,0.19,1.79,1.9949653333333333,-79.48,-80.91
1733038030148037983,1733038030147832155,3,2.21,0.19,1.79,1.8823966666666667,-79.36,-80.81
1733038030217477723,1733038030217295885,3,2.21,0.19,1.79,1.7885893333333334,-79.11,-80.48
1733038030317444988,1733038030317159414,3,2.21,0.19,1.79,1.694782,-78.94,-80.56
1733038030418167539,1733038030417743206,3,2.21,0.19,1.79,1.6134826666666668,-79.23,-80.77
1733038030517675129,1733038030517404079,3,2.21,0.19,1.79,1.5259293333333332,-79.02,-80.93
1733038030816677043,1733038030816410541,3,2.21,0.19,1.79,1.4258683333333335,-79.26,-80.74
1733038030916562521,1733038030916377067,3,2.21,0.19,1.79,1.369584,-79.68,-81.21
1733038031016718936,1733038031016478300,3,2.21,0.19,1.79,1.3445690000000001,-78.92,-80.43
1733038031116792525,1733038031116498470,3,2.21,0.19,1.79,1.363330666666667,-79.36,-80.65
1733038031216736558,1733038031216601371,3,2.21,0.19,1.79,1.363330666666667,-79.11,-80.44
1733038031318085225,1733038031317999362,3,2.21,0.19,1.79,1.3695843333333333,-79.63,-81.08
1733038031417596748,1733038031417460918,3,2.21,0.19,1.79,1.3695843333333333,-78.98,-80.5
1733038031517533817,1733038031517358303,3,2.21,0.19,1.79,1.394599666666667,-78.92,-80.4
1733038031717451122,1733038031717299222,3,2.21,0.19,1.79,1.419615,-79.31,-80.92
1733038032317603212,1733038032317391157,3,2.21,0.19,1.79,1.6009753333333334,-79.42,-80.92
1733038032718251140,1733038032718101263,3,2.21,0.19,1.79,1.8886503333333333,-78.88,-80.55
1733038032818496419,1733038032818341493,3,2.21,0.19,1.79,1.9824573333333333,-79.13,-80.72
1733038032918220044,1733038032918032884,3,2.21,0.19,1.79,2.0512493333333333,-79.67,-81.16
1733038033016529284,1733038033016375303,3,2.21,0.19,1.79,2.132549,-78.76,-80.5
1733038033115609758,1733038033115202903,3,2.21,0.19,1.79,2.1888333333333336,-79.82,-80.56
1733038033218449010,1733038033218211650,3,2.21,0.19,1.79,2.2576253333333334,-79.06,-80.55
1733038033318258051,1733038033318066596,3,2.21,0.19,1.79,2.320163333333334,-79.07,-80.46
1733038033417927720,1733038033417819976,3,2.21,0.19,1.79,2.4202243333333335,-79.27,-80.88
1733038033518151887,1733038033517843961,3,2.21,0.19,1.79,2.520285,-79.35,-80.97
1733038033617651709,1733038033617345809,3,2.21,0.19,1.79,2.626599666666667,-78.5,-81.37
1733038033716684425,1733038033716346740,3,2.21,0.19,1.79,2.6953913333333333,-79.26,-80.64
1733038033816744529,1733038033816456556,3,2.21,0.19,1.79,2.7954523333333334,-79.63,-80.94
1733038033916693968,1733038033916472911,3,2.21,0.19,1.79,2.883005666666667,-79.22,-80.9
1733038034016842596,1733038034016403198,3,2.21,0.19,1.79,3.0143356666666663,-79.31,-80.72
1733038034116797116,1733038034116575717,3,2.21,0.19,1.79,3.1143966666666665,-79.3,-80.66
1733038034217906809,1733038034217587232,3,2.21,0.19,1.79,3.2144576666666667,-79.9,-80.56
1733038034316955252,1733038034316634178,3,2.21,0.19,1.79,3.327026333333333,-79.59,-81.1
1733038034416888735,1733038034416679620,3,2.21,0.19,1.79,3.427087333333333,-79.15,-82.01
1733038034518460395,1733038034518326759,3,2.21,0.19,1.79,3.5459096666666667,-79.65,-80.99
1733038034617878148,1733038034617688894,3,2.21,0.19,1.79,3.6647319999999994,-79.8,-82.77
1733038034717489208,1733038034717270851,3,2.21,0.19,1.79,3.7898083333333332,-80.13,-81.06
1733038034817697424,1733038034817532300,3,2.21,0.19,1.79,3.9273923333333336,-79.7,-83.18
1733038034917474060,1733038034917312860,3,2.21,0.19,1.79,4.021199666666667,-79.93,-81.14
1733038035017871493,1733038035017561674,3,2.21,0.19,1.79,4.158783333333333,-79.73,-82.23
1733038035147856163,1733038035147712230,3,2.21,0.19,1.79,4.283859333333333,-79.77,-83.63
1733038035217657066,1733038035217430830,3,2.21,0.19,1.79,4.421443,-80.26,-80.78
1733038035317410323,1733038035317341804,3,2.21,0.19,1.79,4.546519333333333,-80.27,-83.93
1733038035417881947,1733038035417685747,3,2.21,0.19,1.79,4.6778493333333335,-79.83,-82.69
1733038035517936881,1733038035517653465,3,2.21,0.19,1.79,4.834194666666666,-81.29,-82.75
1733038035617742514,1733038035617429256,3,2.21,0.19,1.79,4.978032,-81.26,-85.04
1733038035717263979,1733038035717092514,3,2.21,0.19,1.79,5.121869666666666,-80.41,-82.35
1733038035817507875,1733038035817280292,3,2.21,0.19,1.79,5.278214666666667,-80.04,-81.92
1733038035917403872,1733038035917263984,3,2.21,0.19,1.79,5.409544666666666,-80.59,-85.63
1733038036017609582,1733038036017359733,3,2.21,0.19,1.79,5.515859333333334,-80.35,-84.95
1733038036115585714,1733038036115268945,3,2.21,0.19,1.79,5.665951,-79.82,-81.62
1733038036215636608,1733038036215275764,3,2.21,0.19,1.79,5.797281000000001,-80.76,-84.2
1733038036315589778,1733038036315267562,3,2.21,0.19,1.79,5.909849666666666,-80.77,-86.4
1733038036415742238,1733038036415257453,3,2.21,0.19,1.79,5.997402999999999,-81.2,-82.19
1733038036515466906,1733038036515206813,3,2.21,0.19,1.79,6.109971666666667,-80.22,-80.64
1733038036615511793,1733038036615220546,3,2.21,0.19,1.79,6.260063,-81.44,-81.78
1733038036715733769,1733038036715249776,3,2.21,0.19,1.79,6.3413623333333335,-82.24,-86.08
1733038036818230437,1733038036818034172,3,2.21,0.19,1.79,6.466438666666666,-81.42,-83.91
1733038036917902730,1733038036917672157,3,2.21,0.19,1.79,6.635291666666666,-80.46,-81.43
1733038037018252370,1733038037018031358,3,2.21,0.19,1.79,6.8479209999999995,-80.96,-81.29
1733038037215536351,1733038037215231657,3,2.21,0.19,1.79,7.0730580000000005,-83.03,-83.79
1733038037616770653,1733038037616499662,3,2.21,0.19,1.79,7.510825,-83.01,-86.04
1733038037817530767,1733038037817354440,3,2.21,0.19,1.79,7.798500333333333,-82.28,-84.6
1733038037916575391,1733038037916302680,3,2.21,0.19,1.79,8.073668333333332,-81.55,-82.47
1733038038016779935,1733038038016531467,3,2.21,0.19,1.79,8.129952666666668,-82.98,-83.68
1733038038116711926,1733038038116502285,3,2.21,0.19,1.79,8.217506333333334,-83.74,-85.94
1733038038217058372,1733038038216722249,3,2.21,0.19,1.79,8.286298,-85.56,-90.35
1733038038316562891,1733038038316286325,3,2.21,0.19,1.79,8.367597333333334,-84.24,-87.27
1733038038419100892,1733038038418849468,3,2.21,0.19,1.79,8.523942333333332,-82.87,-83.2
1733038038518016174,1733038038517797708,3,2.21,0.19,1.79,8.742825666666668,-81.33,-82.28
1733038038618906465,1733038038618754148,3,2.21,0.19,1.79,8.942947666666667,-81.32,-81.85
1733038038715758500,1733038038715268611,3,2.21,0.19,1.79,9.099293000000001,-80.78,-81.17
1733038038815872837,1733038038815269231,3,2.21,0.19,1.79,9.224369333333334,-81.08,-82.62
1733038038915713032,1733038038915301084,3,2.21,0.19,1.79,9.349445333333334,-82.35,-84.12
1733038039015816128,1733038039015285015,3,2.21,0.19,1.79,9.436998666666666,-83.56,-87.63
1733038039115491050,1733038039115202903,3,2.21,0.19,1.79,9.530805666666666,-84.33,-88.29
1733038039215603949,1733038039215261697,3,2.21,0.19,1.79,9.649628,-84.23,-84.77
1733038039315876714,1733038039315270662,3,2.21,0.19,1.79,9.849749666666668,-83.05,-82.73
1733038039415791501,1733038039415256261,3,2.21,0.19,1.79,10.037364000000002,-82.25,-82.19
1733038039515448140,1733038039515209674,3,2.21,0.19,1.79,10.231232333333333,-82.33,-83.59
1733038039615599040,1733038039615248680,3,2.21,0.19,1.79,10.381324,-82.78,-83.44
1733038039715436007,1733038039715221166,3,2.21,0.19,1.79,10.550177,-84.41,-85.48
1733038039815694995,1733038039815245628,3,2.21,0.19,1.79,10.656491666666666,-85.69,-89.4
1733038039915755178,1733038039915256023,3,2.21,0.19,1.79,10.694014666666666,-87.61,-97.05
1733038040015706766,1733038040015252113,3,2.21,0.19,1.79,10.725283666666664,-86.72,-93.44
1733038040115677042,1733038040115214586,3,2.21,0.19,1.79,10.819090666666668,-87.6,-92.37
1733038040215531863,1733038040215172529,3,2.21,0.19,1.79,11.062989,-87.16,-89.14
1733038040318547526,1733038040318420410,3,2.21,0.19,1.79,11.300633333333332,-86.78,-88.25
1733038040418354189,1733038040418152809,3,2.21,0.19,1.79,11.481993666666666,-86.06,-86.75
1733038040518598077,1733038040518339395,3,2.21,0.19,1.79,11.538278,-85.73,-87.18
1733038040618701909,1733038040618448734,3,2.21,0.19,1.79,11.575800999999998,-86.44,-86.28
1733038040718234655,1733038040718034982,3,2.21,0.19,1.79,11.638339333333334,-84.09,-84.3
1733038040818410145,1733038040818181514,3,2.21,0.19,1.79,11.707131333333331,-84.89,-84.83
1733038040918397187,1733038040918133735,3,2.21,0.19,1.79,11.769669666666665,-84.38,-84.24
1733038041017900070,1733038041017782926,3,2.21,0.19,1.79,11.8197,-83.98,-83.9
1733038041118158089,1733038041117903470,3,2.21,0.19,1.79,11.882237666666667,-84.31,-86.69
1733038041217955583,1733038041217842102,3,2.21,0.19,1.79,11.957282999999999,-84.28,-85.2
1733038041616022236,1733038041615208387,3,2.21,0.19,1.79,12.201182666666668,-87.38,-93.06
1733038041717944053,1733038041717710018,3,2.21,0.19,1.79,12.188674666666666,-83.98,-87.64
1733038041819019989,1733038041818759918,3,2.21,0.19,1.79,12.188674666666666,-81.6,-83.71
1733038041918487477,1733038041918296575,3,2.21,0.19,1.79,12.263720333333334,-80.71,-81.66
1733038042018589401,1733038042018240451,3,2.21,0.19,1.79,12.301243333333332,-80.35,-81.61
1733038042118443645,1733038042118296623,3,2.21,0.19,1.79,12.282481666666667,-80.37,-81.2
1733038042218352761,1733038042218141794,3,2.21,0.19,1.79,12.232451333333332,-80.93,-82.39
1733038042318238448,1733038042318041086,3,2.21,0.19,1.79,12.226197666666666,-80.47,-81.85
1733038042418205515,1733038042417964458,3,2.21,0.19,1.79,12.213690333333334,-81.17,-82.43
1733038042815707820,1733038042815199851,3,2.21,0.19,1.79,12.132390000000001,-80.83,-82.66
1733038042915505392,1733038042915217399,3,2.21,0.19,1.79,12.101121,-80.05,-81.26
1733038043015532141,1733038043015211582,3,2.21,0.19,1.79,12.082359666666667,-80.34,-81.02
1733038043115767052,1733038043115252494,3,2.21,0.19,1.79,12.069852,-79.88,-81.02
1733038043215636332,1733038043215260267,3,2.21,0.19,1.79,12.069852,-79.82,-80.88
1733038043415832060,1733038043415249586,3,2.21,0.19,1.79,12.051090666666667,-79.56,-80.84
1733038043516695589,1733038043516358613,3,2.21,0.19,1.79,12.044836666666669,-79.6,-81.24
1733038043616723896,1733038043616519451,3,2.21,0.19,1.79,12.026075333333333,-79.67,-81.0
1733038043716584800,1733038043716310262,3,2.21,0.19,1.79,12.019821333333333,-79.73,-81.2
1733038043916560200,1733038043916292905,3,2.21,0.19,1.79,11.982299,-79.83,-81.27
1733038044017082906,1733038044016778230,3,2.21,0.19,1.79,11.932268666666666,-79.77,-81.34
1733038044116558371,1733038044116325378,3,2.21,0.19,1.79,11.900999666666666,-79.93,-81.21
1733038044218459963,1733038044218281507,3,2.21,0.19,1.79,11.850969000000001,-80.47,-82.75
1733038044315473605,1733038044315210342,3,2.21,0.19,1.79,11.800938333333335,-80.67,-82.74
1733038044415767557,1733038044415246486,3,2.21,0.19,1.79,11.713385,-81.8,-84.03
1733038044516706013,1733038044516448497,3,2.21,0.19,1.79,11.669608333333334,-80.97,-83.12
1733038044616906779,1733038044616594076,3,2.21,0.19,1.79,11.638339333333334,-81.06,-84.15
1733038044716717715,1733038044716330528,3,2.21,0.19,1.79,11.613324,-80.87,-82.08
1733038044816691305,1733038044816397428,3,2.21,0.19,1.79,11.563293666666667,-80.33,-81.32
1733038044916735740,1733038044916392564,3,2.21,0.19,1.79,11.513263333333335,-80.53,-81.86
1733038045016616051,1733038045016278028,3,2.21,0.19,1.79,11.456979333333335,-80.22,-80.99
1733038045147378042,1733038045146758317,3,2.21,0.19,1.79,11.400694999999999,-79.77,-80.72
1733038045216461170,1733038045216233968,3,2.21,0.19,1.79,11.350664333333334,-80.4,-80.76
1733038045316602972,1733038045316385746,3,2.21,0.19,1.79,11.288126,-80.04,-80.82
1733038045416579854,1733038045416292428,3,2.21,0.19,1.79,11.231841666666666,-79.95,-80.83
1733038045516982615,1733038045516606807,3,2.21,0.19,1.79,11.156796333333334,-79.54,-80.47
1733038045616767244,1733038045616370439,3,2.21,0.19,1.79,11.081750666666666,-79.96,-80.82
1733038045717108802,1733038045716886043,3,2.21,0.19,1.79,10.994197333333334,-79.87,-80.72
1733038045816491475,1733038045816337823,3,2.21,0.19,1.79,10.919151333333334,-80.04,-80.91
1733038045917220060,1733038045917013645,3,2.21,0.19,1.79,10.844105666666666,-79.72,-81.39
1733038046016771915,1733038046016406536,3,2.21,0.19,1.79,10.762806333333332,-79.83,-80.71
1733038046116536231,1733038046116270542,3,2.21,0.19,1.79,10.656491666666666,-80.2,-81.04
1733038046215824729,1733038046215241670,3,2.21,0.19,1.79,10.556430666666666,-80.14,-80.64
