%time,field.stamp,field.id,field.x,field.y,field.z,field.distanceFromTag,field.rssi,field.rssi_fp
1733037964616958066,1733037964616423368,5,-0.36,-0.46,1.97,3.852346666666667,-79.1,-80.69
1733037964716523122,1733037964716312646,5,-0.36,-0.46,1.97,3.852346666666667,-79.03,-80.53
1733037964816761200,1733037964816354036,5,-0.36,-0.46,1.97,3.8586003333333334,-79.37,-80.61
1733037964916788814,1733037964916459798,5,-0.36,-0.46,1.97,3.8586003333333334,-78.91,-81.11
1733037965016712669,1733037965016423940,5,-0.36,-0.46,1.97,3.8711079999999995,-79.18,-80.76
1733037965116757966,1733037965116485118,5,-0.36,-0.46,1.97,3.883615666666666,-78.97,-80.53
1733037965216806008,1733037965216572523,5,-0.36,-0.46,1.97,3.896123333333333,-79.08,-80.64
1733037965317345510,1733037965317051649,5,-0.36,-0.46,1.97,3.8898693333333334,-78.95,-81.01
1733037965416694582,1733037965416360855,5,-0.36,-0.46,1.97,3.8898693333333334,-79.16,-80.61
1733037965516568818,1733037965516351222,5,-0.36,-0.46,1.97,3.883615666666666,-79.03,-80.83
1733037965616480760,1733037965616311311,5,-0.36,-0.46,1.97,3.8773619999999998,-79.2,-80.56
1733037965716626724,1733037965716380834,5,-0.36,-0.46,1.97,3.8711083333333334,-79.05,-80.69
1733037965816465179,1733037965816351652,5,-0.36,-0.46,1.97,3.8711083333333334,-78.93,-80.84
1733037965916629466,1733037965916341781,5,-0.36,-0.46,1.97,3.8711083333333334,-79.15,-80.52
1733037966016570365,1733037966016305208,5,-0.36,-0.46,1.97,3.864854333333333,-78.75,-80.49
1733037966116685595,1733037966116423368,5,-0.36,-0.46,1.97,3.8648543333333336,-79.23,-80.61
1733037966218182323,1733037966218102931,5,-0.36,-0.46,1.97,3.8711079999999995,-79.16,-80.68
1733037966318561878,1733037966318413257,5,-0.36,-0.46,1.97,3.8773619999999998,-79.13,-80.55
1733037966418643868,1733037966418501138,5,-0.36,-0.46,1.97,3.852346666666666,-79.14,-80.89
1733037966517780836,1733037966517627239,5,-0.36,-0.46,1.97,3.839839,-79.12,-81.09
1733037966618233923,1733037966618086099,5,-0.36,-0.46,1.97,3.839839,-79.24,-80.94
1733037966717929946,1733037966717786788,5,-0.36,-0.46,1.97,3.8586003333333334,-79.07,-80.6
1733037966816709125,1733037966816395998,5,-0.36,-0.46,1.97,3.858600333333333,-79.34,-80.8
1733037966916598155,1733037966916317224,5,-0.36,-0.46,1.97,3.8398386666666666,-78.98,-80.7
1733037967049267099,1733037967049016237,5,-0.36,-0.46,1.97,3.833585,-79.98,-81.35
1733037967116778484,1733037967116446495,5,-0.36,-0.46,1.97,3.839839,-79.1,-80.44
1733037967216769277,1733037967216542005,5,-0.36,-0.46,1.97,3.852346666666667,-79.5,-80.76
1733037967316529339,1733037967316378831,5,-0.36,-0.46,1.97,3.852346666666667,-79.07,-80.64
1733037967416600907,1733037967416348457,5,-0.36,-0.46,1.97,3.8586003333333334,-79.37,-80.79
1733037967516629057,1733037967516343116,5,-0.36,-0.46,1.97,3.8586003333333334,-78.97,-80.56
1733037967617345563,1733037967617130994,5,-0.36,-0.46,1.97,3.864854,-79.67,-81.3
1733037967717591733,1733037967717329263,5,-0.36,-0.46,1.97,3.8898693333333334,-78.9,-80.54
1733037968217463689,1733037968217387437,5,-0.36,-0.46,1.97,3.896123333333333,-79.11,-80.56
1733037968318662096,1733037968318456888,5,-0.36,-0.46,1.97,3.8898693333333334,-78.89,-80.59
1733037968417894893,1733037968417803764,5,-0.36,-0.46,1.97,3.896123,-78.84,-80.48
1733037968517811823,1733037968517582416,5,-0.36,-0.46,1.97,3.896123,-79.49,-81.27
1733037968617451057,1733037968617193460,5,-0.36,-0.46,1.97,3.8898693333333334,-78.93,-80.89
1733037968718022225,1733037968717864036,5,-0.36,-0.46,1.97,3.877362,-79.42,-81.28
1733037968815575212,1733037968815219640,5,-0.36,-0.46,1.97,3.864854333333333,-79.16,-80.51
1733037968918775447,1733037968918605327,5,-0.36,-0.46,1.97,3.864854333333333,-79.61,-81.19
1733037969018159694,1733037969017895221,5,-0.36,-0.46,1.97,3.852346666666667,-79.21,-81.12
1733037969117995543,1733037969117880105,5,-0.36,-0.46,1.97,3.8586006666666663,-79.42,-80.74
1733037969217982081,1733037969217817068,5,-0.36,-0.46,1.97,3.864854333333333,-79.36,-81.07
1733037969318006527,1733037969317808151,5,-0.36,-0.46,1.97,3.858600333333333,-79.45,-80.96
1733037969418079328,1733037969417855739,5,-0.36,-0.46,1.97,3.846092666666667,-79.23,-81.0
1733037969518327932,1733037969518125057,5,-0.36,-0.46,1.97,3.839839,-78.97,-80.47
1733037969618180487,1733037969617995977,5,-0.36,-0.46,1.97,3.846093,-79.35,-81.55
1733037969717779088,1733037969717546224,5,-0.36,-0.46,1.97,3.852346666666667,-79.62,-81.48
1733037969817484246,1733037969817228078,5,-0.36,-0.46,1.97,3.846092666666667,-79.03,-80.7
1733037969917788153,1733037969917621612,5,-0.36,-0.46,1.97,3.8586003333333334,-79.29,-80.53
1733037970016921463,1733037970016610860,5,-0.36,-0.46,1.97,3.852346666666667,-79.27,-81.23
1733037970116934541,1733037970116728544,5,-0.36,-0.46,1.97,3.852346666666667,-78.96,-80.78
1733037970217063515,1733037970216754674,5,-0.36,-0.46,1.97,3.839839,-79.34,-80.99
1733037970316832968,1733037970316538810,5,-0.36,-0.46,1.97,3.8586003333333334,-79.34,-81.02
1733037970417303565,1733037970416780471,5,-0.36,-0.46,1.97,3.8648543333333336,-79.04,-80.86
1733037970516902976,1733037970516678333,5,-0.36,-0.46,1.97,3.871108,-79.06,-80.5
1733037970617050970,1733037970616590738,5,-0.36,-0.46,1.97,3.852346666666667,-79.03,-80.48
1733037970716683578,1733037970716437578,5,-0.36,-0.46,1.97,3.852346666666667,-79.18,-81.3
1733037970817041034,1733037970816925287,5,-0.36,-0.46,1.97,3.846093,-79.07,-80.69
1733037970916854342,1733037970916537046,5,-0.36,-0.46,1.97,3.846093,-79.14,-80.76
1733037971017806425,1733037971017093181,5,-0.36,-0.46,1.97,3.839839,-79.29,-80.84
1733037971117741206,1733037971117580652,5,-0.36,-0.46,1.97,3.852346666666667,-78.91,-80.48
1733037971318718800,1733037971318481206,5,-0.36,-0.46,1.97,3.871108,-79.82,-80.74
1733037971419091659,1733037971418261766,5,-0.36,-0.46,1.97,3.883615666666666,-79.18,-80.84
1733037971518402042,1733037971518277645,5,-0.36,-0.46,1.97,3.877361666666667,-79.43,-80.93
1733037971618295689,1733037971617977857,5,-0.36,-0.46,1.97,3.8586003333333334,-79.64,-81.2
1733037971718568078,1733037971718230485,5,-0.36,-0.46,1.97,3.846092666666667,-79.2,-80.65
1733037971818647832,1733037971818345308,5,-0.36,-0.46,1.97,3.852346666666667,-79.27,-81.13
1733037971918094611,1733037971917869806,5,-0.36,-0.46,1.97,3.8648543333333336,-79.14,-80.75
1733037972048090493,1733037972047917604,5,-0.36,-0.46,1.97,3.883616,-79.87,-81.13
1733037972117427116,1733037972117231369,5,-0.36,-0.46,1.97,3.883616,-79.06,-80.68
1733037972217280249,1733037972217143535,5,-0.36,-0.46,1.97,3.8711083333333334,-78.97,-80.83
1733037972317461184,1733037972317325353,5,-0.36,-0.46,1.97,3.864854333333333,-79.22,-81.05
1733037972416700222,1733037972416441440,5,-0.36,-0.46,1.97,3.852346666666667,-78.95,-80.63
1733037972517399008,1733037972517166614,5,-0.36,-0.46,1.97,3.8648543333333336,-79.09,-80.66
1733037972617234082,1733037972617043972,5,-0.36,-0.46,1.97,3.852346666666667,-79.83,-80.93
1733037972718095581,1733037972717984199,5,-0.36,-0.46,1.97,3.852346666666667,-79.05,-81.17
1733037972818047602,1733037972817918539,5,-0.36,-0.46,1.97,3.852346666666667,-79.4,-80.81
1733037972918461255,1733037972918264627,5,-0.36,-0.46,1.97,3.8711083333333334,-79.04,-80.51
1733037973018010591,1733037973017822027,5,-0.36,-0.46,1.97,3.8648543333333336,-79.11,-80.63
1733037973115512179,1733037973115213394,5,-0.36,-0.46,1.97,3.871108,-79.07,-81.18
1733037973217373532,1733037973217166423,5,-0.36,-0.46,1.97,3.877361666666667,-78.93,-80.93
1733037973317375283,1733037973317227602,5,-0.36,-0.46,1.97,3.896123333333333,-79.07,-81.06
1733037973417958729,1733037973417767763,5,-0.36,-0.46,1.97,3.8898696666666663,-78.86,-80.76
1733037973518205857,1733037973518060207,5,-0.36,-0.46,1.97,3.896123333333333,-78.9,-80.61
1733037973617939193,1733037973617755651,5,-0.36,-0.46,1.97,3.908630666666667,-79.33,-81.01
1733037973718214604,1733037973717914819,5,-0.36,-0.46,1.97,3.9273919999999998,-79.18,-80.88
1733037973817712430,1733037973817528724,5,-0.36,-0.46,1.97,3.9211383333333334,-79.24,-81.16
1733037973917402466,1733037973917203903,5,-0.36,-0.46,1.97,3.9211383333333334,-79.33,-81.27
1733037974017722735,1733037974017524242,5,-0.36,-0.46,1.97,3.9273919999999998,-79.56,-81.25
1733037974117285490,1733037974117030858,5,-0.36,-0.46,1.97,3.9461533333333336,-79.31,-80.82
1733037974217542985,1733037974217379093,5,-0.36,-0.46,1.97,3.977422333333333,-79.28,-80.57
1733037974317338462,1733037974317178964,5,-0.36,-0.46,1.97,3.9899299999999998,-79.12,-80.5
1733037974417883665,1733037974417584180,5,-0.36,-0.46,1.97,3.996184,-79.88,-81.07
1733037974517801292,1733037974517610073,5,-0.36,-0.46,1.97,4.0086916666666665,-79.22,-80.49
1733037974617493831,1733037974617285490,5,-0.36,-0.46,1.97,4.033707,-79.09,-80.68
1733037974716722728,1733037974716434717,5,-0.36,-0.46,1.97,4.0837373333333336,-79.67,-80.64
1733037974816659652,1733037974816424369,5,-0.36,-0.46,1.97,4.108752666666667,-78.94,-80.8
1733037974916641262,1733037974916414737,5,-0.36,-0.46,1.97,4.140021666666667,-78.67,-80.57
1733037975016538626,1733037975016454219,5,-0.36,-0.46,1.97,4.177544666666667,-79.06,-81.0
1733037975116607199,1733037975116423130,5,-0.36,-0.46,1.97,4.208813666666667,-78.87,-80.48
1733037975216819159,1733037975216481208,5,-0.36,-0.46,1.97,4.258844,-79.28,-80.79
1733037975317057231,1733037975316506385,5,-0.36,-0.46,1.97,4.258844,-79.49,-81.04
1733037975416727423,1733037975416454553,5,-0.36,-0.46,1.97,4.308874666666667,-79.13,-80.82
1733037975516737210,1733037975516362190,5,-0.36,-0.46,1.97,4.358905333333333,-78.87,-80.58
1733037975615699098,1733037975615210056,5,-0.36,-0.46,1.97,4.452712333333333,-78.9,-80.51
1733037975716451575,1733037975716289043,5,-0.36,-0.46,1.97,4.502742666666667,-79.07,-80.63
1733037975816670459,1733037975816385984,5,-0.36,-0.46,1.97,4.521504,-79.27,-80.74
1733037975916604081,1733037975916314601,5,-0.36,-0.46,1.97,4.534011666666667,-79.57,-80.52
1733037976016839866,1733037976016498327,5,-0.36,-0.46,1.97,4.596549666666667,-79.38,-80.7
1733037976116802739,1733037976116425514,5,-0.36,-0.46,1.97,4.6778493333333335,-78.59,-80.48
1733037976217550823,1733037976217219352,5,-0.36,-0.46,1.97,4.765402666666667,-78.78,-80.87
1733037976316600840,1733037976316432952,5,-0.36,-0.46,1.97,4.846702333333333,-79.04,-80.54
1733037976416879677,1733037976416546106,5,-0.36,-0.46,1.97,4.921748,-78.97,-80.43
1733037976516602037,1733037976516282081,5,-0.36,-0.46,1.97,5.009301333333333,-78.96,-80.45
1733037976618200101,1733037976617990493,5,-0.36,-0.46,1.97,5.071839333333333,-78.85,-80.51
1733037976716694407,1733037976716531991,5,-0.36,-0.46,1.97,5.146885,-79.07,-80.79
1733037976817220438,1733037976816716432,5,-0.36,-0.46,1.97,5.209423,-78.72,-80.47
1733037976917734177,1733037976917646884,5,-0.36,-0.46,1.97,5.265707333333334,-79.18,-80.95
1733037977018390257,1733037977018232345,5,-0.36,-0.46,1.97,5.334499,-79.52,-81.06
1733037977118033200,1733037977117843866,5,-0.36,-0.46,1.97,5.43456,-78.52,-80.85
1733037977218104369,1733037977217932939,5,-0.36,-0.46,1.97,5.547128666666666,-78.92,-81.27
1733037977318192502,1733037977317957878,5,-0.36,-0.46,1.97,5.678458666666667,-78.82,-80.6
1733037977418648621,1733037977418473958,5,-0.36,-0.46,1.97,5.778519666666668,-79.16,-80.5
1733037977518329744,1733037977518194198,5,-0.36,-0.46,1.97,5.866073,-79.49,-81.08
1733037977615579632,1733037977615211963,5,-0.36,-0.46,1.97,5.922357333333333,-79.28,-81.15
1733037977715566395,1733037977715212821,5,-0.36,-0.46,1.97,5.991149,-78.91,-80.98
1733037977815637862,1733037977815208911,5,-0.36,-0.46,1.97,6.097463666666666,-78.95,-81.63
1733037977915395874,1733037977915221691,5,-0.36,-0.46,1.97,6.185016999999999,-79.08,-80.67
1733037978015674233,1733037978015201330,5,-0.36,-0.46,1.97,6.2975856666666665,-78.92,-80.53
1733037978118557293,1733037978118334770,5,-0.36,-0.46,1.97,6.385139,-78.79,-80.45
1733037978218715729,1733037978218502044,5,-0.36,-0.46,1.97,6.528976666666666,-78.65,-81.01
1733037978317669777,1733037978317424535,5,-0.36,-0.46,1.97,6.635291666666667,-78.77,-80.69
1733037978417882046,1733037978417757749,5,-0.36,-0.46,1.97,6.754114,-79.12,-81.75
1733037978515566687,1733037978515195369,5,-0.36,-0.46,1.97,6.854175000000001,-79.28,-81.32
1733037978615764342,1733037978615211486,5,-0.36,-0.46,1.97,6.960489333333334,-79.81,-81.26
1733037978716966016,1733037978716640949,5,-0.36,-0.46,1.97,7.0480426666666665,-79.56,-80.85
1733037978816968153,1733037978816655874,5,-0.36,-0.46,1.97,7.141850000000001,-79.28,-80.82
1733037978947466334,1733037978947197675,5,-0.36,-0.46,1.97,7.248165,-78.94,-81.09
1733037979016416613,1733037979016232252,5,-0.36,-0.46,1.97,7.379495000000001,-79.4,-81.31
1733037979117072552,1733037979116769790,5,-0.36,-0.46,1.97,7.504570999999999,-79.0,-81.2
1733037979217135878,1733037979216923713,5,-0.36,-0.46,1.97,7.623393333333333,-79.21,-81.09
1733037979318406059,1733037979318263053,5,-0.36,-0.46,1.97,7.735962,-79.03,-80.61
1733037979418284678,1733037979418163776,5,-0.36,-0.46,1.97,7.848530666666666,-79.3,-80.41
1733037979518532480,1733037979518466472,5,-0.36,-0.46,1.97,7.9423379999999995,-79.63,-80.52
1733037979618360991,1733037979618087530,5,-0.36,-0.46,1.97,8.036145333333332,-79.41,-80.66
1733037979718954716,1733037979718830585,5,-0.36,-0.46,1.97,8.123699,-79.54,-80.73
1733037979817946521,1733037979817678928,5,-0.36,-0.46,1.97,8.255029,-79.76,-81.08
1733037979918226324,1733037979918007612,5,-0.36,-0.46,1.97,8.386358666666666,-80.02,-81.26
1733037980116568587,1733037980116465806,5,-0.36,-0.46,1.97,8.567718666666666,-79.39,-80.59
1733037980216898967,1733037980216582059,5,-0.36,-0.46,1.97,8.742825333333334,-80.43,-80.88
1733037980316829018,1733037980316403388,5,-0.36,-0.46,1.97,8.917932,-79.94,-80.76
1733037980417249153,1733037980416901350,5,-0.36,-0.46,1.97,9.055515666666667,-80.41,-80.78
1733037980516559837,1733037980516326665,5,-0.36,-0.46,1.97,9.168084333333333,-79.62,-80.59
1733037980616573519,1733037980616360664,5,-0.36,-0.46,1.97,9.274399333333333,-80.31,-82.29
1733037980717959713,1733037980717798233,5,-0.36,-0.46,1.97,9.361953,-80.43,-81.59
1733037980815667567,1733037980815286636,5,-0.36,-0.46,1.97,9.468267666666666,-80.01,-81.32
1733037980915863886,1733037980915253400,5,-0.36,-0.46,1.97,9.593343666666668,-81.28,-82.0
1733037981015511667,1733037981015222072,5,-0.36,-0.46,1.97,9.724673666666666,-79.86,-80.86
1733037981115685555,1733037981115220785,5,-0.36,-0.46,1.97,9.856003666666666,-79.65,-80.74
1733037981215599571,1733037981215229034,5,-0.36,-0.46,1.97,9.968572333333332,-79.62,-80.4
1733037981315572344,1733037981315215826,5,-0.36,-0.46,1.97,10.074887000000002,-79.65,-80.49
1733037981415521688,1733037981415225267,5,-0.36,-0.46,1.97,10.187455333333332,-79.76,-80.81
1733037981516539989,1733037981516309976,5,-0.36,-0.46,1.97,10.306277666666666,-79.97,-80.59
1733037981616683540,1733037981616398096,5,-0.36,-0.46,1.97,10.443861333333333,-80.02,-80.83
1733037981716753198,1733037981716502189,5,-0.36,-0.46,1.97,10.568937666666667,-80.04,-80.97
1733037981817008378,1733037981816720485,5,-0.36,-0.46,1.97,10.681506333333331,-80.34,-80.84
1733037981916632139,1733037981916469573,5,-0.36,-0.46,1.97,10.794075,-80.8,-82.74
1733037982016763155,1733037982016569614,5,-0.36,-0.46,1.97,10.906643666666668,-81.05,-81.61
1733037982115523820,1733037982115233898,5,-0.36,-0.46,1.97,11.044227333333334,-81.18,-81.47
1733037982215666469,1733037982215241432,5,-0.36,-0.46,1.97,11.181811333333334,-80.56,-80.89
1733037982315481642,1733037982315214157,5,-0.36,-0.46,1.97,11.319395,-79.91,-80.74
1733037982415519704,1733037982415228128,5,-0.36,-0.46,1.97,11.444471333333334,-80.12,-81.24
1733037982515576466,1733037982515208959,5,-0.36,-0.46,1.97,11.575801333333333,-80.03,-80.77
1733037982615597063,1733037982615219116,5,-0.36,-0.46,1.97,11.700877666666665,-79.85,-80.77
1733037982716560900,1733037982716340541,5,-0.36,-0.46,1.97,11.825953999999998,-80.45,-81.16
1733037982915526948,1733037982915259122,5,-0.36,-0.46,1.97,1.3070466666666658,-79.97,-80.65
1733037983115512343,1733037983115221977,5,-0.36,-0.46,1.97,1.5071683333333326,-80.27,-82.63
1733037983215623656,1733037983215278863,5,-0.36,-0.46,1.97,1.7072899999999993,-81.31,-81.89
1733037983315626461,1733037983315261840,5,-0.36,-0.46,1.97,12.545141333333333,-81.25,-83.59
1733037983417261935,1733037983417027473,5,-0.36,-0.46,1.97,12.663964,-81.63,-81.72
1733037983518243331,1733037983518067121,5,-0.36,-0.46,1.97,12.776532666666666,-81.25,-81.55
1733037983618745947,1733037983618441581,5,-0.36,-0.46,1.97,12.901609,-81.32,-81.98
1733037983716941835,1733037983716599225,5,-0.36,-0.46,1.97,13.026685333333333,-80.61,-81.52
1733037983816583668,1733037983816309452,5,-0.36,-0.46,1.97,13.183030333333335,-81.17,-82.09
1733037983915554940,1733037983915202379,5,-0.36,-0.46,1.97,13.301853000000001,-80.35,-80.8
1733037984015474829,1733037984015235424,5,-0.36,-0.46,1.97,13.433182666666667,-80.47,-81.0
1733037984115545792,1733037984115213632,5,-0.36,-0.46,1.97,13.539497666666668,-80.04,-80.59
1733037984215438598,1733037984215198755,5,-0.36,-0.46,1.97,13.652066,-80.55,-81.11
1733037984315499769,1733037984315205574,5,-0.36,-0.46,1.97,13.770888333333332,-80.11,-80.65
1733037984418585409,1733037984418328762,5,-0.36,-0.46,1.97,13.895964333333334,-80.13,-80.72
1733037984518139279,1733037984517984867,5,-0.36,-0.46,1.97,14.027294333333336,-80.1,-80.96
1733037984618172467,1733037984618057012,5,-0.36,-0.46,1.97,14.152370666666668,-80.18,-80.67
1733037984717993603,1733037984717794418,5,-0.36,-0.46,1.97,14.289954666666667,-81.18,-81.33
1733037984818188746,1733037984818017005,5,-0.36,-0.46,1.97,14.421284333333334,-80.6,-80.96
1733037984918637909,1733037984918354034,5,-0.36,-0.46,1.97,14.552614333333333,-82.02,-82.42
1733037985017907717,1733037985017725706,5,-0.36,-0.46,1.97,14.683944333333335,-81.81,-82.22
1733037985118272972,1733037985118027687,5,-0.36,-0.46,1.97,14.809020666666667,-82.56,-83.64
1733037985218181173,1733037985218019485,5,-0.36,-0.46,1.97,14.934097000000001,-81.55,-83.04
1733037985318366360,1733037985318159341,5,-0.36,-0.46,1.97,15.034158,-81.78,-83.69
1733037985417990161,1733037985417801618,5,-0.36,-0.46,1.97,15.296818,-83.07,-84.02
1733037985519145417,1733037985518862962,5,-0.36,-0.46,1.97,15.434401666666666,-81.4,-82.12
1733037985618210561,1733037985618055105,5,-0.36,-0.46,1.97,15.559477666666666,-81.05,-81.57
1733037985718356524,1733037985718163728,5,-0.36,-0.46,1.97,15.665792333333334,-81.01,-81.47
1733037985818266860,1733037985818088769,5,-0.36,-0.46,1.97,15.803376,-81.21,-81.69
1733037985918144220,1733037985917924165,5,-0.36,-0.46,1.97,15.928452333333334,-80.54,-81.09
1733037986018261858,1733037986018098592,5,-0.36,-0.46,1.97,16.072289666666666,-80.51,-80.81
1733037986119311860,1733037986119104146,5,-0.36,-0.46,1.97,16.184858000000002,-80.96,-81.31
1733037986217730116,1733037986217600107,5,-0.36,-0.46,1.97,16.341202666666668,-81.27,-82.72
1733037986318422747,1733037986318184852,5,-0.36,-0.46,1.97,16.453771,-80.67,-81.22
1733037986417889885,1733037986417775869,5,-0.36,-0.46,1.97,16.585100999999998,-80.28,-80.96
1733037986518142285,1733037986517899751,5,-0.36,-0.46,1.97,16.697669666666666,-81.17,-81.64
1733037986617923332,1733037986617813348,5,-0.36,-0.46,1.97,16.822746,-80.24,-80.78
1733037986718020021,1733037986717803001,5,-0.36,-0.46,1.97,16.954075666666665,-80.4,-81.24
1733037986818055934,1733037986817883253,5,-0.36,-0.46,1.97,17.079151999999997,-80.45,-80.88
1733037986918582506,1733037986918427705,5,-0.36,-0.46,1.97,17.229243333333333,-80.56,-80.87
1733037987018379984,1733037987018192529,5,-0.36,-0.46,1.97,17.348066,-80.63,-81.15
1733037987118828440,1733037987118668794,5,-0.36,-0.46,1.97,17.473142,-80.89,-81.1
1733037987218253213,1733037987218074321,5,-0.36,-0.46,1.97,17.604472333333334,-81.22,-82.49
1733037987318568866,1733037987318427085,5,-0.36,-0.46,1.97,17.735802333333336,-80.95,-81.31
1733037987418031208,1733037987417856931,5,-0.36,-0.46,1.97,17.860878666666668,-81.33,-82.38
1733037987518293431,1733037987518156051,5,-0.36,-0.46,1.97,17.967192999999998,-83.27,-84.73
1733037987617925982,1733037987617710828,5,-0.36,-0.46,1.97,18.104777,-82.12,-83.21
1733037987717849840,1733037987717649936,5,-0.36,-0.46,1.97,18.229853333333335,-83.04,-82.83
1733037988216978470,1733037988216683149,5,-0.36,-0.46,1.97,18.805203333333335,-84.3,-85.86
1733037988915678736,1733037988915256977,5,-0.36,-0.46,1.97,19.749529,-82.43,-82.28
1733037989015618088,1733037989015260457,5,-0.36,-0.46,1.97,19.912128,-81.94,-81.54
1733037989115572366,1733037989115269899,5,-0.36,-0.46,1.97,20.03095,-81.78,-81.81
1733037989216719808,1733037989216466426,5,-0.36,-0.46,1.97,20.156026333333333,-81.81,-82.88
1733037989316540259,1733037989316299438,5,-0.36,-0.46,1.97,20.268595,-81.59,-81.51
1733037989416642184,1733037989416386604,5,-0.36,-0.46,1.97,20.387417666666668,-82.99,-83.27
1733037989516550912,1733037989516311407,5,-0.36,-0.46,1.97,20.506239666666666,-81.26,-81.65
1733037989617566717,1733037989617247819,5,-0.36,-0.46,1.97,20.643823666666666,-81.72,-81.46
1733037989716878612,1733037989716620445,5,-0.36,-0.46,1.97,20.7689,-81.23,-81.64
1733037989816590638,1733037989816328525,5,-0.36,-0.46,1.97,20.906484000000003,-82.0,-81.97
1733037989915388850,1733037989915220022,5,-0.36,-0.46,1.97,21.037814,-80.87,-81.12
1733037990015527075,1733037990015237808,5,-0.36,-0.46,1.97,21.169144,-80.96,-81.39
1733037990115600160,1733037990115259885,5,-0.36,-0.46,1.97,21.287966,-80.82,-80.85
1733037990217651854,1733037990217357635,5,-0.36,-0.46,1.97,21.413042,-80.89,-81.29
1733037990317488749,1733037990317229032,5,-0.36,-0.46,1.97,21.556879666666664,-81.04,-81.04
1733037990417465113,1733037990417237997,5,-0.36,-0.46,1.97,21.706971666666664,-82.47,-82.28
1733037990517280797,1733037990517076015,5,-0.36,-0.46,1.97,21.825794000000002,-80.97,-81.39
1733037990618033796,1733037990617828130,5,-0.36,-0.46,1.97,21.944616,-80.86,-80.93
1733037990717428682,1733037990717319011,5,-0.36,-0.46,1.97,22.04467666666667,-81.02,-81.53
1733037990817466318,1733037990817275285,5,-0.36,-0.46,1.97,22.201022,-82.25,-81.97
1733037990917506647,1733037990917321920,5,-0.36,-0.46,1.97,22.332351666666668,-81.54,-81.5
1733037991017473468,1733037991017234086,5,-0.36,-0.46,1.97,22.469935666666668,-81.12,-81.27
1733037991117854406,1733037991117604017,5,-0.36,-0.46,1.97,22.569996333333332,-81.25,-81.56
1733037991217535267,1733037991217252254,5,-0.36,-0.46,1.97,22.68881933333333,-81.18,-81.38
1733037991317784484,1733037991317579746,5,-0.36,-0.46,1.97,22.813895666666667,-81.68,-81.97
1733037991417483735,1733037991417369365,5,-0.36,-0.46,1.97,22.957733333333334,-81.43,-81.9
1733037991516866305,1733037991516493320,5,-0.36,-0.46,1.97,23.101570999999996,-82.88,-82.37
1733037991616560092,1733037991616477489,5,-0.36,-0.46,1.97,23.245408666666666,-81.44,-81.46
1733037991716794938,1733037991716448307,5,-0.36,-0.46,1.97,23.389246333333332,-82.53,-82.47
1733037991816998158,1733037991816381454,5,-0.36,-0.46,1.97,23.520576000000002,-82.7,-82.72
1733037991917419753,1733037991916358947,5,-0.36,-0.46,1.97,23.626890333333336,-83.31,-84.49
1733037992016922464,1733037992016645669,5,-0.36,-0.46,1.97,23.720697666666666,-84.04,-83.75
1733037992115758545,1733037992115247249,5,-0.36,-0.46,1.97,23.820758333333334,-83.83,-84.13
1733037992215608340,1733037992215239763,5,-0.36,-0.46,1.97,23.945834666666666,-84.63,-85.75
1733037992315739953,1733037992315235137,5,-0.36,-0.46,1.97,24.064656666666668,-85.17,-85.55
1733037992418273016,1733037992418071508,5,-0.36,-0.46,1.97,24.189733,-84.48,-86.6
1733037992518250130,1733037992518068552,5,-0.36,-0.46,1.97,24.296048000000003,-84.92,-87.52
1733037992619093056,1733037992618854284,5,-0.36,-0.46,1.97,24.408616333333338,-86.09,-86.16
1733037992718236717,1733037992718039274,5,-0.36,-0.46,1.97,24.533692666666667,-86.35,-90.0
1733037992818625214,1733037992818469285,5,-0.36,-0.46,1.97,24.665022333333336,-84.98,-86.92
1733037992918296415,1733037992918143510,5,-0.36,-0.46,1.97,24.80886,-86.67,-88.83
1733037993018289782,1733037993018121957,5,-0.36,-0.46,1.97,24.946444,-86.14,-87.22
1733037993118007144,1733037993117746114,5,-0.36,-0.46,1.97,25.096535333333332,-85.52,-89.62
1733037993218423851,1733037993218240976,5,-0.36,-0.46,1.97,25.221611666666664,-85.46,-86.13
1733037993318236180,1733037993318093538,5,-0.36,-0.46,1.97,25.446749,-87.05,-87.53
1733037993418914514,1733037993418706655,5,-0.36,-0.46,1.97,25.578079000000002,-87.97,-91.63
1733037993518496052,1733037993518345117,5,-0.36,-0.46,1.97,25.690647333333335,-87.15,-88.59
1733037993618504446,1733037993618291139,5,-0.36,-0.46,1.97,25.815723666666667,-86.45,-88.84
1733037993718465706,1733037993718201875,5,-0.36,-0.46,1.97,25.92203866666667,-85.43,-89.19
1733037993818850394,1733037993818602323,5,-0.36,-0.46,1.97,26.05962266666667,-84.04,-88.2
1733037993948938905,1733037993948815822,5,-0.36,-0.46,1.97,26.184699,-85.04,-92.72
1733037994116383941,1733037994116285085,5,-0.36,-0.46,1.97,26.378567000000004,-85.92,-88.59
1733037994216804378,1733037994216572761,5,-0.36,-0.46,1.97,26.584943,-85.94,-86.36
1733037994316613763,1733037994316437959,5,-0.36,-0.46,1.97,26.791318,-84.46,-85.94
1733037994416831614,1733037994416584730,5,-0.36,-0.46,1.97,26.94140966666667,-84.76,-86.05
1733037994715507530,1733037994715203523,5,-0.36,-0.46,1.97,27.166546666666665,-83.74,-85.09
1733037994821714965,1733037994821540594,5,-0.36,-0.46,1.97,27.404191666666666,-84.61,-84.9
1733037994917563465,1733037994917412757,5,-0.36,-0.46,1.97,27.641835999999998,-85.64,-85.63
1733037995015704094,1733037995015222072,5,-0.36,-0.46,1.97,27.773165666666667,-84.52,-84.63
1733037995115592129,1733037995115198373,5,-0.36,-0.46,1.97,27.910749666666664,-82.68,-84.6
1733037995215507031,1733037995215211629,5,-0.36,-0.46,1.97,28.04208,-82.88,-83.17
1733037995316372550,1733037995316151618,5,-0.36,-0.46,1.97,28.185917666666665,-82.2,-82.21
1733037995416549605,1733037995416263103,5,-0.36,-0.46,1.97,28.31724733333333,-81.93,-82.11
1733037995515589892,1733037995515211105,5,-0.36,-0.46,1.97,28.448577333333333,-81.65,-82.03
1733037995615458206,1733037995615199327,5,-0.36,-0.46,1.97,28.579907333333335,-82.31,-82.42
1733037995716581835,1733037995716332197,5,-0.36,-0.46,1.97,28.704983666666664,-81.94,-81.97
1733037995815521968,1733037995815205335,5,-0.36,-0.46,1.97,28.83006,-81.56,-81.59
1733037995915753961,1733037995915255784,5,-0.36,-0.46,1.97,28.930120666666667,-82.44,-82.37
1733037996018175409,1733037996017954349,5,-0.36,-0.46,1.97,29.023927999999998,-81.46,-82.15
1733037996117738926,1733037996117631435,5,-0.36,-0.46,1.97,29.105227333333332,-81.59,-81.94
1733037996217386285,1733037996217183113,5,-0.36,-0.46,1.97,29.192780999999997,-81.14,-81.41
1733037996317637204,1733037996317386865,5,-0.36,-0.46,1.97,29.286588,-82.69,-82.55
1733037996417622959,1733037996417099475,5,-0.36,-0.46,1.97,29.349126000000002,-81.3,-81.57
1733037996517450662,1733037996517221450,5,-0.36,-0.46,1.97,29.392903,-81.98,-82.59
1733037996617861372,1733037996617541313,5,-0.36,-0.46,1.97,29.417918,-81.64,-81.98
1733037996717349962,1733037996717222452,5,-0.36,-0.46,1.97,29.442933,-81.79,-82.11
1733037996817228011,1733037996817157983,5,-0.36,-0.46,1.97,29.480455666666668,-81.93,-81.89
1733037996917541149,1733037996917304277,5,-0.36,-0.46,1.97,29.51172466666667,-82.53,-82.28
1733037997017412857,1733037997017208814,5,-0.36,-0.46,1.97,29.530486,-83.26,-83.36
1733037997117476330,1733037997117342948,5,-0.36,-0.46,1.97,29.530486,-84.45,-84.39
1733037997217288847,1733037997217041969,5,-0.36,-0.46,1.97,29.530486,-84.34,-85.28
1733037997317497413,1733037997317212820,5,-0.36,-0.46,1.97,29.568009333333332,-83.39,-86.62
1733037997417980176,1733037997417814731,5,-0.36,-0.46,1.97,29.586770666666666,-84.5,-84.61
1733037997517742902,1733037997517398357,5,-0.36,-0.46,1.97,29.599278666666663,-87.8,-87.25
1733037997617579866,1733037997617406129,5,-0.36,-0.46,1.97,29.561755333333334,-84.3,-84.55
1733037997717537507,1733037997717275142,5,-0.36,-0.46,1.97,29.568008666666667,-87.89,-87.61
1733037997817027046,1733037997816750049,5,-0.36,-0.46,1.97,29.561755,-85.55,-85.38
1733037997917699646,1733037997917050123,5,-0.36,-0.46,1.97,29.605531666666668,-85.32,-87.33
1733037998017370929,1733037998017145872,5,-0.36,-0.46,1.97,29.586770333333334,-84.78,-84.43
1733037998117294674,1733037998117065668,5,-0.36,-0.46,1.97,29.57426266666667,-85.31,-85.12
1733037998217392865,1733037998217113494,5,-0.36,-0.46,1.97,29.53674033333333,-84.3,-84.59
1733037998317994869,1733037998317678451,5,-0.36,-0.46,1.97,29.54299466666667,-84.15,-84.91
1733037998417576707,1733037998417309761,5,-0.36,-0.46,1.97,29.549248000000002,-84.28,-84.2
1733037998517507069,1733037998517266988,5,-0.36,-0.46,1.97,29.56175566666667,-84.23,-85.17
1733037998617626756,1733037998617297887,5,-0.36,-0.46,1.97,29.56175566666667,-84.27,-86.37
1733037998717492949,1733037998717190504,5,-0.36,-0.46,1.97,29.555502333333333,-84.32,-84.37
1733037998817755943,1733037998817498445,5,-0.36,-0.46,1.97,29.549248000000002,-86.84,-88.36
1733037998948660788,1733037998948440313,5,-0.36,-0.46,1.97,29.549248000000002,-84.72,-84.81
1733037999017657460,1733037999017313241,5,-0.36,-0.46,1.97,29.549248000000002,-85.27,-85.97
1733037999117601526,1733037999117332458,5,-0.36,-0.46,1.97,29.549248000000002,-84.43,-84.34
1733037999217553549,1733037999217339754,5,-0.36,-0.46,1.97,29.53674033333333,-84.09,-84.28
1733037999316769141,1733037999316460609,5,-0.36,-0.46,1.97,29.54299366666667,-83.62,-85.65
1733037999416667235,1733037999416435003,5,-0.36,-0.46,1.97,29.53674033333333,-83.94,-84.28
1733037999516527395,1733037999516364812,5,-0.36,-0.46,1.97,29.549248000000002,-83.18,-83.98
1733037999616915898,1733037999616538047,5,-0.36,-0.46,1.97,29.53674033333333,-83.28,-85.32
1733037999717091739,1733037999716598033,5,-0.36,-0.46,1.97,29.524232333333334,-83.49,-83.81
1733037999816676816,1733037999816433429,5,-0.36,-0.46,1.97,29.474202000000002,-83.32,-84.8
1733037999916930196,1733037999916415214,5,-0.36,-0.46,1.97,29.430425666666668,-83.55,-84.14
1733038000016728209,1733038000016556739,5,-0.36,-0.46,1.97,29.386649000000002,-83.57,-84.07
1733038000518370018,1733038000518178224,5,-0.36,-0.46,1.97,29.186526666666666,-83.43,-83.92
1733038000615490075,1733038000615211725,5,-0.36,-0.46,1.97,29.142749666666663,-83.67,-84.3
1733038001317703374,1733038001317489624,5,-0.36,-0.46,1.97,28.773775333333333,-83.93,-85.21
1733038001715545666,1733038001715186119,5,-0.36,-0.46,1.97,28.442323333333334,-85.94,-86.46
1733038001817441284,1733038001817297935,5,-0.36,-0.46,1.97,28.34226166666667,-84.48,-85.56
1733038001918434380,1733038001918337106,5,-0.36,-0.46,1.97,28.229693,-84.96,-87.47
1733038002017282673,1733038002016970157,5,-0.36,-0.46,1.97,28.104617333333334,-84.13,-86.39
1733038002117488779,1733038002117265224,5,-0.36,-0.46,1.97,28.004556666666662,-85.46,-88.11
1733038002218195598,1733038002218064308,5,-0.36,-0.46,1.97,27.929511666666667,-86.08,-88.3
1733038002316555395,1733038002316349744,5,-0.36,-0.46,1.97,27.816943,-85.89,-88.9
1733038002415551482,1733038002415251016,5,-0.36,-0.46,1.97,27.71688233333333,-86.28,-88.94
1733038002515875852,1733038002515244007,5,-0.36,-0.46,1.97,27.61682066666667,-86.98,-90.95
1733038002616602752,1733038002615340471,5,-0.36,-0.46,1.97,27.535520666666667,-85.88,-90.18
1733038002715595567,1733038002715216636,5,-0.36,-0.46,1.97,27.447966999999995,-85.99,-90.31
1733038002815383286,1733038002815205812,5,-0.36,-0.46,1.97,27.341652666666665,-85.96,-91.52
1733038002915763956,1733038002915186405,5,-0.36,-0.46,1.97,27.222830666666667,-85.85,-91.36
1733038003017957483,1733038003017818212,5,-0.36,-0.46,1.97,27.110262000000002,-86.2,-90.87
1733038003117518532,1733038003117262840,5,-0.36,-0.46,1.97,27.022708333333338,-86.15,-93.26
1733038003217417685,1733038003217160224,5,-0.36,-0.46,1.97,26.94766233333333,-86.95,-92.55
1733038003317269415,1733038003317094802,5,-0.36,-0.46,1.97,26.847601666666666,-88.02,-93.83
1733038003417917196,1733038003417542457,5,-0.36,-0.46,1.97,26.728779666666668,-87.31,-94.45
1733038003518365564,1733038003518055677,5,-0.36,-0.46,1.97,26.622465333333334,-87.56,-93.81
1733038003617780024,1733038003617670774,5,-0.36,-0.46,1.97,26.541165666666668,-86.7,-93.49
1733038003718339810,1733038003717909574,5,-0.36,-0.46,1.97,26.453612000000003,-86.58,-93.07
1733038003817477835,1733038003817290782,5,-0.36,-0.46,1.97,26.36605833333333,-87.05,-92.49
1733038003918397259,1733038003918112754,5,-0.36,-0.46,1.97,26.284758999999998,-87.17,-90.84
1733038004017911786,1733038004017611980,5,-0.36,-0.46,1.97,26.197205999999998,-87.37,-90.8
1733038004117989975,1733038004117795944,5,-0.36,-0.46,1.97,26.090891666666668,-86.19,-88.88
1733038004217354741,1733038004217209100,5,-0.36,-0.46,1.97,26.003338666666668,-86.46,-88.27
1733038004317745379,1733038004317465305,5,-0.36,-0.46,1.97,25.909531333333334,-85.29,-87.0
1733038004417314164,1733038004417151212,5,-0.36,-0.46,1.97,25.82823133333333,-85.15,-86.28
1733038004517584415,1733038004517485141,5,-0.36,-0.46,1.97,25.721916333333336,-84.21,-84.67
1733038004617633774,1733038004617390394,5,-0.36,-0.46,1.97,25.63436333333333,-84.55,-86.42
1733038004717642051,1733038004717543601,5,-0.36,-0.46,1.97,25.553063666666663,-84.18,-84.7
1733038004817707965,1733038004817305088,5,-0.36,-0.46,1.97,25.453003,-85.21,-85.51
1733038004917564293,1733038004917360782,5,-0.36,-0.46,1.97,25.346688,-83.68,-83.75
1733038005017701778,1733038005017476320,5,-0.36,-0.46,1.97,25.221612333333336,-83.17,-83.52
1733038005148386446,1733038005148117065,5,-0.36,-0.46,1.97,25.109043666666665,-83.07,-85.36
1733038005217201286,1733038005217064619,5,-0.36,-0.46,1.97,25.008983,-85.19,-85.53
1733038005317292951,1733038005317200183,5,-0.36,-0.46,1.97,24.896414000000004,-82.29,-82.5
1733038005417347442,1733038005417168378,5,-0.36,-0.46,1.97,24.783845666666668,-82.93,-83.34
1733038005517483737,1733038005517287254,5,-0.36,-0.46,1.97,24.658769333333336,-82.82,-83.07
1733038005618226283,1733038005617954730,5,-0.36,-0.46,1.97,24.546200666666664,-82.6,-82.53
1733038005717911522,1733038005717787742,5,-0.36,-0.46,1.97,24.42737766666667,-81.88,-81.67
1733038005819256707,1733038005819081783,5,-0.36,-0.46,1.97,24.308555000000002,-82.26,-82.18
1733038005918301562,1733038005918039321,5,-0.36,-0.46,1.97,24.17097166666667,-83.76,-84.98
1733038006019041531,1733038006018787384,5,-0.36,-0.46,1.97,24.033387666666666,-81.28,-81.5
1733038006118143543,1733038006117927789,5,-0.36,-0.46,1.97,23.902057666666668,-81.82,-82.48
1733038006218269918,1733038006218007802,5,-0.36,-0.46,1.97,23.77072766666667,-81.07,-81.46
1733038006317849308,1733038006317727088,5,-0.36,-0.46,1.97,23.633144333333334,-81.13,-81.32
1733038006418782834,1733038006418554544,5,-0.36,-0.46,1.97,23.520576000000002,-80.94,-81.13
1733038006518184578,1733038006518057823,5,-0.36,-0.46,1.97,23.420514666666666,-80.86,-82.2
1733038006618874067,1733038006618685245,5,-0.36,-0.46,1.97,23.307946,-80.82,-81.07
1733038006718058386,1733038006717900276,5,-0.36,-0.46,1.97,23.151600666666667,-81.2,-81.42
1733038006818119675,1733038006817952156,5,-0.36,-0.46,1.97,23.001509666666667,-80.89,-81.25
1733038007315602839,1733038007315232515,5,-0.36,-0.46,1.97,22.463682333333335,-80.55,-81.34
1733038007416708646,1733038007416388273,5,-0.36,-0.46,1.97,22.307337,-81.19,-81.4
1733038007517177313,1733038007516931056,5,-0.36,-0.46,1.97,22.176006666666666,-81.13,-81.18
1733038007616795918,1733038007616301536,5,-0.36,-0.46,1.97,22.050930333333337,-80.75,-81.13
1733038007716640517,1733038007716229438,5,-0.36,-0.46,1.97,21.913346999999998,-80.78,-81.12
1733038007818418363,1733038007818100214,5,-0.36,-0.46,1.97,21.794524666666664,-80.96,-82.03
1733038007917869659,1733038007917690515,5,-0.36,-0.46,1.97,21.66944833333333,-81.28,-82.06
1733038008018604326,1733038008018452882,5,-0.36,-0.46,1.97,21.538117666666665,-81.3,-82.78
1733038008116893308,1733038008116620063,5,-0.36,-0.46,1.97,21.40053366666667,-81.49,-81.67
1733038008216776854,1733038008216554403,5,-0.36,-0.46,1.97,21.275457333333332,-82.94,-83.06
1733038008316523873,1733038008316291570,5,-0.36,-0.46,1.97,21.15663533333333,-81.83,-82.85
1733038008416776267,1733038008416532278,5,-0.36,-0.46,1.97,21.044067000000002,-82.81,-83.1
1733038008517256281,1733038008517107725,5,-0.36,-0.46,1.97,20.900229333333332,-81.99,-82.59
1733038008616629829,1733038008616412639,5,-0.36,-0.46,1.97,20.743884,-82.43,-83.69
1733038008716903003,1733038008716569662,5,-0.36,-0.46,1.97,20.600046333333335,-82.82,-83.79
1733038008817639632,1733038008817471981,5,-0.36,-0.46,1.97,20.462463,-83.61,-85.5
1733038008916735904,1733038008916321992,5,-0.36,-0.46,1.97,20.324879666666664,-83.78,-86.31
1733038009017590439,1733038009017072916,5,-0.36,-0.46,1.97,20.030950333333333,-84.66,-89.19
1733038009116706609,1733038009116536855,5,-0.36,-0.46,1.97,19.905874,-85.42,-91.88
1733038009216829237,1733038009216613531,5,-0.36,-0.46,1.97,19.762036333333338,-84.55,-88.01
1733038009315537500,1733038009315230131,5,-0.36,-0.46,1.97,19.661975333333334,-84.25,-86.55
1733038009415632056,1733038009415210485,5,-0.36,-0.46,1.97,19.524391333333337,-83.25,-85.89
1733038009515683425,1733038009515203237,5,-0.36,-0.46,1.97,19.424330666666666,-83.86,-86.44
1733038009618533381,1733038009618356704,5,-0.36,-0.46,1.97,19.305508666666668,-82.44,-83.53
1733038009718282217,1733038009718096971,5,-0.36,-0.46,1.97,19.205447666666668,-81.56,-82.81
1733038009818381540,1733038009818248271,5,-0.36,-0.46,1.97,19.099132666666666,-82.06,-82.57
1733038009918440222,1733038009918202161,5,-0.36,-0.46,1.97,18.967802000000002,-81.72,-82.33
1733038010018528610,1733038010018264293,5,-0.36,-0.46,1.97,18.84898,-81.11,-81.35
1733038010149488234,1733038010149273872,5,-0.36,-0.46,1.97,18.71139666666667,-81.25,-81.58
1733038010218227398,1733038010217876195,5,-0.36,-0.46,1.97,18.611335999999998,-81.83,-82.09
1733038010318510942,1733038010318326234,5,-0.36,-0.46,1.97,18.49251333333333,-80.48,-81.1
1733038010418258233,1733038010418030738,5,-0.36,-0.46,1.97,18.373690333333332,-80.61,-81.06
1733038010519631569,1733038010519465684,5,-0.36,-0.46,1.97,18.236107,-80.65,-81.28
1733038010618415086,1733038010618190526,5,-0.36,-0.46,1.97,18.111030666666668,-80.73,-80.97
1733038010718651263,1733038010718421936,5,-0.36,-0.46,1.97,17.985955,-80.37,-80.7
1733038010818322313,1733038010818122863,5,-0.36,-0.46,1.97,17.860878666666668,-81.02,-81.37
1733038010918655652,1733038010918462514,5,-0.36,-0.46,1.97,17.742056666666667,-80.38,-80.77
1733038011018777923,1733038011018492460,5,-0.36,-0.46,1.97,17.616980666666667,-80.55,-81.46
1733038011118559853,1733038011118379354,5,-0.36,-0.46,1.97,17.498158,-80.55,-81.17
1733038011218137964,1733038011217993736,5,-0.36,-0.46,1.97,17.379335333333334,-80.6,-81.23
1733038011318621639,1733038011318454027,5,-0.36,-0.46,1.97,17.260512333333335,-81.09,-81.27
1733038011418163199,1733038011418082475,5,-0.36,-0.46,1.97,17.147943666666666,-81.75,-82.39
1733038011518721314,1733038011518552541,5,-0.36,-0.46,1.97,17.035375000000002,-80.58,-81.83
1733038011618511064,1733038011618259668,5,-0.36,-0.46,1.97,16.935314333333334,-80.96,-81.89
1733038011718099762,1733038011717952966,5,-0.36,-0.46,1.97,16.822746,-81.36,-82.51
1733038011818159485,1733038011818036556,5,-0.36,-0.46,1.97,16.716431666666665,-81.15,-82.45
1733038011918733618,1733038011918471336,5,-0.36,-0.46,1.97,16.585101666666667,-81.7,-84.1
1733038012018283097,1733038012018039226,5,-0.36,-0.46,1.97,16.441264,-82.01,-86.22
1733038012118470713,1733038012118204832,5,-0.36,-0.46,1.97,16.278665,-82.52,-88.1
1733038012218152089,1733038012217909574,5,-0.36,-0.46,1.97,16.12232,-82.58,-88.72
1733038012318227741,1733038012318002223,5,-0.36,-0.46,1.97,15.984736333333332,-82.17,-88.4
1733038012816618470,1733038012816398382,5,-0.36,-0.46,1.97,15.509447,-84.6,-86.63
1733038012916539011,1733038012916367530,5,-0.36,-0.46,1.97,15.415639666666666,-81.54,-82.62
1733038013016439276,1733038013016253471,5,-0.36,-0.46,1.97,15.359355666666666,-82.68,-84.09
1733038013115589991,1733038013115243434,5,-0.36,-0.46,1.97,15.246787333333335,-81.03,-81.78
1733038013218095298,1733038013218003749,5,-0.36,-0.46,1.97,15.171742,-80.76,-81.65
1733038013318055776,1733038013317885875,5,-0.36,-0.46,1.97,15.065427,-81.03,-81.75
1733038013418359714,1733038013418098211,5,-0.36,-0.46,1.97,15.02165,-81.04,-81.67
1733038013518586275,1733038013518396139,5,-0.36,-0.46,1.97,14.959111666666667,-80.36,-81.6
1733038014215529876,1733038014215235233,5,-0.36,-0.46,1.97,14.515091666666665,-80.62,-81.39
1733038014315430810,1733038014315233707,5,-0.36,-0.46,1.97,14.477569,-81.12,-81.94
1733038014417649247,1733038014417470932,5,-0.36,-0.46,1.97,14.433791999999999,-81.62,-82.03
1733038014516483326,1733038014516259670,5,-0.36,-0.46,1.97,14.383761666666667,-80.44,-81.66
1733038014617990946,1733038014617716789,5,-0.36,-0.46,1.97,14.339985,-81.02,-81.76
1733038014716673452,1733038014716588258,5,-0.36,-0.46,1.97,14.308715999999999,-82.15,-83.8
1733038014815647578,1733038014815280675,5,-0.36,-0.46,1.97,14.296208333333334,-80.43,-81.36
1733038014915687142,1733038014915251970,5,-0.36,-0.46,1.97,14.271193000000002,-80.59,-82.33
1733038015015620268,1733038015015234231,5,-0.36,-0.46,1.97,14.233670333333334,-80.8,-81.7
1733038015115569536,1733038015115259408,5,-0.36,-0.46,1.97,14.208655,-80.55,-81.64
1733038015216918529,1733038015216559886,5,-0.36,-0.46,1.97,14.196147333333334,-80.71,-81.6
1733038015315590409,1733038015315221548,5,-0.36,-0.46,1.97,14.202401,-80.79,-81.99
1733038015415539262,1733038015415234327,5,-0.36,-0.46,1.97,14.177385666666666,-80.93,-82.42
1733038015518399376,1733038015518182039,5,-0.36,-0.46,1.97,14.146116333333334,-81.07,-82.9
1733038015617353823,1733038015617096424,5,-0.36,-0.46,1.97,14.121101000000001,-81.15,-82.69
1733038015717659785,1733038015717455387,5,-0.36,-0.46,1.97,14.121101000000001,-83.27,-85.0
1733038015817818808,1733038015817742824,5,-0.36,-0.46,1.97,14.102339666666666,-81.9,-83.51
1733038015917287733,1733038015917147874,5,-0.36,-0.46,1.97,14.071070666666666,-82.56,-84.44
1733038016017573563,1733038016017356634,5,-0.36,-0.46,1.97,14.008532666666666,-82.49,-85.55
1733038016117536527,1733038016117368936,5,-0.36,-0.46,1.97,13.983517666666666,-82.59,-84.0
1733038016217132885,1733038016216717481,5,-0.36,-0.46,1.97,13.939741,-83.0,-84.34
1733038016316881942,1733038016316414833,5,-0.36,-0.46,1.97,13.933487333333332,-83.8,-85.08
1733038016416888735,1733038016416622161,5,-0.36,-0.46,1.97,13.902218333333332,-83.37,-85.47
1733038016516779236,1733038016516503572,5,-0.36,-0.46,1.97,13.877203333333334,-84.33,-88.24
1733038016616844840,1733038016616423606,5,-0.36,-0.46,1.97,13.845934333333334,-83.5,-85.72
1733038016716644788,1733038016716361522,5,-0.36,-0.46,1.97,13.827173,-84.49,-86.61
1733038016816961982,1733038016816648244,5,-0.36,-0.46,1.97,13.814665,-83.6,-86.4
1733038016916792126,1733038016916540384,5,-0.36,-0.46,1.97,13.808411,-83.72,-88.44
1733038017016811431,1733038017016428709,5,-0.36,-0.46,1.97,13.777142,-83.5,-86.77
1733038017116839359,1733038017116472482,5,-0.36,-0.46,1.97,13.770888333333332,-82.71,-85.9
1733038017216767927,1733038017216456413,5,-0.36,-0.46,1.97,13.752127,-81.88,-85.73
1733038017315341983,1733038017315181970,5,-0.36,-0.46,1.97,13.745873000000001,-81.15,-84.47
1733038017415850387,1733038017415244340,5,-0.36,-0.46,1.97,13.733365666666666,-82.2,-84.89
1733038017515618883,1733038017515206098,5,-0.36,-0.46,1.97,13.689588999999998,-80.57,-83.29
1733038017615368833,1733038017615201711,5,-0.36,-0.46,1.97,13.652066,-81.57,-83.97
1733038017715751769,1733038017715212821,5,-0.36,-0.46,1.97,13.620796666666665,-80.99,-82.37
1733038017815706974,1733038017815216302,5,-0.36,-0.46,1.97,13.614542666666667,-81.5,-83.56
1733038017915601639,1733038017915191650,5,-0.36,-0.46,1.97,13.589527333333335,-81.21,-81.99
1733038018015689380,1733038018015204906,5,-0.36,-0.46,1.97,13.564512333333333,-80.99,-82.21
1733038018119127569,1733038018118949651,5,-0.36,-0.46,1.97,13.583273999999998,-81.05,-81.22
1733038018218173712,1733038018217948675,5,-0.36,-0.46,1.97,13.583274000000001,-81.11,-82.12
1733038018318676890,1733038018318354368,5,-0.36,-0.46,1.97,13.577020333333332,-81.1,-81.29
1733038018418285749,1733038018418063879,5,-0.36,-0.46,1.97,13.570766666666666,-81.35,-81.52
1733038018518448090,1733038018518285989,5,-0.36,-0.46,1.97,13.564512666666667,-81.55,-81.68
1733038018618494181,1733038018618333578,5,-0.36,-0.46,1.97,13.558259,-81.29,-81.41
1733038018718153596,1733038018718001127,5,-0.36,-0.46,1.97,13.539497333333335,-81.4,-81.95
1733038018818156916,1733038018818065404,5,-0.36,-0.46,1.97,13.539497333333335,-81.83,-81.68
1733038018918150745,1733038018918008089,5,-0.36,-0.46,1.97,13.526989333333333,-82.86,-84.76
1733038019018324069,1733038019018143177,5,-0.36,-0.46,1.97,13.526989333333333,-81.06,-81.28
1733038019118142985,1733038019117935180,5,-0.36,-0.46,1.97,13.526989333333333,-81.5,-83.15
1733038019218127798,1733038019217931270,5,-0.36,-0.46,1.97,13.545751000000001,-82.57,-82.28
1733038019318396632,1733038019318051338,5,-0.36,-0.46,1.97,13.552004666666667,-81.06,-81.35
1733038019418078213,1733038019417912721,5,-0.36,-0.46,1.97,13.552004666666667,-80.9,-81.35
1733038019518157419,1733038019517990350,5,-0.36,-0.46,1.97,13.526989333333333,-81.23,-81.43
1733038019618600103,1733038019618279218,5,-0.36,-0.46,1.97,13.520735666666667,-81.05,-81.55
1733038019718285018,1733038019718148708,5,-0.36,-0.46,1.97,13.514481666666669,-80.98,-81.19
1733038019817895016,1733038019817748308,5,-0.36,-0.46,1.97,13.520735333333334,-80.88,-80.96
1733038019918455424,1733038019918284893,5,-0.36,-0.46,1.97,13.514481666666667,-81.32,-81.82
1733038020015663602,1733038020015254974,5,-0.36,-0.46,1.97,13.508228,-80.9,-80.98
1733038020115496700,1733038020115210533,5,-0.36,-0.46,1.97,13.483213,-81.13,-81.68
1733038020215594139,1733038020215188026,5,-0.36,-0.46,1.97,13.470705333333333,-82.11,-82.05
1733038020315694561,1733038020315197467,5,-0.36,-0.46,1.97,13.426928666666667,-81.18,-81.33
1733038020415535585,1733038020415209293,5,-0.36,-0.46,1.97,13.383152,-81.79,-81.94
1733038020516004775,1733038020515204668,5,-0.36,-0.46,1.97,13.345629000000002,-81.44,-81.66
1733038020616779238,1733038020616521120,5,-0.36,-0.46,1.97,13.308106,-81.32,-81.42
1733038020716984040,1733038020716702699,5,-0.36,-0.46,1.97,13.264329333333334,-81.44,-81.95
1733038020815850937,1733038020815214872,5,-0.36,-0.46,1.97,13.220552666666668,-81.33,-81.28
1733038020915526292,1733038020915206909,5,-0.36,-0.46,1.97,13.183030333333333,-82.02,-82.01
1733038021015408801,1733038021015211343,5,-0.36,-0.46,1.97,13.145507333333333,-81.74,-81.79
1733038021116601066,1733038021116266012,5,-0.36,-0.46,1.97,13.095477,-81.85,-84.13
1733038021215616861,1733038021215234041,5,-0.36,-0.46,1.97,13.051700000000002,-81.78,-83.12
1733038021316167102,1733038021315214395,5,-0.36,-0.46,1.97,13.001669666666666,-82.16,-84.09
1733038021415420952,1733038021415208339,5,-0.36,-0.46,1.97,12.926623999999999,-81.39,-81.84
1733038021518563145,1733038021518412590,5,-0.36,-0.46,1.97,12.870339666666666,-81.27,-81.93
1733038021617321646,1733038021617182016,5,-0.36,-0.46,1.97,12.814055333333334,-81.53,-84.2
1733038021717252072,1733038021717116832,5,-0.36,-0.46,1.97,12.757771,-81.07,-82.22
1733038021817127143,1733038021816798448,5,-0.36,-0.46,1.97,12.670217666666666,-80.7,-81.31
1733038021917858954,1733038021917744398,5,-0.36,-0.46,1.97,12.601425999999998,-80.81,-82.88
1733038022018639061,1733038022018453598,5,-0.36,-0.46,1.97,12.545141666666666,-79.93,-81.37
1733038022118276883,1733038022118092298,5,-0.36,-0.46,1.97,12.463842333333332,-80.07,-81.66
1733038022218418756,1733038022218043565,5,-0.36,-0.46,1.97,12.382542666666666,-80.2,-81.16
1733038022318373015,1733038022318005084,5,-0.36,-0.46,1.97,12.301243333333332,-81.08,-81.58
1733038022417944100,1733038022417717456,5,-0.36,-0.46,1.97,12.238705000000001,-80.48,-82.26
1733038022518066713,1733038022517965793,5,-0.36,-0.46,1.97,12.163659333333333,-80.62,-81.25
1733038022618387381,1733038022618206739,5,-0.36,-0.46,1.97,12.069852,-80.46,-81.33
1733038022718448907,1733038022718258619,5,-0.36,-0.46,1.97,11.976045000000001,-80.55,-80.71
1733038022817946404,1733038022817696332,5,-0.36,-0.46,1.97,11.888491666666667,-80.72,-80.79
1733038022918296068,1733038022918138265,5,-0.36,-0.46,1.97,11.807192333333333,-81.05,-81.45
1733038023018969098,1733038023018228530,5,-0.36,-0.46,1.97,11.738400666666665,-80.61,-81.01
1733038023118452559,1733038023118310451,5,-0.36,-0.46,1.97,11.657100999999999,-81.49,-81.23
1733038023218394237,1733038023218017578,5,-0.36,-0.46,1.97,11.575801333333333,-81.37,-81.26
1733038023318618965,1733038023318309068,5,-0.36,-0.46,1.97,11.456978666666666,-81.37,-81.82
1733038023418154657,1733038023417972803,5,-0.36,-0.46,1.97,11.363171666666668,-82.17,-82.35
1733038023517637745,1733038023517490625,5,-0.36,-0.46,1.97,11.256856999999998,-83.64,-84.27
1733038023617669488,1733038023617447137,5,-0.36,-0.46,1.97,11.16305,-82.68,-84.63
1733038023718587333,1733038023718411207,5,-0.36,-0.46,1.97,11.012958333333332,-83.88,-87.11
1733038023816883834,1733038023816561222,5,-0.36,-0.46,1.97,10.881628333333333,-84.15,-90.32
1733038023916562747,1733038023916354417,5,-0.36,-0.46,1.97,10.744044333333335,-83.19,-88.25
1733038024016886090,1733038024016377687,5,-0.36,-0.46,1.97,10.675252666666665,-82.42,-85.53
1733038024116787837,1733038024116618156,5,-0.36,-0.46,1.97,10.593953,-81.91,-84.6
1733038024216464799,1733038024216349124,5,-0.36,-0.46,1.97,10.543922666666667,-82.17,-83.05
1733038024316857936,1733038024316496849,5,-0.36,-0.46,1.97,10.450115333333335,-81.03,-81.65
1733038024416742943,1733038024416452646,5,-0.36,-0.46,1.97,10.356308333333333,-80.84,-81.31
1733038024516562093,1733038024516419649,5,-0.36,-0.46,1.97,10.249993333333334,-80.66,-81.39
1733038024616664195,1733038024616389036,5,-0.36,-0.46,1.97,10.137425,-80.96,-81.32
1733038024716735587,1733038024716459751,5,-0.36,-0.46,1.97,10.037363999999998,-81.1,-81.51
1733038024816796471,1733038024816625118,5,-0.36,-0.46,1.97,9.937303333333334,-81.5,-81.7
1733038024916712620,1733038024916368246,5,-0.36,-0.46,1.97,9.837242333333334,-81.18,-81.37
1733038025015743971,1733038025015208244,5,-0.36,-0.46,1.97,9.705912333333334,-82.82,-83.22
1733038025115643943,1733038025115131616,5,-0.36,-0.46,1.97,9.574582333333332,-82.63,-83.99
1733038025215767559,1733038025215260505,5,-0.36,-0.46,1.97,9.424491000000002,-83.34,-86.75
1733038025518168335,1733038025518042087,5,-0.36,-0.46,1.97,9.224369000000001,-83.86,-84.8
1733038025618431461,1733038025618247270,5,-0.36,-0.46,1.97,9.030501,-80.59,-81.79
1733038025717515733,1733038025717274427,5,-0.36,-0.46,1.97,8.867901666666667,-80.55,-80.85
1733038025816775385,1733038025816427946,5,-0.36,-0.46,1.97,8.774094666666667,-80.93,-81.32
1733038025918280374,1733038025918157339,5,-0.36,-0.46,1.97,8.53645,-81.54,-82.7
1733038026018412997,1733038026018197298,5,-0.36,-0.46,1.97,8.380104666666666,-82.21,-85.94
1733038026118098292,1733038026117942810,5,-0.36,-0.46,1.97,8.211252,-82.19,-88.85
1733038026218425562,1733038026218233823,5,-0.36,-0.46,1.97,8.073668,-82.28,-85.24
1733038026318357682,1733038026318155527,5,-0.36,-0.46,1.97,7.979860666666667,-80.77,-81.57
1733038026615626045,1733038026615189313,5,-0.36,-0.46,1.97,7.886053333333334,-80.45,-81.19
1733038026715574795,1733038026715204954,5,-0.36,-0.46,1.97,7.742216,-81.13,-85.4
1733038026815624360,1733038026815189599,5,-0.36,-0.46,1.97,7.560855666666666,-81.5,-88.68
1733038026915633212,1733038026915220975,5,-0.36,-0.46,1.97,7.417018,-80.62,-83.11
1733038027015737708,1733038027015209674,5,-0.36,-0.46,1.97,7.3169569999999995,-80.95,-81.79
1733038027118083225,1733038027117922306,5,-0.36,-0.46,1.97,7.235657666666666,-80.82,-81.34
1733038027218087144,1733038027217915058,5,-0.36,-0.46,1.97,7.098073666666667,-81.08,-84.41
1733038027318568530,1733038027318372964,5,-0.36,-0.46,1.97,6.797890333333334,-80.87,-84.87
1733038027418081073,1733038027417957782,5,-0.36,-0.46,1.97,6.685321999999999,-80.87,-81.74
1733038027518237833,1733038027518018007,5,-0.36,-0.46,1.97,6.591515,-80.57,-81.98
1733038027618755090,1733038027618473529,5,-0.36,-0.46,1.97,6.491454,-79.74,-83.19
1733038027715818733,1733038027715208292,5,-0.36,-0.46,1.97,6.347616333333334,-80.73,-84.71
1733038027815623865,1733038027815209627,5,-0.36,-0.46,1.97,6.191271,-79.92,-83.03
1733038027915710980,1733038027915217638,5,-0.36,-0.46,1.97,6.0661950000000004,-80.81,-80.93
1733038028015579930,1733038028015210151,5,-0.36,-0.46,1.97,5.941118666666667,-80.06,-81.44
1733038028115604765,1733038028115214347,5,-0.36,-0.46,1.97,5.834804000000001,-80.58,-82.76
1733038028215713544,1733038028215211153,5,-0.36,-0.46,1.97,5.715981666666667,-79.43,-83.07
1733038028315751377,1733038028315217971,5,-0.36,-0.46,1.97,5.615920666666667,-80.53,-81.25
1733038028415571378,1733038028415131092,5,-0.36,-0.46,1.97,5.4908443333333325,-80.06,-80.97
1733038028515698659,1733038028515221834,5,-0.36,-0.46,1.97,5.372022,-80.02,-81.43
1733038028615560051,1733038028615210533,5,-0.36,-0.46,1.97,5.259453333333333,-79.69,-80.94
1733038028715522866,1733038028715223312,5,-0.36,-0.46,1.97,5.159392666666666,-80.14,-80.96
1733038028815550551,1733038028815205097,5,-0.36,-0.46,1.97,5.040570333333334,-79.62,-80.88
1733038028915546242,1733038028915234327,5,-0.36,-0.46,1.97,4.934255666666667,-78.91,-80.69
1733038029015489528,1733038029015208721,5,-0.36,-0.46,1.97,4.809179333333333,-79.06,-80.48
1733038029115551811,1733038029115242719,5,-0.36,-0.46,1.97,4.7091183333333335,-79.37,-80.76
1733038029215597842,1733038029215233325,5,-0.36,-0.46,1.97,4.5840423333333336,-79.09,-80.57
1733038029315556153,1733038029315234899,5,-0.36,-0.46,1.97,4.483981333333333,-79.33,-80.63
1733038029415481475,1733038029415210247,5,-0.36,-0.46,1.97,4.390174,-79.0,-80.49
1733038029515817574,1733038029515220165,5,-0.36,-0.46,1.97,4.315128333333333,-78.92,-81.17
1733038029615512791,1733038029615216016,5,-0.36,-0.46,1.97,4.258844,-79.08,-80.67
1733038029715515437,1733038029715223550,5,-0.36,-0.46,1.97,4.208813666666667,-79.55,-80.76
1733038029815534352,1733038029815229177,5,-0.36,-0.46,1.97,4.152529333333333,-79.27,-80.87
1733038029915605887,1733038029915221452,5,-0.36,-0.46,1.97,4.102499,-79.04,-80.8
1733038030015575292,1733038030015244245,5,-0.36,-0.46,1.97,4.064976000000001,-79.23,-80.5
1733038030115598781,1733038030115225076,5,-0.36,-0.46,1.97,4.046214333333334,-78.86,-80.64
1733038030215503764,1733038030215199708,5,-0.36,-0.46,1.97,4.008691333333334,-79.07,-80.62
1733038030315512012,1733038030315221548,5,-0.36,-0.46,1.97,3.9649146666666666,-78.73,-80.58
1733038030415672374,1733038030415289878,5,-0.36,-0.46,1.97,3.9211383333333334,-79.27,-80.88
1733038030515769688,1733038030515275239,5,-0.36,-0.46,1.97,3.883615666666667,-79.14,-80.77
1733038030615645851,1733038030615238189,5,-0.36,-0.46,1.97,3.852346666666667,-78.77,-80.44
1733038030716644696,1733038030716365337,5,-0.36,-0.46,1.97,3.8335850000000007,-79.13,-81.15
1733038030817238709,1733038030817154645,5,-0.36,-0.46,1.97,3.8085696666666666,-79.0,-80.52
1733038030917418504,1733038030917241811,5,-0.36,-0.46,1.97,3.7960620000000005,-78.93,-80.54
1733038031018334418,1733038031017982006,5,-0.36,-0.46,1.97,3.7773006666666666,-79.31,-81.06
1733038031118198373,1733038031118034601,5,-0.36,-0.46,1.97,3.7960620000000005,-78.98,-80.56
1733038031218643955,1733038031218503236,5,-0.36,-0.46,1.97,3.814823666666667,-79.32,-81.1
1733038031317514377,1733038031317337274,5,-0.36,-0.46,1.97,3.877361666666667,-78.92,-80.53
1733038031415616628,1733038031415228128,5,-0.36,-0.46,1.97,3.914884666666667,-79.37,-80.73
1733038031515627095,1733038031515228271,5,-0.36,-0.46,1.97,3.933646,-79.54,-80.88
1733038031615614534,1733038031615236759,5,-0.36,-0.46,1.97,3.9273923333333336,-79.09,-80.72
1733038031715613650,1733038031715235948,5,-0.36,-0.46,1.97,3.9524073333333334,-79.15,-80.83
1733038031815618231,1733038031815225601,5,-0.36,-0.46,1.97,3.996184,-78.7,-80.49
1733038031915578419,1733038031915224790,5,-0.36,-0.46,1.97,4.064976000000001,-79.27,-80.87
1733038032015723913,1733038032015256643,5,-0.36,-0.46,1.97,4.115006666666667,-79.7,-80.62
1733038032116643402,1733038032116494417,5,-0.36,-0.46,1.97,4.171291,-79.41,-80.91
1733038032316831980,1733038032316544532,5,-0.36,-0.46,1.97,4.240082666666667,-79.03,-80.48
1733038032416887423,1733038032416526317,5,-0.36,-0.46,1.97,4.308874666666667,-79.37,-81.3
1733038032516861861,1733038032516572952,5,-0.36,-0.46,1.97,4.396428,-79.1,-80.65
1733038032618027348,1733038032617714405,5,-0.36,-0.46,1.97,4.458966333333334,-79.3,-80.51
1733038032717654348,1733038032717404603,5,-0.36,-0.46,1.97,4.515250666666667,-79.84,-80.94
1733038032817849195,1733038032817479133,5,-0.36,-0.46,1.97,4.565281,-79.31,-82.62
1733038032917497091,1733038032917339563,5,-0.36,-0.46,1.97,4.602803666666667,-79.15,-80.88
1733038033015637866,1733038033015234231,5,-0.36,-0.46,1.97,4.671595333333333,-79.27,-80.7
1733038033117466895,1733038033117238044,5,-0.36,-0.46,1.97,4.734133666666668,-79.61,-80.53
1733038033216868292,1733038033216634273,5,-0.36,-0.46,1.97,4.802925666666667,-79.37,-80.82
1733038033316742363,1733038033316402912,5,-0.36,-0.46,1.97,4.902986666666667,-79.41,-81.93
1733038033415603343,1733038033415204524,5,-0.36,-0.46,1.97,4.984286,-79.12,-81.2
1733038033516704926,1733038033516323566,5,-0.36,-0.46,1.97,5.096854666666666,-79.32,-80.9
1733038034215541258,1733038034215210676,5,-0.36,-0.46,1.97,5.684712333333334,-79.99,-80.99
1733038034317842270,1733038034317613601,5,-0.36,-0.46,1.97,5.803534666666667,-79.58,-81.12
1733038034417844976,1733038034417626142,5,-0.36,-0.46,1.97,5.909849666666667,-79.03,-82.01
1733038034515528249,1733038034515289306,5,-0.36,-0.46,1.97,5.997402999999999,-80.02,-82.24
1733038034618975238,1733038034618547916,5,-0.36,-0.46,1.97,6.109971333333334,-79.3,-80.8
1733038034718048976,1733038034717869281,5,-0.36,-0.46,1.97,6.210032000000001,-79.96,-80.62
1733038034818633172,1733038034818444490,5,-0.36,-0.46,1.97,6.4164080000000006,-79.83,-80.75
1733038034918217060,1733038034917988061,5,-0.36,-0.46,1.97,6.528976666666666,-79.22,-81.38
1733038035018361334,1733038035018251419,5,-0.36,-0.46,1.97,6.647799,-79.39,-80.93
1733038035148714781,1733038035148439884,5,-0.36,-0.46,1.97,6.754113666666666,-79.45,-80.66
1733038035218524069,1733038035218248128,5,-0.36,-0.46,1.97,6.8479209999999995,-80.01,-80.88
1733038035318503112,1733038035318257093,5,-0.36,-0.46,1.97,6.947982,-79.8,-81.31
1733038035418786736,1733038035418587446,5,-0.36,-0.46,1.97,7.085566,-79.75,-82.16
1733038035518693891,1733038035518395423,5,-0.36,-0.46,1.97,7.229403666666666,-78.9,-80.73
1733038035618339701,1733038035618109941,5,-0.36,-0.46,1.97,7.373241333333333,-79.61,-80.9
1733038035718051929,1733038035717850446,5,-0.36,-0.46,1.97,7.485809666666667,-79.3,-80.5
1733038035818241451,1733038035818061590,5,-0.36,-0.46,1.97,7.598378,-79.9,-80.72
1733038035918142794,1733038035917908191,5,-0.36,-0.46,1.97,7.704692666666666,-80.29,-82.25
1733038036015620383,1733038036015221595,5,-0.36,-0.46,1.97,7.836022666666666,-80.92,-83.03
1733038036117253061,1733038036116546869,5,-0.36,-0.46,1.97,7.942337666666667,-79.94,-81.22
1733038036217002353,1733038036216694831,5,-0.36,-0.46,1.97,8.067414,-79.85,-80.78
1733038036316771089,1733038036316496372,5,-0.36,-0.46,1.97,8.167475,-80.07,-81.03
1733038036416953276,1733038036416612863,5,-0.36,-0.46,1.97,8.267535666666667,-79.89,-81.07
1733038036516621914,1733038036516264200,5,-0.36,-0.46,1.97,8.367596999999998,-80.1,-80.85
1733038036616639308,1733038036616383790,5,-0.36,-0.46,1.97,8.480165666666666,-81.04,-81.55
1733038036716664520,1733038036716418981,5,-0.36,-0.46,1.97,8.605241999999999,-80.5,-81.98
1733038036815528191,1733038036815235853,5,-0.36,-0.46,1.97,8.724064,-80.06,-81.09
1733038036915565160,1733038036915205717,5,-0.36,-0.46,1.97,8.880409333333334,-79.88,-80.79
1733038037015599264,1733038037015235185,5,-0.36,-0.46,1.97,9.030501,-79.79,-80.65
1733038037516762928,1733038037516455411,5,-0.36,-0.46,1.97,9.643374333333334,-82.42,-84.73
1733038037617703692,1733038037617445945,5,-0.36,-0.46,1.97,9.799719333333334,-83.59,-85.99
1733038037716482854,1733038037716390848,5,-0.36,-0.46,1.97,9.887272666666666,-84.85,-86.74
1733038037816809582,1733038037816528558,5,-0.36,-0.46,1.97,10.037364333333334,-83.22,-84.89
