%time,field.stamp,field.id,field.x,field.y,field.z,field.distanceFromTag,field.rssi,field.rssi_fp
1734501485317590607,1734501485317395687,3,2.5775,0.87,1.97,7.304449333333333,-79.71,-80.75
1734501485417273454,1734501485416840553,3,2.5775,0.87,1.97,7.316956666666667,-79.45,-80.72
1734501485517856510,1734501485517509222,3,2.5775,0.87,1.97,7.310703,-80.47,-81.43
1734501485617857711,1734501485617567539,3,2.5775,0.87,1.97,7.304449000000001,-79.6,-80.93
1734501485717226639,1734501485717013597,3,2.5775,0.87,1.97,7.298195333333333,-79.76,-81.04
1734501485817166696,1734501485817014217,3,2.5775,0.87,1.97,7.279433999999999,-79.89,-80.93
1734501485917063364,1734501485916918039,3,2.5775,0.87,1.97,7.279433999999999,-79.46,-80.83
1734501486017548401,1734501486017412424,3,2.5775,0.87,1.97,7.304449333333333,-79.65,-80.98
1734501486117254585,1734501486117069005,3,2.5775,0.87,1.97,7.304449333333333,-79.87,-80.77
1734501486217363436,1734501486217154026,3,2.5775,0.87,1.97,7.3107033333333336,-79.42,-80.7
1734501486317720856,1734501486317514419,3,2.5775,0.87,1.97,7.2669266666666665,-79.01,-80.84
1734501486418273126,1734501486417990446,3,2.5775,0.87,1.97,7.285688,-79.82,-81.09
1734501486517411798,1734501486517217397,3,2.5775,0.87,1.97,7.291941666666666,-79.66,-81.04
1734501486617367885,1734501486617144346,3,2.5775,0.87,1.97,7.310703,-79.43,-80.44
1734501486717236535,1734501486717056035,3,2.5775,0.87,1.97,7.304449000000001,-79.82,-80.69
1734501486817875773,1734501486817614793,3,2.5775,0.87,1.97,7.285687666666667,-79.28,-80.7
1734501486916974234,1734501486916819810,3,2.5775,0.87,1.97,7.285687666666667,-78.9,-80.95
1734501487017480627,1734501487017305135,3,2.5775,0.87,1.97,7.285687666666667,-78.79,-81.1
1734501487117378265,1734501487117160081,3,2.5775,0.87,1.97,7.285687666666667,-79.02,-80.7
1734501487217350573,1734501487217223167,3,2.5775,0.87,1.97,7.304449000000001,-83.42,-84.22
1734501487318032340,1734501487317951917,3,2.5775,0.87,1.97,7.291941666666666,-79.2,-80.92
1734501487418115432,1734501487417915105,3,2.5775,0.87,1.97,7.304449333333333,-79.82,-80.97
1734501487517225069,1734501487517002582,3,2.5775,0.87,1.97,7.291941666666666,-79.78,-81.02
1734501487617065869,1734501487616860389,3,2.5775,0.87,1.97,7.310703,-79.59,-80.87
1734501488215373807,1734501488215015649,3,2.5775,0.87,1.97,7.291941333333334,-80.27,-81.17
1734501488317511284,1734501488317255973,3,2.5775,0.87,1.97,7.291941333333334,-79.39,-80.86
1734501488417409927,1734501488417197465,3,2.5775,0.87,1.97,7.310702666666667,-79.52,-80.99
1734501488517527605,1734501488517208576,3,2.5775,0.87,1.97,7.298195,-79.78,-80.64
1734501488615405428,1734501488615089178,3,2.5775,0.87,1.97,7.298195,-79.52,-80.96
1734501488718624681,1734501488718384265,3,2.5775,0.87,1.97,7.285687666666667,-79.21,-80.61
1734501488820206935,1734501488817973852,3,2.5775,0.87,1.97,7.279433999999999,-79.45,-80.73
1734501488917187684,1734501488916954994,3,2.5775,0.87,1.97,7.2669266666666665,-79.38,-80.85
1734501489016440338,1734501489016202688,3,2.5775,0.87,1.97,7.285688,-79.81,-80.89
1734501489116617083,1734501489116340160,3,2.5775,0.87,1.97,7.285688,-80.05,-80.97
1734501489216408767,1734501489216154098,3,2.5775,0.87,1.97,7.298195333333333,-79.38,-80.74
1734501489319384124,1734501489318288803,3,2.5775,0.87,1.97,7.298195333333333,-79.22,-80.76
1734501489416735563,1734501489416362285,3,2.5775,0.87,1.97,7.291941666666666,-79.22,-80.65
1734501489516606167,1734501489516309738,3,2.5775,0.87,1.97,7.260672666666667,-79.53,-80.72
1734501489616631006,1734501489616317033,3,2.5775,0.87,1.97,7.248165,-79.49,-80.99
1734501489716397018,1734501489716115236,3,2.5775,0.87,1.97,7.248165,-79.46,-80.64
1734501489846587274,1734501489846254587,3,2.5775,0.87,1.97,7.279433999999999,-79.64,-80.93
1734501489916425457,1734501489916288614,3,2.5775,0.87,1.97,7.285687666666667,-79.86,-80.98
1734501490015354787,1734501490015002727,3,2.5775,0.87,1.97,7.285687666666667,-79.69,-80.59
1734501490115358946,1734501490115066528,3,2.5775,0.87,1.97,7.291941666666666,-80.28,-81.53
1734501490215408455,1734501490215005874,3,2.5775,0.87,1.97,7.291941666666666,-79.72,-80.73
1734501490315789146,1734501490315049409,3,2.5775,0.87,1.97,7.285687666666667,-79.84,-80.92
1734501490415697739,1734501490414998292,3,2.5775,0.87,1.97,7.266926333333333,-79.74,-80.7
1734501490515527742,1734501490514985322,3,2.5775,0.87,1.97,7.2544189999999995,-79.31,-80.52
1734501490615329571,1734501490615010261,3,2.5775,0.87,1.97,7.260673,-79.41,-80.64
1734501490715689380,1734501490715036869,3,2.5775,0.87,1.97,7.248165333333333,-79.77,-81.01
1734501490815500311,1734501490815019607,3,2.5775,0.87,1.97,7.254419000000001,-79.67,-80.78
1734501491015455943,1734501491015015602,3,2.5775,0.87,1.97,7.260672666666667,-79.19,-80.56
1734501491117334993,1734501491115044593,3,2.5775,0.87,1.97,7.273180333333333,-80.12,-80.85
1734501491215344276,1734501491215016126,3,2.5775,0.87,1.97,7.273180333333333,-79.67,-80.88
1734501491315625675,1734501491314998626,3,2.5775,0.87,1.97,7.2669266666666665,-79.27,-80.72
1734501491415344915,1734501491415016889,3,2.5775,0.87,1.97,7.260672666666667,-79.21,-80.55
1734501491516904374,1734501491516662120,3,2.5775,0.87,1.97,7.279433999999999,-79.84,-80.98
1734501491617428139,1734501491617285728,3,2.5775,0.87,1.97,6.053687333333333,-84.84,-101.2
1734501491717398850,1734501491717095136,3,2.5775,0.87,1.97,6.0787026666666675,-79.72,-80.96
1734501491817801376,1734501491817633867,3,2.5775,0.87,1.97,6.053687666666666,-79.67,-80.73
1734501491917552957,1734501491917369842,3,2.5775,0.87,1.97,7.285688,-80.07,-80.84
1734501492017519095,1734501492017447710,3,2.5775,0.87,1.97,7.273180333333333,-79.62,-80.56
1734501492116230720,1734501492116128444,3,2.5775,0.87,1.97,7.285687666666667,-79.78,-80.68
1734501492216936779,1734501492216553688,3,2.5775,0.87,1.97,7.27318,-79.17,-80.45
1734501492319512902,1734501492319164752,3,2.5775,0.87,1.97,7.279433666666667,-79.18,-80.54
1734501492419120572,1734501492418823003,3,2.5775,0.87,1.97,7.27318,-79.38,-80.62
1734501492518859171,1734501492518657684,3,2.5775,0.87,1.97,7.279433999999999,-79.54,-81.05
1734501492618464015,1734501492618327856,3,2.5775,0.87,1.97,7.273180333333333,-79.8,-80.88
1734501492719087266,1734501492718738079,3,2.5775,0.87,1.97,7.285688,-79.77,-80.78
1734501492817621051,1734501492817381381,3,2.5775,0.87,1.97,7.285688,-79.97,-80.9
1734501492915424151,1734501492915016889,3,2.5775,0.87,1.97,3.8711079999999995,-79.83,-80.82
1734501493816649636,1734501493816219091,3,2.5775,0.87,1.97,7.248164666666667,-79.36,-81.07
1734501493916886959,1734501493916606426,3,2.5775,0.87,1.97,7.223149333333333,-79.51,-81.1
1734501494018176036,1734501494017916202,3,2.5775,0.87,1.97,7.173119,-79.32,-80.77
1734501494118409293,1734501494118200063,3,2.5775,0.87,1.97,7.148104,-79.8,-81.77
1734501494215481501,1734501494215008974,3,2.5775,0.87,1.97,7.123089,-79.49,-81.63
1734501494315884162,1734501494315014362,3,2.5775,0.87,1.97,7.098073666666667,-79.57,-83.12
1734501494416840220,1734501494416643619,3,2.5775,0.87,1.97,7.079311999999999,-80.55,-83.04
1734501494516510685,1734501494516236782,3,2.5775,0.87,1.97,7.035535333333333,-79.87,-82.07
1734501494616667504,1734501494616384744,3,2.5775,0.87,1.97,6.985505,-80.03,-81.28
1734501494716355545,1734501494716232538,3,2.5775,0.87,1.97,6.922967,-79.96,-80.96
1734501494816637361,1734501494816420555,3,2.5775,0.87,1.97,6.879190333333334,-79.43,-80.62
1734501494916593272,1734501494916496276,3,2.5775,0.87,1.97,6.822906,-79.4,-80.48
1734501495017617557,1734501495017403364,3,2.5775,0.87,1.97,6.747860333333333,-79.86,-80.81
1734501495117758052,1734501495117607593,3,2.5775,0.87,1.97,6.697829666666667,-79.28,-80.4
1734501495217467280,1734501495217301607,3,2.5775,0.87,1.97,6.672814333333334,-79.55,-80.88
1734501495317504855,1734501495317243576,3,2.5775,0.87,1.97,6.647799,-79.23,-80.75
1734501495417485443,1734501495417220830,3,2.5775,0.87,1.97,6.622784,-81.45,-83.9
1734501495517570183,1734501495517360448,3,2.5775,0.87,1.97,6.566499666666666,-80.29,-80.93
1734501495617512929,1734501495617303609,3,2.5775,0.87,1.97,6.522723,-79.09,-80.54
1734501495717564465,1734501495717274665,3,2.5775,0.87,1.97,6.453931,-80.04,-83.3
1734501495817283491,1734501495817126750,3,2.5775,0.87,1.97,6.403900666666666,-79.71,-83.22
1734501495917201279,1734501495917075157,3,2.5775,0.87,1.97,6.341362666666666,-78.92,-81.43
1734501496017451725,1734501496017289161,3,2.5775,0.87,1.97,6.266317,-78.97,-80.72
1734501496117157827,1734501496116954803,3,2.5775,0.87,1.97,6.185017333333334,-79.17,-80.79
1734501496217211479,1734501496217064142,3,2.5775,0.87,1.97,6.1287329999999995,-79.03,-80.52
1734501496317235775,1734501496317034959,3,2.5775,0.87,1.97,6.072448666666666,-79.43,-80.8
1734501496417297822,1734501496417028188,3,2.5775,0.87,1.97,6.053687333333333,-79.2,-81.06
1734501496517411853,1734501496517178058,3,2.5775,0.87,1.97,5.9911493333333325,-78.95,-80.42
1734501496617775751,1734501496617501020,3,2.5775,0.87,1.97,5.972387666666667,-78.92,-81.21
1734501496717547962,1734501496717188358,3,2.5775,0.87,1.97,5.909849666666666,-79.24,-81.16
1734501496817632097,1734501496817363739,3,2.5775,0.87,1.97,5.872326666666666,-79.73,-82.91
1734501496917501657,1734501496917207717,3,2.5775,0.87,1.97,5.822296333333334,-79.39,-82.85
1734501497017119444,1734501497016930341,3,2.5775,0.87,1.97,5.759758000000001,-78.77,-80.62
1734501497117509606,1734501497117253303,3,2.5775,0.87,1.97,5.709727666666666,-78.57,-80.74
1734501497217403949,1734501497217160940,3,2.5775,0.87,1.97,5.653443333333333,-79.05,-81.25
1734501497317457389,1734501497317215204,3,2.5775,0.87,1.97,5.615920666666668,-79.69,-80.47
1734501497417163263,1734501497416965007,3,2.5775,0.87,1.97,5.572144000000001,-79.22,-80.66
1734501497517258459,1734501497517115592,3,2.5775,0.87,1.97,5.509606000000001,-79.39,-80.66
1734501497617038677,1734501497616787433,3,2.5775,0.87,1.97,5.4720830000000005,-79.19,-80.76
1734501497717262789,1734501497717083215,3,2.5775,0.87,1.97,5.447067666666666,-79.36,-80.89
1734501497817417897,1734501497817203044,3,2.5775,0.87,1.97,5.428306333333334,-79.17,-80.74
1734501497917400280,1734501497917335033,3,2.5775,0.87,1.97,5.390783666666667,-79.17,-81.41
1734501498017193062,1734501498017076969,3,2.5775,0.87,1.97,5.353261,-79.05,-81.45
1734501498117644158,1734501498117329835,3,2.5775,0.87,1.97,5.3219916666666665,-78.8,-81.21
1734501498217409906,1734501498217148303,3,2.5775,0.87,1.97,5.296976333333333,-79.12,-80.88
1734501499215504819,1734501499215122938,3,2.5775,0.87,1.97,5.190661666666667,-79.47,-80.71
1734501499316623142,1734501499316337108,3,2.5775,0.87,1.97,5.184408,-79.51,-80.67
1734501499416430558,1734501499416219234,3,2.5775,0.87,1.97,5.1719,-79.12,-81.25
1734501499516591064,1734501499516294717,3,2.5775,0.87,1.97,5.178154,-79.27,-81.01
1734501499616923511,1734501499616660594,3,2.5775,0.87,1.97,5.184407666666666,-79.53,-80.59
1734501499716272808,1734501499716041326,3,2.5775,0.87,1.97,5.221930666666666,-79.36,-80.61
1734501499817003210,1734501499816702365,3,2.5775,0.87,1.97,5.259453333333333,-79.76,-80.98
1734501499916418240,1734501499916121482,3,2.5775,0.87,1.97,5.253199666666666,-79.83,-80.83
1734501500016765657,1734501500016393899,3,2.5775,0.87,1.97,5.259453333333333,-79.67,-80.88
1734501500116947225,1734501500116609334,3,2.5775,0.87,1.97,5.2719613333333335,-79.36,-80.55
1734501500216564293,1734501500216280937,3,2.5775,0.87,1.97,5.3344993333333335,-79.29,-80.72
1734501500315455040,1734501500315023660,3,2.5775,0.87,1.97,5.384530000000001,-79.48,-80.79
1734501500415586082,1734501500414999008,3,2.5775,0.87,1.97,5.428306333333333,-79.17,-80.43
1734501500515376552,1734501500515000581,3,2.5775,0.87,1.97,5.453321333333334,-79.26,-80.36
1734501500615476101,1734501500615036487,3,2.5775,0.87,1.97,5.478336666666666,-79.68,-80.42
1734501500715737051,1734501500715082168,3,2.5775,0.87,1.97,5.522113333333333,-79.03,-80.64
1734501500818307578,1734501500818157911,3,2.5775,0.87,1.97,5.603413,-78.79,-81.03
1734501500918177078,1734501500917811155,3,2.5775,0.87,1.97,5.659697,-79.24,-81.08
1734501501017846428,1734501501017711877,3,2.5775,0.87,1.97,5.7159813333333345,-79.14,-80.74
1734501501117974594,1734501501117638349,3,2.5775,0.87,1.97,5.747250333333334,-79.08,-80.69
1734501501217435966,1734501501217258930,3,2.5775,0.87,1.97,5.797281000000001,-79.51,-80.87
1734501501317333725,1734501501317112922,3,2.5775,0.87,1.97,5.82855,-79.32,-80.74
1734501501417250986,1734501501417042970,3,2.5775,0.87,1.97,5.909849666666666,-79.37,-80.59
1734501501517783405,1734501501517496109,3,2.5775,0.87,1.97,6.003656666666667,-78.91,-80.66
1734501501617383406,1734501501617029428,3,2.5775,0.87,1.97,6.128733,-78.15,-80.9
1734501501717508812,1734501501717245340,3,2.5775,0.87,1.97,6.2225399999999995,-79.12,-81.39
1734501501817003836,1734501501816856622,3,2.5775,0.87,1.97,6.3100933333333336,-78.78,-80.63
1734501501917549870,1734501501917313337,3,2.5775,0.87,1.97,6.378885333333333,-79.29,-80.97
1734501502017373489,1734501502017063140,3,2.5775,0.87,1.97,6.422662,-79.16,-80.46
1734501502118062592,1734501502117417812,3,2.5775,0.87,1.97,6.497708,-79.01,-80.68
1734501502217319021,1734501502217030048,3,2.5775,0.87,1.97,6.579007333333333,-79.1,-80.66
1734501502317338756,1734501502317130088,3,2.5775,0.87,1.97,6.691576,-78.74,-81.13
1734501502417003981,1734501502416908740,3,2.5775,0.87,1.97,6.779129333333333,-79.04,-81.2
1734501502517580431,1734501502517247915,3,2.5775,0.87,1.97,6.885444333333333,-79.49,-81.13
1734501502617642828,1734501502617388963,3,2.5775,0.87,1.97,6.985505333333333,-78.97,-80.56
1734501502717640653,1734501502717499971,3,2.5775,0.87,1.97,7.073058666666667,-79.35,-80.92
1734501502817431081,1734501502817278146,3,2.5775,0.87,1.97,7.166865666666666,-79.91,-80.83
1734501502917278184,1734501502917071342,3,2.5775,0.87,1.97,7.279433999999999,-79.17,-81.2
1734501503017767084,1734501503017670392,3,2.5775,0.87,1.97,7.404509999999999,-79.12,-80.81
1734501503117669402,1734501503117412090,3,2.5775,0.87,1.97,7.498317,-78.43,-81.17
1734501503217399818,1734501503217147588,3,2.5775,0.87,1.97,7.5733630000000005,-78.56,-81.21
1734501503317105005,1734501503316842317,3,2.5775,0.87,1.97,7.673424,-79.47,-81.2
1734501503417747959,1734501503417396545,3,2.5775,0.87,1.97,7.773485,-79.13,-80.46
1734501504417469246,1734501504416221380,3,2.5775,0.87,1.97,8.905424666666667,-79.53,-80.84
1734501504517075299,1734501504516983270,3,2.5775,0.87,1.97,9.024247333333333,-79.57,-80.81
1734501504618408285,1734501504618153810,3,2.5775,0.87,1.97,9.130562,-79.14,-80.61
1734501504716662126,1734501504716398239,3,2.5775,0.87,1.97,9.236877,-79.11,-80.6
1734501504816559589,1734501504816345930,3,2.5775,0.87,1.97,9.343191666666668,-79.86,-82.72
1734501504916712796,1734501504916568517,3,2.5775,0.87,1.97,9.474521333333334,-79.24,-81.05
1734501505016601759,1734501505016317367,3,2.5775,0.87,1.97,9.599597333333334,-79.03,-81.7
1734501505116836911,1734501505116450548,3,2.5775,0.87,1.97,9.755942666666668,-78.9,-80.88
1734501505216566438,1734501505216333389,3,2.5775,0.87,1.97,9.881019,-79.62,-81.05
1734501505316557184,1734501505316437482,3,2.5775,0.87,1.97,10.006095,-79.27,-80.67
1734501505416340456,1734501505416099786,3,2.5775,0.87,1.97,10.093648333333332,-79.05,-80.36
1734501505516889694,1734501505516529560,3,2.5775,0.87,1.97,10.212470666666666,-79.89,-80.8
1734501505616654667,1734501505616328001,3,2.5775,0.87,1.97,10.337547,-79.53,-80.73
1734501505816555272,1734501505816252946,3,2.5775,0.87,1.97,10.456369333333333,-79.37,-81.18
1734501505917159800,1734501505916767597,3,2.5775,0.87,1.97,10.587699333333333,-80.43,-80.85
1734501506016403924,1734501506016185283,3,2.5775,0.87,1.97,10.694014000000001,-80.45,-81.15
1734501506117127660,1734501506116555452,3,2.5775,0.87,1.97,10.837851666666667,-79.45,-81.17
1734501506216400609,1734501506216212749,3,2.5775,0.87,1.97,10.937912666666668,-79.53,-81.05
1734501506316635071,1734501506316304445,3,2.5775,0.87,1.97,11.094258000000002,-79.79,-81.08
1734501506416466991,1734501506416261911,3,2.5775,0.87,1.97,11.231841666666668,-79.56,-80.62
1734501506516419861,1734501506516174077,3,2.5775,0.87,1.97,11.356918,-79.91,-81.07
1734501506616632075,1734501506616450309,3,2.5775,0.87,1.97,11.481994,-79.81,-80.67
1734501506716353457,1734501506716082572,3,2.5775,0.87,1.97,11.607070333333333,-79.72,-80.59
1734501506816455901,1734501506816373348,3,2.5775,0.87,1.97,11.769669333333333,-80.35,-80.91
1734501506916657355,1734501506916377067,3,2.5775,0.87,1.97,11.913507000000001,-79.46,-80.56
1734501507016687281,1734501507016412734,3,2.5775,0.87,1.97,12.051090666666667,-80.1,-80.77
1734501507116452849,1734501507116268396,3,2.5775,0.87,1.97,12.176167,-79.82,-81.13
1734501507216421091,1734501507216186761,3,2.5775,0.87,1.97,12.294989333333334,-80.35,-82.23
1734501507316417825,1734501507316155672,3,2.5775,0.87,1.97,12.426319333333334,-81.1,-83.09
1734501507416694324,1734501507416387796,3,2.5775,0.87,1.97,12.570157,-81.12,-82.37
1734501507516758823,1734501507516334533,3,2.5775,0.87,1.97,12.701487,-80.38,-81.59
1734501507616853182,1734501507616487503,3,2.5775,0.87,1.97,12.826563,-80.54,-82.45
1734501507716329109,1734501507716240406,3,2.5775,0.87,1.97,12.957892666666666,-80.29,-81.26
1734501507817473211,1734501507817210674,3,2.5775,0.87,1.97,13.114238,-79.72,-80.82
1734501507916442711,1734501507916124343,3,2.5775,0.87,1.97,13.264329666666667,-79.67,-80.85
1734501508016685087,1734501508016393899,3,2.5775,0.87,1.97,13.420674999999997,-80.49,-80.99
1734501508116491816,1734501508116210699,3,2.5775,0.87,1.97,13.533243666666666,-80.07,-80.79
1734501508216468185,1734501508216091871,3,2.5775,0.87,1.97,13.670827333333333,-79.53,-81.0
1734501508316611109,1734501508316370010,3,2.5775,0.87,1.97,13.795903333333333,-80.24,-80.86
1734501508416627142,1734501508416358470,3,2.5775,0.87,1.97,13.952248666666668,-80.0,-81.11
1734501508516731768,1734501508516537427,3,2.5775,0.87,1.97,14.077325000000002,-80.2,-81.01
1734501508616372552,1734501508616134643,3,2.5775,0.87,1.97,14.221162666666666,-80.19,-80.73
1734501508717240637,1734501508717083454,3,2.5775,0.87,1.97,14.371253666666668,-83.21,-83.37
1734501508817311154,1734501508817082405,3,2.5775,0.87,1.97,12.457588000000001,-84.31,-102.79
1734501510317915509,1734501510317738771,3,2.5775,0.87,1.97,16.578847333333332,-80.22,-80.88
1734501510418777132,1734501510418552160,3,2.5775,0.87,1.97,16.71017733333333,-80.0,-80.85
1734501510515146693,1734501510515055894,3,2.5775,0.87,1.97,16.854015,-80.24,-81.15
1734501510615480453,1734501510615005493,3,2.5775,0.87,1.97,16.985344666666666,-80.4,-80.9
1734501510716597002,1734501510716287374,3,2.5775,0.87,1.97,17.129182333333333,-80.46,-81.22
1734501510816655281,1734501510816485643,3,2.5775,0.87,1.97,17.285527666666667,-80.95,-81.16
1734501510917369479,1734501510917141437,3,2.5775,0.87,1.97,17.41685766666667,-80.83,-81.8
1734501511017475379,1734501511017402172,3,2.5775,0.87,1.97,17.548188,-82.06,-81.98
1734501511117405213,1734501511117276430,3,2.5775,0.87,1.97,17.679518,-81.02,-81.26
1734501511217500865,1734501511217192173,3,2.5775,0.87,1.97,17.848371,-81.74,-83.39
1734501511317493757,1734501511317288875,3,2.5775,0.87,1.97,18.017223333333334,-83.63,-86.04
1734501511417044272,1734501511416912078,3,2.5775,0.87,1.97,18.161061,-84.32,-85.75
1734501511517377250,1734501511517077922,3,2.5775,0.87,1.97,18.273629666666665,-82.74,-84.52
1734501511617217599,1734501511617072820,3,2.5775,0.87,1.97,18.392452666666667,-84.82,-86.41
1734501511718615347,1734501511718406438,3,2.5775,0.87,1.97,18.530036666666664,-83.8,-87.4
1734501511817273221,1734501511817058324,3,2.5775,0.87,1.97,18.686382,-83.81,-84.48
1734501511917380720,1734501511917172670,3,2.5775,0.87,1.97,18.830219333333332,-83.24,-83.81
1734501512017081694,1734501512016949415,3,2.5775,0.87,1.97,18.967802666666667,-83.3,-84.04
1734501512117339076,1734501512117070198,3,2.5775,0.87,1.97,19.111640333333334,-82.28,-83.1
1734501512217319116,1734501512217222690,3,2.5775,0.87,1.97,19.274239333333337,-81.7,-81.87
1734501512317186703,1734501512316974163,3,2.5775,0.87,1.97,19.443092333333333,-82.0,-81.84
1734501512417694623,1734501512417348384,3,2.5775,0.87,1.97,19.599437666666663,-81.67,-82.34
1734501512517380677,1734501512517216920,3,2.5775,0.87,1.97,19.73076766666667,-81.05,-80.99
1734501512617268278,1734501512617120742,3,2.5775,0.87,1.97,19.874605333333335,-81.06,-81.09
1734501512717251905,1734501512716986656,3,2.5775,0.87,1.97,19.993427333333333,-80.9,-81.19
1734501512817461816,1734501512817070245,3,2.5775,0.87,1.97,20.08723433333333,-81.02,-81.17
1734501512917165809,1734501512917005538,3,2.5775,0.87,1.97,20.212310666666667,-80.46,-81.17
1734501513017294335,1734501513017073392,3,2.5775,0.87,1.97,20.362402,-80.84,-81.35
1734501513117152877,1734501513116986036,3,2.5775,0.87,1.97,20.55627,-80.78,-80.83
1734501513217360778,1734501513217197418,3,2.5775,0.87,1.97,20.66258433333333,-81.16,-81.31
1734501513317259676,1734501513317056655,3,2.5775,0.87,1.97,20.825183666666664,-80.25,-81.04
1734501513417642035,1734501513417276382,3,2.5775,0.87,1.97,20.96902133333333,-80.4,-80.81
1734501513517203645,1734501513516920566,3,2.5775,0.87,1.97,21.156635666666663,-80.97,-81.39
1734501513617249605,1734501513616932630,3,2.5775,0.87,1.97,21.29421933333333,-80.46,-81.31
1734501513717353075,1734501513717136859,3,2.5775,0.87,1.97,21.438057,-80.72,-81.03
1734501513817181926,1734501513816859960,3,2.5775,0.87,1.97,21.563133333333337,-80.42,-81.01
1734501513917254082,1734501513917053699,3,2.5775,0.87,1.97,21.694463,-81.02,-81.05
1734501514048672602,1734501514048415184,3,2.5775,0.87,1.97,21.813284999999997,-80.78,-81.21
1734501514117216798,1734501514117042541,3,2.5775,0.87,1.97,21.957122666666667,-81.8,-81.39
1734501514217019983,1734501514216859340,3,2.5775,0.87,1.97,22.094706666666667,-80.99,-81.04
1734501514317514641,1734501514317185640,3,2.5775,0.87,1.97,22.244798666666668,-80.94,-80.94
1734501514417488605,1734501514417242765,3,2.5775,0.87,1.97,22.401144000000002,-82.01,-83.72
1734501514817896463,1734501514817716121,3,2.5775,0.87,1.97,22.95773266666667,-81.85,-81.53
1734501515516617924,1734501515516276597,3,2.5775,0.87,1.97,23.964596,-83.59,-83.63
1734501515616083566,1734501515615908861,3,2.5775,0.87,1.97,24.127195,-84.53,-86.66
1734501515716035512,1734501515715880155,3,2.5775,0.87,1.97,24.246018000000003,-85.46,-85.85
1734501515816008455,1734501515815804004,3,2.5775,0.87,1.97,24.389855333333333,-85.55,-85.24
1734501515916318609,1734501515916006088,3,2.5775,0.87,1.97,24.50242366666667,-85.24,-87.28
1734501516016486194,1734501516016191959,3,2.5775,0.87,1.97,24.640007,-86.49,-88.01
1734501516116444370,1734501516116232633,3,2.5775,0.87,1.97,24.796352666666667,-85.88,-87.81
1734501516216312603,1734501516216121435,3,2.5775,0.87,1.97,24.946444,-84.96,-88.72
1734501516316694731,1734501516316340446,3,2.5775,0.87,1.97,25.109043666666665,-88.12,-89.22
1734501516415134658,1734501516414994955,3,2.5775,0.87,1.97,25.202850666666667,-87.13,-87.32
1734501516515196251,1734501516515009880,3,2.5775,0.87,1.97,25.359195999999997,-84.73,-85.17
1734501516615506201,1734501516615057706,3,2.5775,0.87,1.97,25.503033333333335,-84.86,-85.26
1734501516715394642,1734501516715014219,3,2.5775,0.87,1.97,25.709409000000004,-85.99,-86.53
1734501516815657104,1734501516815045833,3,2.5775,0.87,1.97,25.86575433333333,-86.12,-87.62
1734501516915220365,1734501516915004730,3,2.5775,0.87,1.97,26.04711466666667,-83.76,-83.69
1734501517018022890,1734501517017857551,3,2.5775,0.87,1.97,26.159683333333334,-84.91,-85.34
1734501517117846180,1734501517117728233,3,2.5775,0.87,1.97,26.29726666666667,-85.69,-88.16
1734501517218578457,1734501517218330144,3,2.5775,0.87,1.97,26.416088666666667,-84.26,-85.88
1734501517318111831,1734501517317896604,3,2.5775,0.87,1.97,26.572433999999998,-84.21,-86.61
1734501517417805109,1734501517417680978,3,2.5775,0.87,1.97,26.722526,-83.46,-84.56
1734501517518252561,1734501517518103361,3,2.5775,0.87,1.97,26.872618,-83.36,-84.88
1734501517617176685,1734501517616984128,3,2.5775,0.87,1.97,27.028963333333337,-83.5,-86.03
1734501517717333414,1734501517717077255,3,2.5775,0.87,1.97,27.166546666666665,-82.79,-83.51
1734501517817129458,1734501517816991329,3,2.5775,0.87,1.97,27.297876333333335,-82.7,-83.32
1734501517917117541,1734501517917019844,3,2.5775,0.87,1.97,27.466728999999997,-82.69,-83.0
1734501518017517925,1734501518017334938,3,2.5775,0.87,1.97,27.591805333333337,-86.03,-86.85
1734501518117119675,1734501518116961240,3,2.5775,0.87,1.97,27.741896666666666,-83.43,-83.27
1734501518217650882,1734501518217403173,3,2.5775,0.87,1.97,27.854465,-82.48,-84.3
1734501518317294958,1734501518317115306,3,2.5775,0.87,1.97,27.985794666666667,-83.35,-84.0
1734501518417323662,1734501518417115926,3,2.5775,0.87,1.97,28.123378666666667,-81.68,-83.92
1734501518517369627,1734501518517291069,3,2.5775,0.87,1.97,28.292232,-81.55,-83.1
1734501518617861208,1734501518617696762,3,2.5775,0.87,1.97,28.492354333333335,-81.58,-81.85
1734501518717156859,1734501518716923475,3,2.5775,0.87,1.97,28.67371466666667,-85.63,-86.43
1734501518817222319,1734501518817148685,3,2.5775,0.87,1.97,28.773775333333333,-81.67,-81.63
1734501518918068020,1734501518917724132,3,2.5775,0.87,1.97,28.88009033333333,-81.46,-81.4
1734501519047822984,1734501519047653198,3,2.5775,0.87,1.97,28.986405333333334,-81.68,-81.76
1734501519117373869,1734501519117146015,3,2.5775,0.87,1.97,29.155258333333332,-81.56,-81.51
1734501519217260860,1734501519217014312,3,2.5775,0.87,1.97,29.305349333333336,-81.71,-81.35
1734501519317846873,1734501519317540645,3,2.5775,0.87,1.97,29.436678999999998,-81.47,-81.41
1734501519515408943,1734501519515006065,3,2.5775,0.87,1.97,29.605531666666668,-81.74,-81.59
1734501519615472231,1734501519615022659,3,2.5775,0.87,1.97,29.768130666666668,-81.06,-81.16
1734501519715406541,1734501519715022802,3,2.5775,0.87,1.97,29.936984,-81.98,-81.74
1734501519815453269,1734501519815012931,3,2.5775,0.87,1.97,30.087075666666667,-81.4,-81.1
1734501519915342377,1734501519915016889,3,2.5775,0.87,1.97,30.268436000000005,-82.35,-82.4
1734501520315542041,1734501520315045118,3,2.5775,0.87,1.97,30.850040000000003,-81.78,-82.15
1734501520715422251,1734501520715024948,3,2.5775,0.87,1.97,31.437897666666668,-81.96,-81.96
1734501520815506817,1734501520815016746,3,2.5775,0.87,1.97,31.594243000000002,-82.16,-83.6
1734501520918338877,1734501520918138027,3,2.5775,0.87,1.97,31.763096,-82.08,-81.74
1734501521018159286,1734501521017986774,3,2.5775,0.87,1.97,31.844395333333335,-82.17,-81.94
1734501521118043710,1734501521117891311,3,2.5775,0.87,1.97,32.019501999999996,-83.4,-83.2
1734501521215455827,1734501521215058803,3,2.5775,0.87,1.97,32.188354333333336,-82.94,-84.37
1734501521315329221,1734501521315047502,3,2.5775,0.87,1.97,32.332192,-82.05,-81.92
1734501521415385763,1734501521415002107,3,2.5775,0.87,1.97,32.45726833333333,-82.3,-82.22
1734501521517185321,1734501521517021894,3,2.5775,0.87,1.97,32.61361366666667,-82.11,-81.76
1734501521617373120,1734501521617224454,3,2.5775,0.87,1.97,32.769959,-82.31,-81.96
1734501521817332809,1734501521817033767,3,2.5775,0.87,1.97,32.926304333333334,-83.07,-82.84
1734501521915439540,1734501521915018081,3,2.5775,0.87,1.97,33.05138066666667,-82.8,-82.37
1734501522017852912,1734501522017664909,3,2.5775,0.87,1.97,33.21397966666667,-83.44,-84.16
1734501522118070620,1734501522117926120,3,2.5775,0.87,1.97,33.38283233333333,-83.19,-84.99
1734501522218142394,1734501522217938184,3,2.5775,0.87,1.97,33.51416233333333,-83.21,-83.18
1734501522317867336,1734501522317670345,3,2.5775,0.87,1.97,33.614223,-84.67,-87.16
1734501522417973878,1734501522417724370,3,2.5775,0.87,1.97,33.73304566666667,-83.46,-86.3
1734501522518060968,1734501522517884969,3,2.5775,0.87,1.97,33.889391,-82.95,-84.8
1734501522616877782,1734501522616557598,3,2.5775,0.87,1.97,34.083259,-83.86,-84.48
1734501522716391887,1734501522716105461,3,2.5775,0.87,1.97,34.20833533333333,-85.76,-86.55
1734501522816405789,1734501522816075801,3,2.5775,0.87,1.97,34.358427,-83.93,-86.4
1734501522916488377,1734501522916165828,3,2.5775,0.87,1.97,34.477249666666665,-84.77,-88.22
1734501523016287882,1734501523016086578,3,2.5775,0.87,1.97,34.614833,-85.29,-86.11
1734501523116633437,1734501523116404771,3,2.5775,0.87,1.97,34.76492366666667,-85.06,-86.27
1734501523216611163,1734501523216334104,3,2.5775,0.87,1.97,34.877491666666664,-87.5,-89.54
1734501523316530162,1734501523316173791,3,2.5775,0.87,1.97,35.04634433333333,-87.07,-87.56
1734501523416643503,1734501523416223764,3,2.5775,0.87,1.97,35.183929,-87.82,-87.58
1734501523516533221,1734501523516235589,3,2.5775,0.87,1.97,35.371543333333335,-86.31,-87.59
1734501523616313204,1734501523616101980,3,2.5775,0.87,1.97,35.484112333333336,-87.26,-90.29
1734501523716384897,1734501523716144561,3,2.5775,0.87,1.97,35.634203,-87.53,-90.13
1734501523817161195,1734501523816995859,3,2.5775,0.87,1.97,35.765533,-88.91,-90.36
1734501524047735727,1734501524047491073,3,2.5775,0.87,1.97,35.97190833333333,-89.52,-91.54
1734501524117243247,1734501524117043256,3,2.5775,0.87,1.97,36.14701566666667,-90.54,-91.62
1734501524217344181,1734501524217135667,3,2.5775,0.87,1.97,36.303361,-91.4,-95.49
1734501524317077857,1734501524316918849,3,2.5775,0.87,1.97,36.403423,-92.37,-96.36
1734501524417283585,1734501524417020082,3,2.5775,0.87,1.97,36.52224566666666,-90.26,-93.76
1734501524518008646,1734501524517882108,3,2.5775,0.87,1.97,36.703606666666666,-89.85,-94.43
1734501524616343771,1734501524616097450,3,2.5775,0.87,1.97,36.89747466666667,-92.2,-94.57
1734501524716514782,1734501524716087341,3,2.5775,0.87,1.97,37.022551,-91.09,-93.55
1734501524817203347,1734501524817021608,3,2.5775,0.87,1.97,37.19765833333333,-90.66,-92.13
1734501524916716315,1734501524916466712,3,2.5775,0.87,1.97,37.33524166666667,-90.05,-93.74
1734501525017348029,1734501525017121553,3,2.5775,0.87,1.97,37.472825,-89.58,-96.66
1734501525417586149,1734501525417330265,3,2.5775,0.87,1.97,38.104458666666666,-85.06,-91.48
1734501525517867399,1734501525517576694,3,2.5775,0.87,1.97,38.242042000000005,-86.16,-90.69
1734501525917429272,1734501525917163372,3,2.5775,0.87,1.97,38.861169999999994,-87.53,-87.81
1734501526018528110,1734501526018260002,3,2.5775,0.87,1.97,39.03002233333333,-87.47,-88.23
1734501526118220803,1734501526118051290,3,2.5775,0.87,1.97,39.180114333333336,-87.24,-88.82
1734501526218231748,1734501526218067407,3,2.5775,0.87,1.97,39.31769766666667,-86.95,-89.9
1734501526318236690,1734501526318063259,3,2.5775,0.87,1.97,39.46778966666667,-86.29,-88.31
1734501526418641942,1734501526418332576,3,2.5775,0.87,1.97,39.592866,-86.98,-88.61
1734501526518628151,1734501526518496036,3,2.5775,0.87,1.97,39.736704333333336,-86.82,-87.37
1734501526719101241,1734501526718948364,3,2.5775,0.87,1.97,39.918063999999994,-87.21,-87.65
1734501527115312030,1734501527115068435,3,2.5775,0.87,1.97,40.68102866666667,-85.55,-85.92
1734501527215615371,1734501527215040683,3,2.5775,0.87,1.97,40.787343,-85.85,-87.94
1734501527318125478,1734501527317900180,3,2.5775,0.87,1.97,40.962449,-85.52,-87.39
1734501527418091416,1734501527417859554,3,2.5775,0.87,1.97,41.118794333333334,-84.81,-86.54
1734501527518192834,1734501527517968654,3,2.5775,0.87,1.97,41.29390166666667,-85.82,-87.65
1734501527617253213,1734501527617055654,3,2.5775,0.87,1.97,41.431485,-85.32,-85.63
1734501527717124096,1734501527716956377,3,2.5775,0.87,1.97,41.57532333333334,-84.48,-83.91
1734501527817484970,1734501527817210912,3,2.5775,0.87,1.97,41.719160333333335,-84.92,-84.38
1734501527918095813,1734501527917923212,3,2.5775,0.87,1.97,41.89426766666667,-84.61,-85.73
1734501528017854214,1734501528017632722,3,2.5775,0.87,1.97,42.031850999999996,-85.23,-87.45
1734501528416475327,1734501528416228532,3,2.5775,0.87,1.97,42.550917999999996,-85.19,-86.26
1734501528516452731,1734501528516164064,3,2.5775,0.87,1.97,42.68224766666666,-85.72,-86.07
1734501528616516450,1734501528616229057,3,2.5775,0.87,1.97,42.87611566666667,-83.99,-83.44
1734501528717529463,1734501528717387199,3,2.5775,0.87,1.97,43.057475333333336,-85.59,-86.31
1734501528817130903,1734501528816864490,3,2.5775,0.87,1.97,43.20756733333334,-84.21,-84.66
1734501528917417879,1734501528917248487,3,2.5775,0.87,1.97,43.33264366666666,-83.48,-83.46
1734501529047608860,1734501529047470331,3,2.5775,0.87,1.97,43.488989000000004,-86.4,-86.82
1734501529117749429,1734501529117478609,3,2.5775,0.87,1.97,43.639079333333335,-84.84,-84.94
1734501529316517999,1734501529316334009,3,2.5775,0.87,1.97,43.801678333333335,-83.67,-83.16
1734501529416617846,1734501529416253328,3,2.5775,0.87,1.97,43.951770333333336,-83.97,-85.51
1734501529516354290,1734501529516143321,3,2.5775,0.87,1.97,44.095608666666664,-84.57,-85.75
1734501529616524532,1734501529616184234,3,2.5775,0.87,1.97,44.239445666666676,-85.42,-84.88
1734501529716272732,1734501529716039180,3,2.5775,0.87,1.97,44.358268333333335,-84.2,-83.54
1734501529816605432,1734501529816309213,3,2.5775,0.87,1.97,44.520867333333335,-85.86,-85.88
1734501529916593275,1734501529916193723,3,2.5775,0.87,1.97,44.63969,-83.96,-86.28
1734501530017121512,1734501530016759634,3,2.5775,0.87,1.97,44.78978033333334,-83.89,-83.11
1734501530116537342,1734501530116155862,3,2.5775,0.87,1.97,44.908603,-84.67,-84.33
1734501530216322493,1734501530216213226,3,2.5775,0.87,1.97,45.05869366666667,-83.18,-82.91
1734501530316596702,1734501530316353321,3,2.5775,0.87,1.97,45.22129266666667,-84.27,-84.99
1734501530417488609,1734501530417280673,3,2.5775,0.87,1.97,45.32135333333334,-84.57,-86.42
1734501530617896505,1734501530617723941,3,2.5775,0.87,1.97,45.53398333333333,-83.44,-83.31
1734501531017924665,1734501531017716407,3,2.5775,0.87,1.97,46.315710333333335,-83.84,-84.8
1734501531117874577,1734501531117613315,3,2.5775,0.87,1.97,46.43453300000001,-84.07,-85.57
1734501531217032122,1734501531216759920,3,2.5775,0.87,1.97,46.565863,-83.17,-82.77
1734501531317533348,1734501531317271232,3,2.5775,0.87,1.97,46.64716166666667,-83.6,-85.63
1734501531418081688,1734501531417951583,3,2.5775,0.87,1.97,46.75973066666666,-84.09,-83.54
1734501531517677688,1734501531517403602,3,2.5775,0.87,1.97,46.79725333333334,-83.61,-85.57
1734501531617260126,1734501531617164611,3,2.5775,0.87,1.97,46.809762,-82.96,-82.36
1734501531717590063,1734501531717357873,3,2.5775,0.87,1.97,46.747223999999996,-85.68,-86.12
1734501532417591811,1734501532417389154,3,2.5775,0.87,1.97,46.84102933333333,-83.82,-85.61
1734501532517328435,1734501532517162799,3,2.5775,0.87,1.97,46.84102933333333,-84.14,-83.66
1734501532618429956,1734501532618278741,3,2.5775,0.87,1.97,46.87229833333333,-81.91,-81.91
1734501532716493334,1734501532716190576,3,2.5775,0.87,1.97,46.909821,-81.79,-81.87
1734501532816348521,1734501532816127777,3,2.5775,0.87,1.97,46.928581666666666,-83.04,-84.49
1734501532915387588,1734501532915030002,3,2.5775,0.87,1.97,46.928581666666666,-83.81,-83.71
1734501533015603961,1734501533015011548,3,2.5775,0.87,1.97,46.93483666666666,-81.76,-81.74
1734501533118861787,1734501533118620634,3,2.5775,0.87,1.97,46.93483666666666,-83.43,-84.94
1734501533217956534,1734501533217658281,3,2.5775,0.87,1.97,46.941090333333335,-82.85,-82.44
1734501533317738579,1734501533317373037,3,2.5775,0.87,1.97,46.93483533333333,-81.75,-81.76
1734501533417259949,1734501533417191743,3,2.5775,0.87,1.97,46.93483533333333,-83.1,-84.73
1734501533517268692,1734501533517069816,3,2.5775,0.87,1.97,46.93483533333333,-81.87,-81.91
1734501533617756937,1734501533617484092,3,2.5775,0.87,1.97,46.953597333333335,-82.16,-84.47
1734501533717365947,1734501533717246294,3,2.5775,0.87,1.97,46.95985099999999,-82.0,-84.43
1734501533817491040,1734501533817214727,3,2.5775,0.87,1.97,46.941090333333335,-82.51,-82.28
1734501533917295424,1734501533917105436,3,2.5775,0.87,1.97,46.91607466666667,-82.13,-84.31
1734501534048203578,1734501534047944307,3,2.5775,0.87,1.97,46.909821,-82.24,-83.94
1734501534117553054,1734501534117380857,3,2.5775,0.87,1.97,46.903567333333335,-82.88,-85.53
1734501534217042380,1734501534216910839,3,2.5775,0.87,1.97,46.897314,-83.02,-82.74
1734501534317524329,1734501534317113399,3,2.5775,0.87,1.97,46.90356766666667,-82.47,-82.21
1734501534417336324,1734501534417143821,3,2.5775,0.87,1.97,46.928582,-82.34,-82.03
1734501534517244208,1734501534516959190,3,2.5775,0.87,1.97,46.928582,-82.39,-83.52
1734501534617648222,1734501534617375373,3,2.5775,0.87,1.97,46.90982133333333,-82.34,-83.71
1734501534717675690,1734501534717421531,3,2.5775,0.87,1.97,46.90356766666667,-82.52,-84.46
1734501534817469663,1734501534817329406,3,2.5775,0.87,1.97,46.91607466666667,-83.58,-86.05
1734501534917525791,1734501534917323112,3,2.5775,0.87,1.97,46.941090333333335,-82.49,-84.28
1734501535017281081,1734501535017005681,3,2.5775,0.87,1.97,46.934836999999995,-81.99,-82.36
1734501535117400676,1734501535116987943,3,2.5775,0.87,1.97,46.934836999999995,-83.37,-84.54
1734501535217223974,1734501535217077255,3,2.5775,0.87,1.97,46.928582,-82.49,-83.91
1734501535317098771,1734501535316874265,3,2.5775,0.87,1.97,46.93483533333333,-82.69,-83.1
1734501535418269921,1734501535418001413,3,2.5775,0.87,1.97,46.94734366666666,-82.21,-81.83
1734501535517203735,1734501535517006874,3,2.5775,0.87,1.97,46.94109,-82.7,-82.44
1734501535617851286,1734501535617570161,3,2.5775,0.87,1.97,46.953598666666664,-83.85,-83.86
1734501535717504596,1734501535717241287,3,2.5775,0.87,1.97,46.95985233333334,-82.26,-84.17
1734501535817487836,1734501535817204236,3,2.5775,0.87,1.97,46.97861433333333,-83.98,-85.71
1734501535917227894,1734501535917143344,3,2.5775,0.87,1.97,46.997375,-84.85,-84.52
1734501536115456819,1734501536115024328,3,2.5775,0.87,1.97,46.99112133333333,-82.59,-83.81
1734501536215509208,1734501536215022087,3,2.5775,0.87,1.97,46.997375000000005,-84.31,-83.78
1734501536315364460,1734501536315010309,3,2.5775,0.87,1.97,46.99112133333333,-82.35,-84.08
1734501536415313866,1734501536415021657,3,2.5775,0.87,1.97,46.978612999999996,-81.99,-82.02
1734501536515375439,1734501536515051364,3,2.5775,0.87,1.97,46.98486666666667,-82.88,-84.78
1734501536615431510,1734501536615030765,3,2.5775,0.87,1.97,46.98486666666667,-82.97,-84.49
1734501536717303721,1734501536717051744,3,2.5775,0.87,1.97,47.01613566666666,-83.51,-85.06
1734501536915300705,1734501536915027856,3,2.5775,0.87,1.97,47.009882000000005,-82.7,-82.28
1734501537015476173,1734501537015061855,3,2.5775,0.87,1.97,47.00362833333333,-84.08,-84.6
1734501537115386226,1734501537115026473,3,2.5775,0.87,1.97,46.99112133333333,-82.41,-83.17
1734501537817707266,1734501537817582368,3,2.5775,0.87,1.97,46.997373333333336,-82.14,-82.11
1734501537918251101,1734501537917913913,3,2.5775,0.87,1.97,46.97861266666666,-81.97,-81.8
1734501538018068739,1734501538017872095,3,2.5775,0.87,1.97,46.97861266666666,-83.13,-83.27
1734501538116422578,1734501538116234540,3,2.5775,0.87,1.97,47.02864400000001,-82.17,-83.66
1734501538216322290,1734501538216078042,3,2.5775,0.87,1.97,47.034897666666666,-82.42,-83.81
1734501538316390770,1734501538316102981,3,2.5775,0.87,1.97,47.034897666666666,-81.76,-82.03
1734501538416548627,1734501538416247606,3,2.5775,0.87,1.97,47.022389000000004,-82.05,-84.22
1734501538516359508,1734501538516193389,3,2.5775,0.87,1.97,47.041151000000006,-81.86,-81.63
1734501538616482672,1734501538616193294,3,2.5775,0.87,1.97,47.022390333333334,-82.81,-84.64
1734501538716347322,1734501538716120719,3,2.5775,0.87,1.97,47.041152333333336,-83.88,-85.03
1734501538816262431,1734501538816167831,3,2.5775,0.87,1.97,47.078675,-81.9,-83.96
1734501538916421528,1734501538916116237,3,2.5775,0.87,1.97,47.078675000000004,-82.61,-82.43
1734501539047002467,1734501539046734809,3,2.5775,0.87,1.97,47.10369066666667,-82.43,-84.56
1734501539116261147,1734501539116043567,3,2.5775,0.87,1.97,47.08492866666668,-81.96,-81.76
1734501539216521720,1734501539216248989,3,2.5775,0.87,1.97,47.128705000000004,-82.21,-82.16
1734501539316676689,1734501539316131591,3,2.5775,0.87,1.97,47.12245133333334,-82.72,-82.48
1734501539416575984,1734501539416268348,3,2.5775,0.87,1.97,47.14121333333333,-82.36,-84.24
1734501539516311069,1734501539516119718,3,2.5775,0.87,1.97,47.166228666666676,-82.93,-83.9
1734501539616526140,1734501539616239786,3,2.5775,0.87,1.97,47.19124300000001,-81.51,-81.55
1734501539716734985,1734501539716445684,3,2.5775,0.87,1.97,47.19124300000001,-83.06,-82.63
1734501539816581450,1734501539816349983,3,2.5775,0.87,1.97,47.197496666666666,-81.81,-81.73
1734501539916644218,1734501539916460752,3,2.5775,0.87,1.97,47.178735999999994,-81.87,-82.46
1734501540016380098,1734501540016084671,3,2.5775,0.87,1.97,47.210005,-82.9,-82.45
1734501540116675999,1734501540116293907,3,2.5775,0.87,1.97,47.235020666666664,-83.38,-83.39
1734501540216653895,1734501540216439008,3,2.5775,0.87,1.97,47.253781333333336,-81.99,-81.98
1734501540316635354,1734501540316386699,3,2.5775,0.87,1.97,47.260034999999995,-82.74,-84.47
1734501540416395046,1734501540416223764,3,2.5775,0.87,1.97,47.26628833333333,-83.59,-83.69
1734501540516605795,1734501540516385555,3,2.5775,0.87,1.97,47.303812333333326,-82.02,-81.82
1734501540616742275,1734501540616400241,3,2.5775,0.87,1.97,47.32882766666666,-81.92,-82.04
1734501540716755305,1734501540716463804,3,2.5775,0.87,1.97,47.36635033333334,-84.08,-85.16
1734501540816653918,1734501540816339492,3,2.5775,0.87,1.97,47.39761933333333,-82.33,-84.0
1734501540915590362,1734501540915069341,3,2.5775,0.87,1.97,47.42888833333333,-82.76,-82.42
1734501541015537430,1734501541015012979,3,2.5775,0.87,1.97,47.453904,-82.74,-85.7
1734501541118264802,1734501541118052005,3,2.5775,0.87,1.97,47.47266466666667,-82.08,-82.07
1734501541317857439,1734501541317603826,3,2.5775,0.87,1.97,47.453903,-82.3,-82.09
1734501541417949283,1734501541417679548,3,2.5775,0.87,1.97,47.453903,-81.97,-82.5
1734501541517251022,1734501541517009496,3,2.5775,0.87,1.97,47.46015633333334,-82.85,-83.08
1734501541617493205,1734501541617288112,3,2.5775,0.87,1.97,47.522694333333334,-81.87,-83.11
1734501541717620968,1734501541717312097,3,2.5775,0.87,1.97,47.553963333333336,-81.92,-83.97
1734501541817385735,1734501541817256212,3,2.5775,0.87,1.97,47.578979,-81.55,-82.42
1734501541917979570,1734501541917641162,3,2.5775,0.87,1.97,47.603994666666665,-81.8,-82.24
1734501542017610369,1734501542017324447,3,2.5775,0.87,1.97,47.616502999999994,-82.14,-83.55
1734501542117793793,1734501542117636203,3,2.5775,0.87,1.97,47.64151866666666,-82.3,-83.95
1734501542218049801,1734501542217855453,3,2.5775,0.87,1.97,47.654025666666676,-82.25,-82.22
1734501542416348903,1734501542416075229,3,2.5775,0.87,1.97,47.666532999999994,-81.96,-81.98
1734501542516779440,1734501542516281843,3,2.5775,0.87,1.97,47.67904000000001,-85.57,-86.78
1734501542618173484,1734501542617310047,3,2.5775,0.87,1.97,47.64151733333333,-83.02,-82.58
1734501543016739700,1734501543016361236,3,2.5775,0.87,1.97,47.616503,-82.82,-84.27
1734501543117563620,1734501543117476463,3,2.5775,0.87,1.97,47.566472000000005,-83.54,-83.55
1734501543217790772,1734501543217565536,3,2.5775,0.87,1.97,47.522694666666666,-84.45,-86.55
1734501543318684975,1734501543318553924,3,2.5775,0.87,1.97,47.47266466666667,-84.77,-84.22
1734501543417827209,1734501543417436361,3,2.5775,0.87,1.97,47.453904,-84.47,-85.53
1734501543517169940,1734501543516997814,3,2.5775,0.87,1.97,47.42888833333333,-86.04,-87.79
1734501543615385519,1734501543615016460,3,2.5775,0.87,1.97,47.416380000000004,-85.0,-84.26
1734501543815595366,1734501543815049886,3,2.5775,0.87,1.97,47.385110999999995,-87.25,-86.66
1734501543915273567,1734501543915007114,3,2.5775,0.87,1.97,47.34758833333333,-83.56,-85.17
1734501544116430981,1734501544116137981,3,2.5775,0.87,1.97,47.291305,-83.16,-82.6
1734501544916283070,1734501544916112422,3,2.5775,0.87,1.97,47.02864400000001,-83.96,-84.85
1734501545016088178,1734501545015906095,3,2.5775,0.87,1.97,46.97235933333334,-85.64,-85.84
1734501545115343145,1734501545115010976,3,2.5775,0.87,1.97,46.93483666666666,-85.23,-87.56
1734501545215295614,1734501545215017557,3,2.5775,0.87,1.97,46.90982133333333,-83.0,-82.27
1734501545315244153,1734501545315025806,3,2.5775,0.87,1.97,46.87855233333334,-85.37,-87.18
1734501545416212864,1734501545416066884,3,2.5775,0.87,1.97,46.828522666666665,-83.95,-85.13
1734501545516352019,1734501545516007900,3,2.5775,0.87,1.97,46.759730999999995,-83.99,-83.3
1734501545616163685,1734501545615878343,3,2.5775,0.87,1.97,46.70970133333333,-82.88,-83.82
1734501545716329056,1734501545716179132,3,2.5775,0.87,1.97,46.62214766666667,-83.06,-82.68
1734501545816500031,1734501545816311836,3,2.5775,0.87,1.97,46.547102333333335,-83.52,-82.9
1734501545916453823,1734501545916290998,3,2.5775,0.87,1.97,46.44704166666667,-84.07,-84.6
1734501546016673287,1734501546016475677,3,2.5775,0.87,1.97,46.371995,-84.87,-85.25
1734501546116551374,1734501546116372108,3,2.5775,0.87,1.97,46.290695,-84.4,-84.08
1734501546216221777,1734501546216127634,3,2.5775,0.87,1.97,46.190632666666666,-83.97,-85.13
1734501546316591182,1734501546316375970,3,2.5775,0.87,1.97,46.121840999999996,-87.01,-87.28
1734501546416875383,1734501546416283845,3,2.5775,0.87,1.97,46.040541999999995,-83.64,-82.97
1734501546516645499,1734501546516423940,3,2.5775,0.87,1.97,45.97175033333334,-85.79,-88.06
1734501546616591832,1734501546616355419,3,2.5775,0.87,1.97,45.877942999999995,-83.58,-83.41
1734501546716665554,1734501546716549158,3,2.5775,0.87,1.97,45.79038933333334,-82.85,-83.51
1734501546816465875,1734501546816279649,3,2.5775,0.87,1.97,45.70283700000001,-83.86,-85.06
1734501546916419254,1734501546916155338,3,2.5775,0.87,1.97,45.60277633333334,-83.43,-84.79
1734501547016364940,1734501547016183376,3,2.5775,0.87,1.97,45.508969,-83.63,-82.89
1734501547116542332,1734501547116343975,3,2.5775,0.87,1.97,45.408907,-83.45,-85.01
1734501547316763578,1734501547316448211,3,2.5775,0.87,1.97,45.31509966666667,-83.38,-82.82
1734501547416754117,1734501547416604042,3,2.5775,0.87,1.97,45.20253066666667,-84.29,-83.83
1734501547516444807,1734501547516153335,3,2.5775,0.87,1.97,45.09621633333333,-84.8,-84.28
1734501547616738491,1734501547616484403,3,2.5775,0.87,1.97,44.996155666666674,-84.23,-84.67
1734501547716600747,1734501547716273307,3,2.5775,0.87,1.97,44.88984133333333,-83.42,-82.98
1734501547817031761,1734501547816773414,3,2.5775,0.87,1.97,44.783527,-84.52,-84.43
1734501547916525427,1734501547916278123,3,2.5775,0.87,1.97,44.68971966666667,-83.88,-83.77
1734501548016748036,1734501548016380310,3,2.5775,0.87,1.97,44.589659000000005,-83.6,-85.13
1734501548116655795,1734501548116330862,3,2.5775,0.87,1.97,44.48334466666666,-84.36,-83.66
1734501548216573118,1734501548216256618,3,2.5775,0.87,1.97,44.36452333333333,-86.2,-85.44
1734501548316746060,1734501548316425323,3,2.5775,0.87,1.97,44.251954000000005,-83.96,-85.61
1734501548416653307,1734501548416310071,3,2.5775,0.87,1.97,44.14563833333333,-84.0,-83.61
1734501548515571033,1734501548515050172,3,2.5775,0.87,1.97,44.020562000000005,-84.37,-83.76
1734501548615439345,1734501548615037441,3,2.5775,0.87,1.97,43.90174066666666,-84.36,-84.0
1734501548715361499,1734501548715004682,3,2.5775,0.87,1.97,43.776664333333336,-85.07,-84.77
1734501548815612907,1734501548815046310,3,2.5775,0.87,1.97,43.67034866666666,-87.03,-86.58
1734501548915600674,1734501548915004253,3,2.5775,0.87,1.97,43.564032999999995,-88.67,-89.51
1734501549048562077,1734501549048240661,3,2.5775,0.87,1.97,43.463972333333324,-84.46,-84.17
1734501549118331857,1734501549118132114,3,2.5775,0.87,1.97,43.357657999999994,-84.6,-85.45
1734501549219718623,1734501549219478607,3,2.5775,0.87,1.97,43.22007466666667,-86.27,-86.18
1734501549317960281,1734501549317697763,3,2.5775,0.87,1.97,43.08874466666666,-84.25,-86.3
1734501549417517631,1734501549417237997,3,2.5775,0.87,1.97,42.951161333333324,-85.02,-86.22
1734501549515399232,1734501549515019416,3,2.5775,0.87,1.97,42.838592000000006,-85.07,-84.59
1734501549716898842,1734501549716512441,3,2.5775,0.87,1.97,42.68850033333334,-84.66,-84.28
1734501550518238999,1734501550518081426,3,2.5775,0.87,1.97,41.94429733333333,-87.84,-88.07
1734501550617745324,1734501550617498874,3,2.5775,0.87,1.97,41.938043666666665,-88.6,-91.1
1734501550717524512,1734501550717364311,3,2.5775,0.87,1.97,41.925536666666666,-87.88,-89.31
1734501550817934701,1734501550817767381,3,2.5775,0.87,1.97,41.90677466666667,-87.55,-88.39
1734501550917303263,1734501550917158603,3,2.5775,0.87,1.97,41.881758999999995,-87.54,-87.36
1734501551017164416,1734501551016973018,3,2.5775,0.87,1.97,41.881758999999995,-87.7,-87.53
1734501551117463717,1734501551117272377,3,2.5775,0.87,1.97,41.862997,-88.41,-88.94
1734501551217395642,1734501551217319965,3,2.5775,0.87,1.97,41.85674366666667,-87.53,-87.92
1734501551317802475,1734501551317527770,3,2.5775,0.87,1.97,41.825474666666665,-87.75,-88.21
1734501551417291395,1734501551417175054,3,2.5775,0.87,1.97,41.800460666666666,-88.58,-89.07
1734501551517000737,1734501551516681909,3,2.5775,0.87,1.97,41.787953333333334,-88.17,-88.24
1734501551617189488,1734501551617006301,3,2.5775,0.87,1.97,41.787953333333334,-87.87,-88.96
1734501551717508478,1734501551717279911,3,2.5775,0.87,1.97,41.80046033333333,-91.05,-91.94
1734501551817456794,1734501551817069053,3,2.5775,0.87,1.97,41.80046033333333,-87.37,-88.0
1734501551917986104,1734501551917780160,3,2.5775,0.87,1.97,41.81296733333333,-87.36,-87.13
1734501552018022540,1734501552017736673,3,2.5775,0.87,1.97,41.81296733333333,-87.76,-87.77
1734501552117980264,1734501552117849111,3,2.5775,0.87,1.97,41.80046033333333,-90.48,-91.65
1734501552215516336,1734501552215065717,3,2.5775,0.87,1.97,41.825476,-87.79,-87.43
1734501552315349289,1734501552315011262,3,2.5775,0.87,1.97,41.819222333333336,-92.01,-91.93
1734501552415415652,1734501552415025234,3,2.5775,0.87,1.97,41.825476,-89.9,-89.63
1734501552515365385,1734501552515013694,3,2.5775,0.87,1.97,41.787953333333334,-88.25,-88.19
1734501552618274252,1734501552618060350,3,2.5775,0.87,1.97,41.7817,-90.1,-89.37
1734501552717816507,1734501552717602252,3,2.5775,0.87,1.97,41.762938,-88.99,-89.32
1734501552817930576,1734501552817828655,3,2.5775,0.87,1.97,41.762938,-88.61,-88.81
1734501552917129249,1734501552917007684,3,2.5775,0.87,1.97,41.76919133333333,-87.95,-87.42
1734501553017279483,1734501553017064332,3,2.5775,0.87,1.97,41.79420666666667,-88.46,-88.3
1734501553117473991,1734501553117259740,3,2.5775,0.87,1.97,41.787953,-88.66,-89.63
1734501553215307447,1734501553215031623,3,2.5775,0.87,1.97,41.762937666666666,-87.68,-88.42
1734501553315435298,1734501553315051555,3,2.5775,0.87,1.97,41.73792233333334,-92.97,-92.3
1734501553416663117,1734501553416102409,3,2.5775,0.87,1.97,41.725414,-88.82,-88.38
1734501553516541538,1734501553516357183,3,2.5775,0.87,1.97,41.731667333333334,-94.85,-94.01
1734501553616611990,1734501553616280555,3,2.5775,0.87,1.97,41.73792066666667,-88.19,-88.29
1734501553716313377,1734501553716125011,3,2.5775,0.87,1.97,41.744174,-91.44,-90.47
1734501553816752425,1734501553816371202,3,2.5775,0.87,1.97,41.744174,-87.29,-86.37
1734501553916515351,1734501553916381120,3,2.5775,0.87,1.97,41.731667,-87.58,-87.83
1734501554047671842,1734501554047349214,3,2.5775,0.87,1.97,41.737922000000005,-88.0,-87.44
1734501554117163143,1734501554116936683,3,2.5775,0.87,1.97,41.744177,-88.39,-89.17
1734501554217161332,1734501554216924667,3,2.5775,0.87,1.97,41.76919266666667,-88.76,-89.14
1734501554317451096,1734501554317284584,3,2.5775,0.87,1.97,41.78169966666667,-88.91,-88.25
1734501554517749377,1734501554517500162,3,2.5775,0.87,1.97,41.787953333333334,-89.46,-89.37
1734501554918226509,1734501554918018102,3,2.5775,0.87,1.97,41.806714,-88.64,-89.59
1734501555018083548,1734501555017864704,3,2.5775,0.87,1.97,41.80046033333333,-90.13,-90.36
1734501555215340341,1734501555215003967,3,2.5775,0.87,1.97,41.806714,-91.29,-90.66
1734501555315448492,1734501555315018892,3,2.5775,0.87,1.97,41.79420666666667,-89.01,-88.74
1734501555416673085,1734501555416405916,3,2.5775,0.87,1.97,41.82547433333333,-89.0,-88.28
1734501555516700192,1734501555516489982,3,2.5775,0.87,1.97,41.82547433333333,-88.89,-88.48
1734501555616672769,1734501555616369247,3,2.5775,0.87,1.97,41.844235,-89.26,-89.06
1734501555716255258,1734501555716085433,3,2.5775,0.87,1.97,41.85049,-88.6,-89.07
1734501555817474707,1734501555817226171,3,2.5775,0.87,1.97,41.862997,-88.82,-88.12
1734501555917989487,1734501555917887449,3,2.5775,0.87,1.97,41.87550566666666,-89.78,-89.27
1734501556017986943,1734501556017853021,3,2.5775,0.87,1.97,41.89426633333333,-90.03,-90.78
1734501556117971212,1734501556117901802,3,2.5775,0.87,1.97,41.91302833333333,-90.72,-90.02
1734501556217321227,1734501556217183589,3,2.5775,0.87,1.97,41.938043666666665,-91.51,-90.88
1734501556317449314,1734501556317369699,3,2.5775,0.87,1.97,41.94429733333333,-89.6,-89.62
1734501556417579144,1734501556417213678,3,2.5775,0.87,1.97,41.94429733333333,-89.56,-90.52
1734501556517507260,1734501556517296075,3,2.5775,0.87,1.97,41.94429733333333,-90.45,-91.87
1734501556617685977,1734501556617509841,3,2.5775,0.87,1.97,41.95680566666667,-89.34,-89.87
1734501556717865175,1734501556717593908,3,2.5775,0.87,1.97,42.006836666666665,-89.9,-89.29
1734501556818307079,1734501556818050384,3,2.5775,0.87,1.97,42.01309033333334,-92.18,-93.48
1734501556918154166,1734501556918027400,3,2.5775,0.87,1.97,42.019343666666664,-90.26,-90.28
1734501557018097042,1734501557017819643,3,2.5775,0.87,1.97,42.013089,-88.71,-88.58
1734501557115430776,1734501557115027427,3,2.5775,0.87,1.97,42.044357999999995,-89.95,-89.95
1734501557215349780,1734501557215013742,3,2.5775,0.87,1.97,42.044357999999995,-89.09,-89.17
1734501557315510709,1734501557315006494,3,2.5775,0.87,1.97,42.06937333333334,-88.74,-91.81
1734501557417988791,1734501557417729616,3,2.5775,0.87,1.97,42.08188033333334,-88.8,-89.13
1734501557518268477,1734501557518080949,3,2.5775,0.87,1.97,42.13191166666667,-89.71,-92.53
1734501557618473513,1734501557618336439,3,2.5775,0.87,1.97,42.13816533333333,-88.85,-88.71
1734501557718416399,1734501557718180656,3,2.5775,0.87,1.97,42.150674,-88.89,-89.99
1734501557817098181,1734501557816896915,3,2.5775,0.87,1.97,42.163181,-89.18,-89.08
1734501557917252754,1734501557917001724,3,2.5775,0.87,1.97,42.21946566666667,-89.12,-88.74
1734501558017521247,1734501558017194032,3,2.5775,0.87,1.97,42.21946566666667,-88.81,-89.38
1734501558117199195,1734501558117052078,3,2.5775,0.87,1.97,42.23822766666667,-89.7,-91.11
1734501558317887474,1734501558317740917,3,2.5775,0.87,1.97,42.225720333333335,-89.28,-89.19
1734501558417858154,1734501558417682170,3,2.5775,0.87,1.97,42.275749999999995,-88.68,-88.58
1734501558518519681,1734501558518294811,3,2.5775,0.87,1.97,42.29451066666667,-89.47,-90.56
1734501558918154560,1734501558917870759,3,2.5775,0.87,1.97,42.36330366666667,-90.92,-91.71
1734501559048615512,1734501559048441886,3,2.5775,0.87,1.97,42.38206433333333,-88.95,-89.64
1734501559117868567,1734501559117687702,3,2.5775,0.87,1.97,42.419587,-87.92,-89.05
1734501559215368959,1734501559215023040,3,2.5775,0.87,1.97,42.419587,-92.24,-92.17
1734501559315348447,1734501559315036773,3,2.5775,0.87,1.97,42.45710966666667,-90.52,-90.44
1734501559417140853,1734501559417019844,3,2.5775,0.87,1.97,42.46961666666667,-89.94,-90.26
1734501559517741889,1734501559517577648,3,2.5775,0.87,1.97,42.53840833333334,-88.25,-88.18
1734501559717040523,1734501559716818571,3,2.5775,0.87,1.97,42.507139333333335,-88.3,-88.66
1734501559817066333,1734501559816883802,3,2.5775,0.87,1.97,42.46961666666667,-86.42,-87.17
1734501559917209293,1734501559916957378,3,2.5775,0.87,1.97,42.369556,-87.17,-88.37
1734501560017288463,1734501560017129659,3,2.5775,0.87,1.97,42.33828666666667,-87.16,-87.06
1734501560116694436,1734501560116363048,3,2.5775,0.87,1.97,42.294510333333335,-85.96,-86.01
1734501560218290592,1734501560218050003,3,2.5775,0.87,1.97,42.269495,-85.27,-84.89
1734501560318062969,1734501560317854881,3,2.5775,0.87,1.97,42.225719000000005,-85.39,-86.74
1734501560416287192,1734501560416105508,3,2.5775,0.87,1.97,42.20070366666667,-85.49,-86.54
1734501560516375772,1734501560516281843,3,2.5775,0.87,1.97,42.181943,-84.58,-84.14
1734501560616374039,1734501560616086959,3,2.5775,0.87,1.97,42.181943000000004,-85.64,-86.72
1734501560716468750,1734501560716279745,3,2.5775,0.87,1.97,42.163181,-85.1,-84.45
1734501560816278967,1734501560816066026,3,2.5775,0.87,1.97,42.156926000000006,-84.83,-87.48
1734501560915324601,1734501560915021419,3,2.5775,0.87,1.97,42.11940333333334,-86.13,-86.42
1734501561015392348,1734501561014995813,3,2.5775,0.87,1.97,42.094389,-85.09,-84.86
1734501561115472015,1734501561115016222,3,2.5775,0.87,1.97,42.050612666666666,-84.84,-84.36
1734501561218057356,1734501561217843055,3,2.5775,0.87,1.97,42.019343666666664,-85.81,-85.76
1734501561317900219,1734501561317765474,3,2.5775,0.87,1.97,41.97556633333334,-85.3,-85.54
1734501561418619898,1734501561418446063,3,2.5775,0.87,1.97,41.94429733333333,-85.49,-85.4
1734501561518670386,1734501561518335580,3,2.5775,0.87,1.97,41.90677466666667,-84.7,-85.87
1734501561618792036,1734501561618545770,3,2.5775,0.87,1.97,41.856745,-86.19,-88.61
1734501561718529539,1734501561718373298,3,2.5775,0.87,1.97,41.812969,-87.38,-87.15
1734501561818315046,1734501561818039178,3,2.5775,0.87,1.97,41.775446333333335,-84.13,-84.1
1734501561918129835,1734501561917928218,3,2.5775,0.87,1.97,41.73166866666667,-84.94,-84.92
1734501562017511665,1734501562017310857,3,2.5775,0.87,1.97,41.68163766666667,-84.46,-84.09
1734501562117578624,1734501562117309808,3,2.5775,0.87,1.97,41.61284466666667,-85.2,-86.06
1734501562217795059,1734501562217608451,3,2.5775,0.87,1.97,41.550306666666664,-84.67,-86.59
1734501562317951034,1734501562317738771,3,2.5775,0.87,1.97,41.48776833333333,-84.54,-83.89
1734501562417732411,1734501562417262077,3,2.5775,0.87,1.97,41.41897666666667,-85.39,-87.57
1734501562518094690,1734501562517770051,3,2.5775,0.87,1.97,41.368947,-85.28,-86.29
1734501562617806507,1734501562617510080,3,2.5775,0.87,1.97,41.268886333333334,-87.84,-88.7
1734501562717187532,1734501562717046022,3,2.5775,0.87,1.97,41.16882566666666,-85.75,-86.13
1734501562817310552,1734501562817116498,3,2.5775,0.87,1.97,41.07501833333333,-85.13,-85.17
1734501562917250721,1734501562917002439,3,2.5775,0.87,1.97,41.01873366666666,-85.39,-85.23
1734501563117732173,1734501563117508172,3,2.5775,0.87,1.97,40.931180000000005,-86.32,-87.5
1734501563717460937,1734501563717192411,3,2.5775,0.87,1.97,40.387098333333334,-85.36,-85.66
1734501563817325375,1734501563817069768,3,2.5775,0.87,1.97,40.199484000000005,-86.68,-88.41
1734501563917413676,1734501563917189598,3,2.5775,0.87,1.97,40.09316966666666,-87.73,-88.73
1734501564115137310,1734501564115025043,3,2.5775,0.87,1.97,39.96183966666666,-85.76,-88.58
1734501564416222051,1734501564415069341,3,2.5775,0.87,1.97,39.774225333333334,-89.33,-90.32
1734501564617421428,1734501564617242336,3,2.5775,0.87,1.97,39.51156566666667,-87.83,-88.33
1734501564917482470,1734501564917165756,3,2.5775,0.87,1.97,39.192621333333335,-88.12,-89.06
1734501565117137789,1734501565116938591,3,2.5775,0.87,1.97,38.917452999999995,-86.37,-89.52
1734501565617618145,1734501565617408275,3,2.5775,0.87,1.97,38.15448966666667,-86.6,-92.48
1734501565715293335,1734501565715017795,3,2.5775,0.87,1.97,38.04817533333333,-86.19,-91.25
1734501565817858012,1734501565817711830,3,2.5775,0.87,1.97,37.923099,-86.29,-91.0
1734501565918138652,1734501565918045759,3,2.5775,0.87,1.97,37.81052966666667,-86.2,-93.49
1734501566017507741,1734501566017323017,3,2.5775,0.87,1.97,37.660438,-89.22,-93.68
1734501566116414600,1734501566116218328,3,2.5775,0.87,1.97,37.52285466666666,-87.78,-92.73
1734501566216165332,1734501566216084241,3,2.5775,0.87,1.97,37.372763,-91.01,-96.36
1734501566316280305,1734501566316023826,3,2.5775,0.87,1.97,37.24768666666666,-90.05,-97.18
1734501566416713929,1734501566416349649,3,2.5775,0.87,1.97,37.15387933333333,-90.99,-93.57
1734501566516433548,1734501566516065120,3,2.5775,0.87,1.97,37.07258033333333,-90.85,-95.2
1734501566616719859,1734501566616270065,3,2.5775,0.87,1.97,37.003788666666665,-91.81,-93.97
1734501566716370628,1734501566716012716,3,2.5775,0.87,1.97,36.94125066666667,-91.41,-96.16
1734501566816379323,1734501566816148281,3,2.5775,0.87,1.97,36.90998166666667,-90.76,-91.65
1734501566916312172,1734501566916220664,3,2.5775,0.87,1.97,36.872459,-89.0,-90.86
1734501567016401274,1734501567016188859,3,2.5775,0.87,1.97,36.853697000000004,-91.81,-92.26
