%time,field.header.seq,field.header.stamp,field.header.frame_id,field.status.status,field.status.service,field.latitude,field.longitude,field.altitude,field.position_covariance0,field.position_covariance1,field.position_covariance2,field.position_covariance3,field.position_covariance4,field.position_covariance5,field.position_covariance6,field.position_covariance7,field.position_covariance8,field.position_covariance_type
1734501485537969714,2568,1734501485500326730,gps,2,0,37.555236799999996,127.04510769999999,49.785000000000004,0.00019600000000000002,0.0,0.0,0.0,0.00019600000000000002,0.0,0.0,0.0,0.00032399999999999996,2
1734501485661683046,2569,1734501485625326732,gps,2,0,37.555236799999996,127.04510769999999,49.796,0.00019600000000000002,0.0,0.0,0.0,0.00019600000000000002,0.0,0.0,0.0,0.00032399999999999996,2
1734501485786041030,2570,1734501485750326734,gps,2,0,37.555236799999996,127.04510769999999,49.805,0.00019600000000000002,0.0,0.0,0.0,0.00019600000000000002,0.0,0.0,0.0,0.000361,2
1734501485906920632,2571,1734501485875326737,gps,2,0,37.555236799999996,127.0451076,49.803000000000004,0.00019600000000000002,0.0,0.0,0.0,0.00019600000000000002,0.0,0.0,0.0,0.000361,2
1734501486039621618,2572,1734501486000326739,gps,2,0,37.555236799999996,127.0451076,49.786,0.00019600000000000002,0.0,0.0,0.0,0.00019600000000000002,0.0,0.0,0.0,0.00032399999999999996,2
1734501486185311997,2573,1734501486125326741,gps,2,0,37.555236799999996,127.0451076,49.778,0.00019600000000000002,0.0,0.0,0.0,0.00019600000000000002,0.0,0.0,0.0,0.00032399999999999996,2
1734501486293686283,2574,1734501486250326743,gps,2,0,37.555236799999996,127.0451075,49.774,0.00019600000000000002,0.0,0.0,0.0,0.00019600000000000002,0.0,0.0,0.0,0.00032399999999999996,2
1734501486411407410,2575,1734501486375326746,gps,2,0,37.555236799999996,127.0451076,49.791000000000004,0.00019600000000000002,0.0,0.0,0.0,0.00019600000000000002,0.0,0.0,0.0,0.00032399999999999996,2
1734501486536984711,2576,1734501486500326748,gps,2,0,37.5552369,127.0451075,49.778,0.00019600000000000002,0.0,0.0,0.0,0.00019600000000000002,0.0,0.0,0.0,0.000361,2
1734501486660709679,2577,1734501486625326750,gps,2,0,37.5552369,127.0451075,49.762,0.00019600000000000002,0.0,0.0,0.0,0.00019600000000000002,0.0,0.0,0.0,0.00032399999999999996,2
1734501486781232204,2578,1734501486750326752,gps,2,0,37.5552369,127.04510719999999,49.75,0.00019600000000000002,0.0,0.0,0.0,0.00019600000000000002,0.0,0.0,0.0,0.000361,2
1734501486910891294,2579,1734501486875326754,gps,2,0,37.555237,127.04510719999999,49.745000000000005,0.00019600000000000002,0.0,0.0,0.0,0.00019600000000000002,0.0,0.0,0.0,0.000361,2
1734501487041055458,2580,1734501487000326757,gps,2,0,37.555236799999996,127.04510739999999,49.75,0.00019600000000000002,0.0,0.0,0.0,0.00019600000000000002,0.0,0.0,0.0,0.000361,2
1734501487161664048,2581,1734501487125326759,gps,2,0,37.5552369,127.04510739999999,49.765,0.00019600000000000002,0.0,0.0,0.0,0.00019600000000000002,0.0,0.0,0.0,0.000361,2
1734501487292774592,2582,1734501487250326761,gps,2,0,37.5552369,127.0451073,49.762,0.00019600000000000002,0.0,0.0,0.0,0.00019600000000000002,0.0,0.0,0.0,0.00032399999999999996,2
1734501487410751237,2583,1734501487375326763,gps,2,0,37.555237,127.04510719999999,49.737,0.00019600000000000002,0.0,0.0,0.0,0.00019600000000000002,0.0,0.0,0.0,0.00032399999999999996,2
1734501487536830829,2584,1734501487500326765,gps,2,0,37.5552369,127.04510739999999,49.743,0.00019600000000000002,0.0,0.0,0.0,0.00019600000000000002,0.0,0.0,0.0,0.000361,2
1734501487659706594,2585,1734501487625326767,gps,2,0,37.555236799999996,127.04510739999999,49.755,0.00019600000000000002,0.0,0.0,0.0,0.00019600000000000002,0.0,0.0,0.0,0.0004,2
1734501487786536220,2586,1734501487750326770,gps,2,0,37.5552369,127.04510739999999,49.764,0.00019600000000000002,0.0,0.0,0.0,0.00019600000000000002,0.0,0.0,0.0,0.0004,2
1734501487910818332,2587,1734501487875326772,gps,2,0,37.555237,127.0451073,49.751,0.00019600000000000002,0.0,0.0,0.0,0.00019600000000000002,0.0,0.0,0.0,0.0004,2
1734501488040822676,2588,1734501488000326774,gps,2,0,37.555237,127.04510739999999,49.744,0.00019600000000000002,0.0,0.0,0.0,0.00019600000000000002,0.0,0.0,0.0,0.0004,2
1734501488185831195,2589,1734501488125326776,gps,2,0,37.5552369,127.0451076,49.75,0.00019600000000000002,0.0,0.0,0.0,0.00019600000000000002,0.0,0.0,0.0,0.0004,2
1734501488286351819,2590,1734501488250326778,gps,2,0,37.555237,127.04510739999999,49.753,0.00019600000000000002,0.0,0.0,0.0,0.00019600000000000002,0.0,0.0,0.0,0.0004,2
1734501488411446984,2591,1734501488375326780,gps,2,0,37.555237,127.04510739999999,49.741,0.00019600000000000002,0.0,0.0,0.0,0.00019600000000000002,0.0,0.0,0.0,0.0004,2
1734501488537411882,2592,1734501488500326783,gps,2,0,37.555237,127.04510739999999,49.742000000000004,0.00019600000000000002,0.0,0.0,0.0,0.00019600000000000002,0.0,0.0,0.0,0.0004,2
1734501488661941831,2593,1734501488625326785,gps,2,0,37.5552369,127.0451075,49.745000000000005,0.00019600000000000002,0.0,0.0,0.0,0.00019600000000000002,0.0,0.0,0.0,0.0004,2
1734501488785442633,2594,1734501488750326787,gps,2,0,37.5552371,127.04510739999999,49.728,0.00019600000000000002,0.0,0.0,0.0,0.00019600000000000002,0.0,0.0,0.0,0.000361,2
1734501488909865175,2595,1734501488875326789,gps,2,0,37.555237,127.04510739999999,49.728,0.00019600000000000002,0.0,0.0,0.0,0.00019600000000000002,0.0,0.0,0.0,0.000361,2
1734501489039577790,2596,1734501489000326791,gps,2,0,37.555237,127.04510739999999,49.721000000000004,0.00019600000000000002,0.0,0.0,0.0,0.00019600000000000002,0.0,0.0,0.0,0.000361,2
1734501489161538541,2597,1734501489125326793,gps,2,0,37.555237,127.0451073,49.709,0.00019600000000000002,0.0,0.0,0.0,0.00019600000000000002,0.0,0.0,0.0,0.00032399999999999996,2
1734501489292787544,2598,1734501489250326795,gps,2,0,37.555237,127.04510739999999,49.713,0.00019600000000000002,0.0,0.0,0.0,0.00019600000000000002,0.0,0.0,0.0,0.00032399999999999996,2
1734501489411364651,2599,1734501489375326798,gps,2,0,37.555237,127.04510739999999,49.712,0.00019600000000000002,0.0,0.0,0.0,0.00019600000000000002,0.0,0.0,0.0,0.00032399999999999996,2
1734501489533344159,2600,1734501489500326800,gps,2,0,37.555237,127.0451073,49.704,0.00019600000000000002,0.0,0.0,0.0,0.00019600000000000002,0.0,0.0,0.0,0.00028900000000000003,2
1734501489661070845,2601,1734501489625326802,gps,2,0,37.5552371,127.0451073,49.715,0.00019600000000000002,0.0,0.0,0.0,0.00019600000000000002,0.0,0.0,0.0,0.00028900000000000003,2
1734501489784838905,2602,1734501489750326804,gps,2,0,37.5552369,127.04510739999999,49.724000000000004,0.00019600000000000002,0.0,0.0,0.0,0.00019600000000000002,0.0,0.0,0.0,0.00028900000000000003,2
1734501489910591102,2603,1734501489875326806,gps,2,0,37.555237,127.0451073,49.724000000000004,0.00019600000000000002,0.0,0.0,0.0,0.00019600000000000002,0.0,0.0,0.0,0.00028900000000000003,2
1734501490040937126,2604,1734501490000326808,gps,2,0,37.555237,127.0451073,49.723,0.00019600000000000002,0.0,0.0,0.0,0.00019600000000000002,0.0,0.0,0.0,0.00028900000000000003,2
1734501490185230128,2605,1734501490125326810,gps,2,0,37.555237,127.04510739999999,49.734,0.00019600000000000002,0.0,0.0,0.0,0.00019600000000000002,0.0,0.0,0.0,0.00028900000000000003,2
1734501490292505798,2606,1734501490250326812,gps,2,0,37.555237,127.04510739999999,49.742000000000004,0.00019600000000000002,0.0,0.0,0.0,0.00019600000000000002,0.0,0.0,0.0,0.00028900000000000003,2
1734501490407395106,2607,1734501490375326814,gps,2,0,37.555237,127.0451073,49.728,0.00019600000000000002,0.0,0.0,0.0,0.00019600000000000002,0.0,0.0,0.0,0.00028900000000000003,2
1734501490536603117,2608,1734501490500326817,gps,2,0,37.555237,127.0451073,49.722,0.00019600000000000002,0.0,0.0,0.0,0.00019600000000000002,0.0,0.0,0.0,0.00028900000000000003,2
1734501490662385356,2609,1734501490625326819,gps,2,0,37.5552369,127.04510739999999,49.742000000000004,0.00019600000000000002,0.0,0.0,0.0,0.00019600000000000002,0.0,0.0,0.0,0.00032399999999999996,2
1734501490786802568,2610,1734501490750326821,gps,2,0,37.555237,127.04510739999999,49.745000000000005,0.00019600000000000002,0.0,0.0,0.0,0.00019600000000000002,0.0,0.0,0.0,0.00032399999999999996,2
1734501490911226381,2611,1734501490875326823,gps,2,0,37.5552369,127.0451075,49.751,0.00019600000000000002,0.0,0.0,0.0,0.00019600000000000002,0.0,0.0,0.0,0.000361,2
1734501491040893992,2612,1734501491000326825,gps,2,0,37.5552369,127.0451075,49.747,0.00019600000000000002,0.0,0.0,0.0,0.00019600000000000002,0.0,0.0,0.0,0.0004,2
1734501491161595233,2613,1734501491125326827,gps,2,0,37.5552369,127.04510739999999,49.753,0.00019600000000000002,0.0,0.0,0.0,0.00019600000000000002,0.0,0.0,0.0,0.00044100000000000004,2
1734501491288641241,2614,1734501491250326829,gps,2,0,37.5552369,127.04510739999999,49.755,0.00019600000000000002,0.0,0.0,0.0,0.00019600000000000002,0.0,0.0,0.0,0.0004,2
1734501491412685457,2615,1734501491375326831,gps,2,0,37.5552369,127.0451075,49.765,0.00019600000000000002,0.0,0.0,0.0,0.00019600000000000002,0.0,0.0,0.0,0.0004,2
1734501491537757365,2616,1734501491500326833,gps,2,0,37.5552369,127.0451075,49.76,0.00019600000000000002,0.0,0.0,0.0,0.00019600000000000002,0.0,0.0,0.0,0.0004,2
1734501491662408715,2617,1734501491625326836,gps,2,0,37.5552369,127.0451076,49.772,0.00019600000000000002,0.0,0.0,0.0,0.00019600000000000002,0.0,0.0,0.0,0.0004,2
1734501491785757225,2618,1734501491750326838,gps,2,0,37.555237,127.04510739999999,49.755,0.00019600000000000002,0.0,0.0,0.0,0.00019600000000000002,0.0,0.0,0.0,0.000361,2
1734501491910518926,2619,1734501491875326840,gps,2,0,37.5552369,127.0451075,49.762,0.00019600000000000002,0.0,0.0,0.0,0.00019600000000000002,0.0,0.0,0.0,0.00032399999999999996,2
1734501492038583729,2620,1734501492000326842,gps,2,0,37.5552369,127.0451075,49.763,0.00019600000000000002,0.0,0.0,0.0,0.00019600000000000002,0.0,0.0,0.0,0.00044100000000000004,2
1734501492182147674,2621,1734501492125326844,gps,2,0,37.555237,127.0451075,49.755,0.00019600000000000002,0.0,0.0,0.0,0.00019600000000000002,0.0,0.0,0.0,0.000361,2
1734501492285549670,2622,1734501492250326846,gps,2,0,37.555237,127.04510739999999,49.743,0.00019600000000000002,0.0,0.0,0.0,0.00019600000000000002,0.0,0.0,0.0,0.000361,2
1734501492409851350,2623,1734501492375326848,gps,2,0,37.555237,127.04510739999999,49.742000000000004,0.00019600000000000002,0.0,0.0,0.0,0.00019600000000000002,0.0,0.0,0.0,0.00032399999999999996,2
1734501492535716673,2624,1734501492500326851,gps,2,0,37.5552369,127.04510739999999,49.746,0.00019600000000000002,0.0,0.0,0.0,0.00019600000000000002,0.0,0.0,0.0,0.000361,2
1734501492659521133,2625,1734501492625326853,gps,2,0,37.5552369,127.0451075,49.759,0.00019600000000000002,0.0,0.0,0.0,0.00019600000000000002,0.0,0.0,0.0,0.00032399999999999996,2
1734501492783743721,2626,1734501492750326855,gps,2,0,37.555237,127.04510739999999,49.752,0.00019600000000000002,0.0,0.0,0.0,0.00019600000000000002,0.0,0.0,0.0,0.00032399999999999996,2
1734501492909347097,2627,1734501492875326857,gps,2,0,37.555237,127.04510739999999,49.75,0.00019600000000000002,0.0,0.0,0.0,0.00019600000000000002,0.0,0.0,0.0,0.00032399999999999996,2
1734501493037835561,2628,1734501493000326859,gps,2,0,37.5552369,127.04510739999999,49.764,0.00019600000000000002,0.0,0.0,0.0,0.00019600000000000002,0.0,0.0,0.0,0.00032399999999999996,2
1734501493160572066,2629,1734501493125326861,gps,2,0,37.5552369,127.0451075,49.77,0.00019600000000000002,0.0,0.0,0.0,0.00019600000000000002,0.0,0.0,0.0,0.00032399999999999996,2
1734501493286151104,2630,1734501493250326863,gps,2,0,37.555237,127.0451076,49.755,0.00019600000000000002,0.0,0.0,0.0,0.00019600000000000002,0.0,0.0,0.0,0.000361,2
1734501493410808819,2631,1734501493375326865,gps,2,0,37.5552369,127.0451078,49.731,0.00019600000000000002,0.0,0.0,0.0,0.00019600000000000002,0.0,0.0,0.0,0.000361,2
1734501493537394781,2632,1734501493500326868,gps,2,0,37.555236799999996,127.04510819999999,49.741,0.00019600000000000002,0.0,0.0,0.0,0.00019600000000000002,0.0,0.0,0.0,0.0004,2
1734501493663313085,2633,1734501493625326870,gps,2,0,37.5552366,127.0451088,49.748,0.00019600000000000002,0.0,0.0,0.0,0.00019600000000000002,0.0,0.0,0.0,0.00032399999999999996,2
1734501493786445969,2634,1734501493750326872,gps,2,0,37.5552365,127.04510909999999,49.737,0.00019600000000000002,0.0,0.0,0.0,0.00019600000000000002,0.0,0.0,0.0,0.000256,2
1734501493911956702,2635,1734501493875326874,gps,2,0,37.5552364,127.04510959999999,49.734,0.00019600000000000002,0.0,0.0,0.0,0.00019600000000000002,0.0,0.0,0.0,0.000256,2
1734501494036894748,2636,1734501494000326876,gps,2,0,37.555236199999996,127.0451102,49.739000000000004,0.00019600000000000002,0.0,0.0,0.0,0.00019600000000000002,0.0,0.0,0.0,0.00028900000000000003,2
1734501494184794951,2637,1734501494125326878,gps,2,0,37.555236099999995,127.0451109,49.753,0.00019600000000000002,0.0,0.0,0.0,0.00019600000000000002,0.0,0.0,0.0,0.00032399999999999996,2
1734501494286427603,2638,1734501494250326880,gps,2,0,37.5552359,127.04511149999999,49.730000000000004,0.00019600000000000002,0.0,0.0,0.0,0.00019600000000000002,0.0,0.0,0.0,0.000361,2
1734501494411767998,2639,1734501494375326883,gps,2,0,37.555235599999996,127.04511219999999,49.739000000000004,0.00019600000000000002,0.0,0.0,0.0,0.00019600000000000002,0.0,0.0,0.0,0.00028900000000000003,2
1734501494536839119,2640,1734501494500326885,gps,2,0,37.5552354,127.0451131,49.749,0.00019600000000000002,0.0,0.0,0.0,0.00019600000000000002,0.0,0.0,0.0,0.000256,2
1734501494661232754,2641,1734501494625326887,gps,2,0,37.5552351,127.045114,49.755,0.00019600000000000002,0.0,0.0,0.0,0.00019600000000000002,0.0,0.0,0.0,0.000256,2
1734501494785965211,2642,1734501494750326889,gps,2,0,37.555234999999996,127.04511489999999,49.76,0.00019600000000000002,0.0,0.0,0.0,0.00019600000000000002,0.0,0.0,0.0,0.00028900000000000003,2
1734501494905914666,2643,1734501494875326891,gps,2,0,37.5552347,127.0451157,49.752,0.00019600000000000002,0.0,0.0,0.0,0.00019600000000000002,0.0,0.0,0.0,0.00028900000000000003,2
1734501495038573102,2644,1734501495000326893,gps,2,0,37.555234399999996,127.0451167,49.748,0.00019600000000000002,0.0,0.0,0.0,0.00019600000000000002,0.0,0.0,0.0,0.00028900000000000003,2
1734501495161540924,2645,1734501495125326895,gps,2,0,37.5552341,127.04511769999999,49.745000000000005,0.00019600000000000002,0.0,0.0,0.0,0.00019600000000000002,0.0,0.0,0.0,0.00028900000000000003,2
1734501495286869963,2646,1734501495250326898,gps,2,0,37.5552339,127.04511869999999,49.736000000000004,0.00019600000000000002,0.0,0.0,0.0,0.00019600000000000002,0.0,0.0,0.0,0.000361,2
1734501495417448430,2647,1734501495375326900,gps,2,0,37.5552335,127.04511989999999,49.751,0.00019600000000000002,0.0,0.0,0.0,0.00019600000000000002,0.0,0.0,0.0,0.000361,2
1734501495535702298,2648,1734501495500326902,gps,2,0,37.5552333,127.045121,49.76,0.00019600000000000002,0.0,0.0,0.0,0.00019600000000000002,0.0,0.0,0.0,0.00032399999999999996,2
1734501495659725212,2649,1734501495625326904,gps,2,0,37.5552329,127.0451222,49.777,0.00019600000000000002,0.0,0.0,0.0,0.00019600000000000002,0.0,0.0,0.0,0.00028900000000000003,2
1734501495780694885,2650,1734501495750326906,gps,2,0,37.555232499999995,127.04512349999999,49.783,0.00019600000000000002,0.0,0.0,0.0,0.00019600000000000002,0.0,0.0,0.0,0.00032399999999999996,2
1734501495909370485,2651,1734501495875326909,gps,2,0,37.5552323,127.0451245,49.757,0.00019600000000000002,0.0,0.0,0.0,0.00019600000000000002,0.0,0.0,0.0,0.00032399999999999996,2
1734501496037783236,2652,1734501496000326911,gps,2,0,37.555231899999995,127.04512589999999,49.768,0.00019600000000000002,0.0,0.0,0.0,0.00019600000000000002,0.0,0.0,0.0,0.00028900000000000003,2
1734501496184401207,2653,1734501496125326913,gps,2,0,37.5552314,127.045127,49.737,0.00019600000000000002,0.0,0.0,0.0,0.00019600000000000002,0.0,0.0,0.0,0.00028900000000000003,2
1734501496290390948,2654,1734501496250326915,gps,2,0,37.555231299999996,127.04512829999999,49.733000000000004,0.00019600000000000002,0.0,0.0,0.0,0.00019600000000000002,0.0,0.0,0.0,0.00028900000000000003,2
1734501496409480809,2655,1734501496375326917,gps,2,0,37.5552308,127.04512969999999,49.752,0.00019600000000000002,0.0,0.0,0.0,0.00019600000000000002,0.0,0.0,0.0,0.00032399999999999996,2
1734501496534918394,2656,1734501496500326920,gps,2,0,37.5552304,127.0451312,49.756,0.00019600000000000002,0.0,0.0,0.0,0.00019600000000000002,0.0,0.0,0.0,0.00032399999999999996,2
1734501496658530622,2657,1734501496625326922,gps,2,0,37.55523,127.04513259999999,49.761,0.00019600000000000002,0.0,0.0,0.0,0.00019600000000000002,0.0,0.0,0.0,0.00032399999999999996,2
1734501496785292761,2658,1734501496750326924,gps,2,0,37.5552296,127.0451341,49.765,0.00019600000000000002,0.0,0.0,0.0,0.00019600000000000002,0.0,0.0,0.0,0.00032399999999999996,2
1734501496909588403,2659,1734501496875326926,gps,2,0,37.5552293,127.0451353,49.767,0.00019600000000000002,0.0,0.0,0.0,0.00019600000000000002,0.0,0.0,0.0,0.00032399999999999996,2
1734501497037844748,2660,1734501497000326929,gps,2,0,37.5552287,127.04513689999999,49.777,0.00019600000000000002,0.0,0.0,0.0,0.00019600000000000002,0.0,0.0,0.0,0.00032399999999999996,2
1734501497159584411,2661,1734501497125326931,gps,2,0,37.5552284,127.0451384,49.785000000000004,0.00019600000000000002,0.0,0.0,0.0,0.00019600000000000002,0.0,0.0,0.0,0.00032399999999999996,2
1734501497284797859,2662,1734501497250326933,gps,2,0,37.555228,127.0451398,49.761,0.00019600000000000002,0.0,0.0,0.0,0.00019600000000000002,0.0,0.0,0.0,0.00032399999999999996,2
1734501497409823449,2663,1734501497375326935,gps,2,0,37.5552275,127.0451413,49.783,0.00019600000000000002,0.0,0.0,0.0,0.00019600000000000002,0.0,0.0,0.0,0.00028900000000000003,2
1734501497535833359,2664,1734501497500326937,gps,2,0,37.555227099999996,127.0451428,49.789,0.00019600000000000002,0.0,0.0,0.0,0.00019600000000000002,0.0,0.0,0.0,0.00032399999999999996,2
1734501497659749976,2665,1734501497625326940,gps,2,0,37.5552267,127.04514449999999,49.786,0.00019600000000000002,0.0,0.0,0.0,0.00019600000000000002,0.0,0.0,0.0,0.00032399999999999996,2
1734501497784562900,2666,1734501497750326942,gps,2,0,37.5552262,127.0451461,49.785000000000004,0.00019600000000000002,0.0,0.0,0.0,0.00019600000000000002,0.0,0.0,0.0,0.00032399999999999996,2
1734501497908691843,2667,1734501497875326944,gps,2,0,37.555225799999995,127.04514759999999,49.786,0.00019600000000000002,0.0,0.0,0.0,0.00019600000000000002,0.0,0.0,0.0,0.00032399999999999996,2
1734501498038976091,2668,1734501498000326946,gps,2,0,37.5552254,127.04514909999999,49.769,0.00019600000000000002,0.0,0.0,0.0,0.00019600000000000002,0.0,0.0,0.0,0.00028900000000000003,2
1734501498185271154,2669,1734501498125326949,gps,2,0,37.555225,127.04515079999999,49.793,0.00019600000000000002,0.0,0.0,0.0,0.00019600000000000002,0.0,0.0,0.0,0.00032399999999999996,2
1734501498285956881,2670,1734501498250326951,gps,2,0,37.5552245,127.04515239999999,49.785000000000004,0.00019600000000000002,0.0,0.0,0.0,0.00019600000000000002,0.0,0.0,0.0,0.00032399999999999996,2
1734501498409435656,2671,1734501498375326953,gps,2,0,37.5552241,127.045154,49.781,0.00019600000000000002,0.0,0.0,0.0,0.00019600000000000002,0.0,0.0,0.0,0.00032399999999999996,2
1734501498531810316,2672,1734501498500326955,gps,2,0,37.5552236,127.0451557,49.784,0.00019600000000000002,0.0,0.0,0.0,0.00019600000000000002,0.0,0.0,0.0,0.00032399999999999996,2
1734501498659436185,2673,1734501498625326958,gps,2,0,37.5552232,127.04515719999999,49.788000000000004,0.00019600000000000002,0.0,0.0,0.0,0.00019600000000000002,0.0,0.0,0.0,0.00028900000000000003,2
1734501498785191822,2674,1734501498750326960,gps,2,0,37.5552227,127.04515909999999,49.808,0.00019600000000000002,0.0,0.0,0.0,0.00019600000000000002,0.0,0.0,0.0,0.000256,2
1734501498910714610,2675,1734501498875326962,gps,2,0,37.555222199999996,127.04516079999999,49.807,0.00019600000000000002,0.0,0.0,0.0,0.00019600000000000002,0.0,0.0,0.0,0.000256,2
1734501499040032085,2676,1734501499000326964,gps,2,0,37.555221599999996,127.0451624,49.800000000000004,0.00019600000000000002,0.0,0.0,0.0,0.00019600000000000002,0.0,0.0,0.0,0.000256,2
1734501499161066644,2677,1734501499125326967,gps,2,0,37.5552212,127.045164,49.787,0.00019600000000000002,0.0,0.0,0.0,0.00019600000000000002,0.0,0.0,0.0,0.000256,2
1734501499290819737,2678,1734501499250326969,gps,2,0,37.5552208,127.0451657,49.79,0.00019600000000000002,0.0,0.0,0.0,0.00019600000000000002,0.0,0.0,0.0,0.000256,2
1734501499407168477,2679,1734501499375326971,gps,2,0,37.5552202,127.04516749999999,49.801,0.00019600000000000002,0.0,0.0,0.0,0.00019600000000000002,0.0,0.0,0.0,0.000256,2
1734501499536382447,2680,1734501499500326973,gps,2,0,37.5552196,127.04516939999999,49.807,0.00019600000000000002,0.0,0.0,0.0,0.00019600000000000002,0.0,0.0,0.0,0.000256,2
1734501499661320141,2681,1734501499625326976,gps,2,0,37.555219099999995,127.045171,49.814,0.00019600000000000002,0.0,0.0,0.0,0.00019600000000000002,0.0,0.0,0.0,0.000256,2
1734501499786737299,2682,1734501499750326978,gps,2,0,37.555218599999996,127.0451727,49.808,0.00019600000000000002,0.0,0.0,0.0,0.00019600000000000002,0.0,0.0,0.0,0.000256,2
1734501499911428558,2683,1734501499875326980,gps,2,0,37.5552181,127.04517449999999,49.818,0.00019600000000000002,0.0,0.0,0.0,0.00019600000000000002,0.0,0.0,0.0,0.000225,2
1734501500039163688,2684,1734501500000326982,gps,2,0,37.5552175,127.0451763,49.826,0.00019600000000000002,0.0,0.0,0.0,0.00019600000000000002,0.0,0.0,0.0,0.000225,2
1734501500185967566,2685,1734501500125326985,gps,2,0,37.555217,127.0451781,49.83,0.00019600000000000002,0.0,0.0,0.0,0.00019600000000000002,0.0,0.0,0.0,0.000256,2
1734501500282267731,2686,1734501500250326987,gps,2,0,37.5552164,127.04517969999999,49.834,0.00019600000000000002,0.0,0.0,0.0,0.00019600000000000002,0.0,0.0,0.0,0.000225,2
1734501500412357001,2687,1734501500375326989,gps,2,0,37.5552159,127.04518159999999,49.818,0.00019600000000000002,0.0,0.0,0.0,0.00019600000000000002,0.0,0.0,0.0,0.000256,2
1734501500536615860,2688,1734501500500326992,gps,2,0,37.555215499999996,127.04518329999999,49.81,0.00019600000000000002,0.0,0.0,0.0,0.00019600000000000002,0.0,0.0,0.0,0.00028900000000000003,2
1734501500660587525,2689,1734501500625326994,gps,2,0,37.555215,127.0451851,49.816,0.00019600000000000002,0.0,0.0,0.0,0.00019600000000000002,0.0,0.0,0.0,0.000225,2
1734501500784660936,2690,1734501500750326996,gps,2,0,37.5552145,127.0451868,49.816,0.00019600000000000002,0.0,0.0,0.0,0.00019600000000000002,0.0,0.0,0.0,0.000225,2
1734501500909135899,2691,1734501500875326999,gps,2,0,37.5552141,127.0451887,49.822,0.00019600000000000002,0.0,0.0,0.0,0.00019600000000000002,0.0,0.0,0.0,0.000225,2
1734501501037517160,2692,1734501501000327001,gps,2,0,37.5552135,127.04519049999999,49.824,0.00019600000000000002,0.0,0.0,0.0,0.00019600000000000002,0.0,0.0,0.0,0.000225,2
1734501501158516726,2693,1734501501125327003,gps,2,0,37.555212999999995,127.04519239999999,49.83,0.00019600000000000002,0.0,0.0,0.0,0.00019600000000000002,0.0,0.0,0.0,0.000225,2
1734501501286088536,2694,1734501501250327005,gps,2,0,37.555212499999996,127.0451942,49.825,0.00019600000000000002,0.0,0.0,0.0,0.00019600000000000002,0.0,0.0,0.0,0.00019600000000000002,2
1734501501410742771,2695,1734501501375327008,gps,2,0,37.555212,127.04519599999999,49.832,0.00019600000000000002,0.0,0.0,0.0,0.00019600000000000002,0.0,0.0,0.0,0.00019600000000000002,2
1734501501535734455,2696,1734501501500327010,gps,2,0,37.5552114,127.0451978,49.832,0.00019600000000000002,0.0,0.0,0.0,0.00019600000000000002,0.0,0.0,0.0,0.00019600000000000002,2
1734501501660296400,2697,1734501501625327012,gps,2,0,37.5552109,127.0451997,49.844,0.00019600000000000002,0.0,0.0,0.0,0.00019600000000000002,0.0,0.0,0.0,0.000256,2
1734501501784731899,2698,1734501501750327015,gps,2,0,37.5552104,127.0452016,49.846000000000004,0.00019600000000000002,0.0,0.0,0.0,0.00019600000000000002,0.0,0.0,0.0,0.00028900000000000003,2
1734501501910326311,2699,1734501501875327017,gps,2,0,37.5552099,127.04520339999999,49.847,0.00019600000000000002,0.0,0.0,0.0,0.00019600000000000002,0.0,0.0,0.0,0.00028900000000000003,2
1734501502039748327,2700,1734501502000327019,gps,2,0,37.5552092,127.0452052,49.854,0.00019600000000000002,0.0,0.0,0.0,0.00019600000000000002,0.0,0.0,0.0,0.00032399999999999996,2
1734501502185982992,2701,1734501502125327022,gps,2,0,37.5552087,127.0452071,49.864000000000004,0.00019600000000000002,0.0,0.0,0.0,0.00019600000000000002,0.0,0.0,0.0,0.00032399999999999996,2
1734501502286215549,2702,1734501502250327024,gps,2,0,37.555208199999996,127.045209,49.877,0.00019600000000000002,0.0,0.0,0.0,0.00019600000000000002,0.0,0.0,0.0,0.00032399999999999996,2
1734501502410610875,2703,1734501502375327026,gps,2,0,37.5552077,127.0452109,49.867000000000004,0.00019600000000000002,0.0,0.0,0.0,0.00019600000000000002,0.0,0.0,0.0,0.00032399999999999996,2
1734501502536058490,2704,1734501502500327029,gps,2,0,37.5552072,127.0452127,49.86,0.00019600000000000002,0.0,0.0,0.0,0.00019600000000000002,0.0,0.0,0.0,0.00032399999999999996,2
1734501502660673669,2705,1734501502625327031,gps,2,0,37.5552065,127.04521439999999,49.88,0.00019600000000000002,0.0,0.0,0.0,0.00019600000000000002,0.0,0.0,0.0,0.00028900000000000003,2
1734501502785779935,2706,1734501502750327033,gps,2,0,37.5552061,127.04521629999999,49.862,0.00019600000000000002,0.0,0.0,0.0,0.00019600000000000002,0.0,0.0,0.0,0.00028900000000000003,2
1734501502910796006,2707,1734501502875327036,gps,2,0,37.5552055,127.04521829999999,49.855000000000004,0.00019600000000000002,0.0,0.0,0.0,0.00019600000000000002,0.0,0.0,0.0,0.00028900000000000003,2
1734501503036180788,2708,1734501503000327038,gps,2,0,37.555205,127.0452201,49.858000000000004,0.00019600000000000002,0.0,0.0,0.0,0.00019600000000000002,0.0,0.0,0.0,0.00028900000000000003,2
1734501503160068240,2709,1734501503125327040,gps,2,0,37.555204499999995,127.04522189999999,49.858000000000004,0.00019600000000000002,0.0,0.0,0.0,0.00019600000000000002,0.0,0.0,0.0,0.00028900000000000003,2
1734501503285308660,2710,1734501503250327043,gps,2,0,37.555203999999996,127.04522379999999,49.854,0.00019600000000000002,0.0,0.0,0.0,0.00019600000000000002,0.0,0.0,0.0,0.00028900000000000003,2
1734501503410517574,2711,1734501503375327045,gps,2,0,37.555203399999996,127.0452258,49.864000000000004,0.00019600000000000002,0.0,0.0,0.0,0.00019600000000000002,0.0,0.0,0.0,0.00028900000000000003,2
1734501503536212820,2712,1734501503500327047,gps,2,0,37.5552029,127.0452277,49.868,0.00019600000000000002,0.0,0.0,0.0,0.00019600000000000002,0.0,0.0,0.0,0.00028900000000000003,2
1734501503660753237,2713,1734501503625327050,gps,2,0,37.5552024,127.04522949999999,49.88,0.00019600000000000002,0.0,0.0,0.0,0.00019600000000000002,0.0,0.0,0.0,0.00028900000000000003,2
1734501503784623598,2714,1734501503750327052,gps,2,0,37.5552019,127.04523139999999,49.887,0.00019600000000000002,0.0,0.0,0.0,0.00019600000000000002,0.0,0.0,0.0,0.00028900000000000003,2
1734501503905485522,2715,1734501503875327054,gps,2,0,37.5552013,127.04523329999999,49.886,0.00019600000000000002,0.0,0.0,0.0,0.00019600000000000002,0.0,0.0,0.0,0.00028900000000000003,2
1734501504041128834,2716,1734501504000327057,gps,2,0,37.555200899999996,127.04523529999999,49.891,0.00019600000000000002,0.0,0.0,0.0,0.00019600000000000002,0.0,0.0,0.0,0.00028900000000000003,2
1734501504185694221,2717,1734501504125327059,gps,2,0,37.555200299999996,127.04523719999999,49.886,0.00019600000000000002,0.0,0.0,0.0,0.00019600000000000002,0.0,0.0,0.0,0.00028900000000000003,2
1734501504292619363,2718,1734501504250327061,gps,2,0,37.5551999,127.045239,49.883,0.00019600000000000002,0.0,0.0,0.0,0.00019600000000000002,0.0,0.0,0.0,0.00028900000000000003,2
1734501504411534572,2719,1734501504375327064,gps,2,0,37.5551993,127.0452409,49.885,0.00019600000000000002,0.0,0.0,0.0,0.00019600000000000002,0.0,0.0,0.0,0.000256,2
1734501504536213025,2720,1734501504500327066,gps,2,0,37.5551989,127.04524289999999,49.89,0.00019600000000000002,0.0,0.0,0.0,0.00019600000000000002,0.0,0.0,0.0,0.000256,2
1734501504660515872,2721,1734501504625327068,gps,2,0,37.555198399999995,127.0452449,49.886,0.00019600000000000002,0.0,0.0,0.0,0.00019600000000000002,0.0,0.0,0.0,0.000256,2
1734501504780532350,2722,1734501504750327071,gps,2,0,37.555197899999996,127.04524669999999,49.896,0.00019600000000000002,0.0,0.0,0.0,0.00019600000000000002,0.0,0.0,0.0,0.000256,2
1734501504910499231,2723,1734501504875327073,gps,2,0,37.5551974,127.04524869999999,49.913000000000004,0.00019600000000000002,0.0,0.0,0.0,0.00019600000000000002,0.0,0.0,0.0,0.000256,2
1734501505039604929,2724,1734501505000327075,gps,2,0,37.5551969,127.0452507,49.902,0.00019600000000000002,0.0,0.0,0.0,0.00019600000000000002,0.0,0.0,0.0,0.00028900000000000003,2
1734501505161304949,2725,1734501505125327078,gps,2,0,37.5551965,127.04525249999999,49.895,0.00019600000000000002,0.0,0.0,0.0,0.00019600000000000002,0.0,0.0,0.0,0.00028900000000000003,2
1734501505286430390,2726,1734501505250327080,gps,2,0,37.5551959,127.0452545,49.9,0.00019600000000000002,0.0,0.0,0.0,0.00019600000000000002,0.0,0.0,0.0,0.00028900000000000003,2
1734501505410491440,2727,1734501505375327082,gps,2,0,37.555195499999996,127.0452564,49.895,0.00019600000000000002,0.0,0.0,0.0,0.00019600000000000002,0.0,0.0,0.0,0.00028900000000000003,2
1734501505535623376,2728,1734501505500327085,gps,2,0,37.555195,127.0452583,49.891,0.00019600000000000002,0.0,0.0,0.0,0.00019600000000000002,0.0,0.0,0.0,0.00028900000000000003,2
1734501505660047594,2729,1734501505625327087,gps,2,0,37.5551945,127.04526039999999,49.907000000000004,0.00019600000000000002,0.0,0.0,0.0,0.00019600000000000002,0.0,0.0,0.0,0.00019600000000000002,2
1734501505786400656,2730,1734501505750327090,gps,2,0,37.5551939,127.0452624,49.913000000000004,0.00019600000000000002,0.0,0.0,0.0,0.00019600000000000002,0.0,0.0,0.0,0.000169,2
1734501505911771569,2731,1734501505875327092,gps,2,0,37.5551934,127.0452643,49.914,0.00019600000000000002,0.0,0.0,0.0,0.00019600000000000002,0.0,0.0,0.0,0.000169,2
1734501506040539809,2732,1734501506000327094,gps,2,0,37.555192999999996,127.0452662,49.915,0.00019600000000000002,0.0,0.0,0.0,0.00019600000000000002,0.0,0.0,0.0,0.000169,2
1734501506186160806,2733,1734501506125327097,gps,2,0,37.555192399999996,127.0452682,49.935,0.00019600000000000002,0.0,0.0,0.0,0.00019600000000000002,0.0,0.0,0.0,0.000225,2
1734501506286642561,2734,1734501506250327099,gps,2,0,37.5551919,127.04527019999999,49.921,0.00019600000000000002,0.0,0.0,0.0,0.00019600000000000002,0.0,0.0,0.0,0.000225,2
1734501506411740489,2735,1734501506375327101,gps,2,0,37.5551914,127.045272,49.903,0.00019600000000000002,0.0,0.0,0.0,0.00019600000000000002,0.0,0.0,0.0,0.000256,2
1734501506536410580,2736,1734501506500327104,gps,2,0,37.5551909,127.04527399999999,49.895,0.00019600000000000002,0.0,0.0,0.0,0.00019600000000000002,0.0,0.0,0.0,0.000225,2
1734501506660071967,2737,1734501506625327106,gps,2,0,37.5551903,127.045276,49.915,0.00019600000000000002,0.0,0.0,0.0,0.00019600000000000002,0.0,0.0,0.0,0.00019600000000000002,2
1734501506784556165,2738,1734501506750327108,gps,2,0,37.5551898,127.04527789999999,49.919000000000004,0.00019600000000000002,0.0,0.0,0.0,0.00019600000000000002,0.0,0.0,0.0,0.000225,2
1734501506908472626,2739,1734501506875327111,gps,2,0,37.555189299999995,127.04527979999999,49.928000000000004,0.00019600000000000002,0.0,0.0,0.0,0.00019600000000000002,0.0,0.0,0.0,0.000256,2
1734501507037489814,2740,1734501507000327113,gps,2,0,37.555188699999995,127.04528169999999,49.926,0.00019600000000000002,0.0,0.0,0.0,0.00019600000000000002,0.0,0.0,0.0,0.000225,2
1734501507160140586,2741,1734501507125327116,gps,2,0,37.555188199999996,127.0452837,49.916000000000004,0.00019600000000000002,0.0,0.0,0.0,0.00019600000000000002,0.0,0.0,0.0,0.000225,2
1734501507291574987,2742,1734501507250327118,gps,2,0,37.5551876,127.0452857,49.917,0.00019600000000000002,0.0,0.0,0.0,0.00019600000000000002,0.0,0.0,0.0,0.00019600000000000002,2
1734501507410506945,2743,1734501507375327120,gps,2,0,37.5551871,127.0452876,49.917,0.00019600000000000002,0.0,0.0,0.0,0.00019600000000000002,0.0,0.0,0.0,0.000169,2
1734501507531507567,2744,1734501507500327123,gps,2,0,37.5551866,127.04528939999999,49.915,0.00019600000000000002,0.0,0.0,0.0,0.00019600000000000002,0.0,0.0,0.0,0.00019600000000000002,2
1734501507659306234,2745,1734501507625327125,gps,2,0,37.555186,127.0452914,49.926,0.00019600000000000002,0.0,0.0,0.0,0.00019600000000000002,0.0,0.0,0.0,0.00019600000000000002,2
1734501507783352492,2746,1734501507750327127,gps,2,0,37.5551855,127.0452933,49.917,0.00019600000000000002,0.0,0.0,0.0,0.00019600000000000002,0.0,0.0,0.0,0.000256,2
1734501507909451379,2747,1734501507875327130,gps,2,0,37.5551849,127.0452952,49.906,0.00019600000000000002,0.0,0.0,0.0,0.00019600000000000002,0.0,0.0,0.0,0.000256,2
1734501508037664420,2748,1734501508000327132,gps,2,0,37.5551842,127.0452972,49.911,0.00019600000000000002,0.0,0.0,0.0,0.00019600000000000002,0.0,0.0,0.0,0.000225,2
1734501508185278933,2749,1734501508125327135,gps,2,0,37.5551837,127.0452991,49.913000000000004,0.00019600000000000002,0.0,0.0,0.0,0.00019600000000000002,0.0,0.0,0.0,0.000225,2
1734501508285623936,2750,1734501508250327137,gps,2,0,37.5551831,127.04530109999999,49.912,0.00019600000000000002,0.0,0.0,0.0,0.00019600000000000002,0.0,0.0,0.0,0.000225,2
1734501508406413994,2751,1734501508375327139,gps,2,0,37.5551825,127.0453031,49.899,0.00019600000000000002,0.0,0.0,0.0,0.00019600000000000002,0.0,0.0,0.0,0.000256,2
1734501508535497510,2752,1734501508500327142,gps,2,0,37.555182099999996,127.0453051,49.905,0.00019600000000000002,0.0,0.0,0.0,0.00019600000000000002,0.0,0.0,0.0,0.000256,2
1734501508660775528,2753,1734501508625327144,gps,2,0,37.5551816,127.04530709999999,49.904,0.00019600000000000002,0.0,0.0,0.0,0.00019600000000000002,0.0,0.0,0.0,0.000256,2
1734501508785668602,2754,1734501508750327147,gps,2,0,37.555181,127.0453091,49.913000000000004,0.00019600000000000002,0.0,0.0,0.0,0.00019600000000000002,0.0,0.0,0.0,0.00019600000000000002,2
1734501508911640189,2755,1734501508875327149,gps,2,0,37.5551805,127.045311,49.904,0.00019600000000000002,0.0,0.0,0.0,0.00019600000000000002,0.0,0.0,0.0,0.000225,2
1734501509039533887,2756,1734501509000327151,gps,2,0,37.5551801,127.045313,49.907000000000004,0.00019600000000000002,0.0,0.0,0.0,0.00019600000000000002,0.0,0.0,0.0,0.000225,2
1734501509160500404,2757,1734501509125327154,gps,2,0,37.555179599999995,127.0453149,49.908,0.00019600000000000002,0.0,0.0,0.0,0.00019600000000000002,0.0,0.0,0.0,0.000225,2
1734501509282138517,2758,1734501509250327156,gps,2,0,37.5551791,127.04531689999999,49.916000000000004,0.00019600000000000002,0.0,0.0,0.0,0.00019600000000000002,0.0,0.0,0.0,0.00019600000000000002,2
1734501509411495741,2759,1734501509375327158,gps,2,0,37.5551785,127.0453189,49.921,0.00019600000000000002,0.0,0.0,0.0,0.00019600000000000002,0.0,0.0,0.0,0.00019600000000000002,2
1734501509537377097,2760,1734501509500327161,gps,2,0,37.555178,127.0453209,49.917,0.00019600000000000002,0.0,0.0,0.0,0.00019600000000000002,0.0,0.0,0.0,0.000225,2
1734501509661426308,2761,1734501509625327163,gps,2,0,37.5551775,127.0453227,49.914,0.00019600000000000002,0.0,0.0,0.0,0.00019600000000000002,0.0,0.0,0.0,0.00028900000000000003,2
1734501509785028304,2762,1734501509750327166,gps,2,0,37.5551769,127.0453247,49.923,0.00019600000000000002,0.0,0.0,0.0,0.00019600000000000002,0.0,0.0,0.0,0.000256,2
1734501509910420931,2763,1734501509875327168,gps,2,0,37.5551764,127.0453266,49.92,0.00019600000000000002,0.0,0.0,0.0,0.00019600000000000002,0.0,0.0,0.0,0.000256,2
1734501510039802775,2764,1734501510000327171,gps,2,0,37.5551758,127.04532859999999,49.915,0.00019600000000000002,0.0,0.0,0.0,0.00019600000000000002,0.0,0.0,0.0,0.000256,2
1734501510180511747,2765,1734501510125327173,gps,2,0,37.555175299999995,127.0453306,49.921,0.00019600000000000002,0.0,0.0,0.0,0.00019600000000000002,0.0,0.0,0.0,0.00028900000000000003,2
1734501510285144779,2766,1734501510250327175,gps,2,0,37.555174699999995,127.0453325,49.916000000000004,0.00019600000000000002,0.0,0.0,0.0,0.00019600000000000002,0.0,0.0,0.0,0.00032399999999999996,2
1734501510410306736,2767,1734501510375327178,gps,2,0,37.555174099999995,127.04533439999999,49.911,0.00019600000000000002,0.0,0.0,0.0,0.00019600000000000002,0.0,0.0,0.0,0.000256,2
1734501510535133346,2768,1734501510500327180,gps,2,0,37.555173499999995,127.0453364,49.910000000000004,0.00019600000000000002,0.0,0.0,0.0,0.00019600000000000002,0.0,0.0,0.0,0.000256,2
1734501510659389821,2769,1734501510625327183,gps,2,0,37.5551731,127.04533819999999,49.9,0.00019600000000000002,0.0,0.0,0.0,0.00019600000000000002,0.0,0.0,0.0,0.000256,2
1734501510783472487,2770,1734501510750327185,gps,2,0,37.5551724,127.0453402,49.901,0.00019600000000000002,0.0,0.0,0.0,0.00019600000000000002,0.0,0.0,0.0,0.00019600000000000002,2
1734501510909352314,2771,1734501510875327187,gps,2,0,37.5551718,127.0453422,49.902,0.00019600000000000002,0.0,0.0,0.0,0.00019600000000000002,0.0,0.0,0.0,0.000225,2
1734501511038462296,2772,1734501511000327190,gps,2,0,37.555171099999995,127.045344,49.906,0.00019600000000000002,0.0,0.0,0.0,0.00019600000000000002,0.0,0.0,0.0,0.000225,2
1734501511160692580,2773,1734501511125327192,gps,2,0,37.5551706,127.04534609999999,49.907000000000004,0.00019600000000000002,0.0,0.0,0.0,0.00019600000000000002,0.0,0.0,0.0,0.000225,2
1734501511286190109,2774,1734501511250327195,gps,2,0,37.5551701,127.0453479,49.922000000000004,0.00019600000000000002,0.0,0.0,0.0,0.00019600000000000002,0.0,0.0,0.0,0.00019600000000000002,2
1734501511411609459,2775,1734501511375327197,gps,2,0,37.5551696,127.0453498,49.913000000000004,0.00019600000000000002,0.0,0.0,0.0,0.00019600000000000002,0.0,0.0,0.0,0.00019600000000000002,2
1734501511537248935,2776,1734501511500327200,gps,2,0,37.555169,127.04535179999999,49.919000000000004,0.00019600000000000002,0.0,0.0,0.0,0.00019600000000000002,0.0,0.0,0.0,0.000169,2
1734501511663019046,2777,1734501511625327202,gps,2,0,37.5551685,127.0453538,49.912,0.00019600000000000002,0.0,0.0,0.0,0.00019600000000000002,0.0,0.0,0.0,0.00019600000000000002,2
1734501511786583368,2778,1734501511750327204,gps,2,0,37.5551678,127.0453558,49.928000000000004,0.00019600000000000002,0.0,0.0,0.0,0.00019600000000000002,0.0,0.0,0.0,0.00019600000000000002,2
1734501511910375615,2779,1734501511875327207,gps,2,0,37.555167399999995,127.0453577,49.932,0.00019600000000000002,0.0,0.0,0.0,0.00019600000000000002,0.0,0.0,0.0,0.000169,2
1734501512035504731,2780,1734501512000327209,gps,2,0,37.555167,127.04535969999999,49.933,0.00019600000000000002,0.0,0.0,0.0,0.00019600000000000002,0.0,0.0,0.0,0.00019600000000000002,2
1734501512183985222,2781,1734501512125327212,gps,2,0,37.5551664,127.04536159999999,49.928000000000004,0.00019600000000000002,0.0,0.0,0.0,0.00019600000000000002,0.0,0.0,0.0,0.00019600000000000002,2
1734501512285273761,2782,1734501512250327214,gps,2,0,37.5551659,127.04536359999999,49.935,0.00019600000000000002,0.0,0.0,0.0,0.00019600000000000002,0.0,0.0,0.0,0.00019600000000000002,2
1734501512411347062,2783,1734501512375327216,gps,2,0,37.5551654,127.0453656,49.933,0.00019600000000000002,0.0,0.0,0.0,0.00019600000000000002,0.0,0.0,0.0,0.00019600000000000002,2
1734501512536449529,2784,1734501512500327219,gps,2,0,37.5551647,127.04536739999999,49.925000000000004,0.00019600000000000002,0.0,0.0,0.0,0.00019600000000000002,0.0,0.0,0.0,0.00019600000000000002,2
1734501512659768155,2785,1734501512625327221,gps,2,0,37.5551643,127.0453694,49.922000000000004,0.00019600000000000002,0.0,0.0,0.0,0.00019600000000000002,0.0,0.0,0.0,0.000169,2
1734501512783778558,2786,1734501512750327224,gps,2,0,37.555163799999995,127.0453713,49.917,0.00019600000000000002,0.0,0.0,0.0,0.00019600000000000002,0.0,0.0,0.0,0.00019600000000000002,2
1734501512905843190,2787,1734501512875327226,gps,2,0,37.5551631,127.0453733,49.911,0.00019600000000000002,0.0,0.0,0.0,0.00019600000000000002,0.0,0.0,0.0,0.00019600000000000002,2
1734501513038544037,2788,1734501513000327229,gps,2,0,37.5551628,127.0453751,49.905,0.00019600000000000002,0.0,0.0,0.0,0.00019600000000000002,0.0,0.0,0.0,0.00019600000000000002,2
1734501513160797251,2789,1734501513125327231,gps,2,0,37.555161999999996,127.0453771,49.907000000000004,0.00019600000000000002,0.0,0.0,0.0,0.00019600000000000002,0.0,0.0,0.0,0.00019600000000000002,2
1734501513285360728,2790,1734501513250327234,gps,2,0,37.5551615,127.04537909999999,49.914,0.00019600000000000002,0.0,0.0,0.0,0.00019600000000000002,0.0,0.0,0.0,0.000225,2
1734501513410620313,2791,1734501513375327236,gps,2,0,37.5551611,127.0453811,49.917,0.00019600000000000002,0.0,0.0,0.0,0.00019600000000000002,0.0,0.0,0.0,0.00019600000000000002,2
1734501513534690866,2792,1734501513500327239,gps,2,0,37.5551605,127.0453831,49.917,0.00019600000000000002,0.0,0.0,0.0,0.00019600000000000002,0.0,0.0,0.0,0.00019600000000000002,2
1734501513659442669,2793,1734501513625327241,gps,2,0,37.55516,127.04538489999999,49.913000000000004,0.00019600000000000002,0.0,0.0,0.0,0.00019600000000000002,0.0,0.0,0.0,0.00019600000000000002,2
1734501513779559834,2794,1734501513750327244,gps,2,0,37.555159599999996,127.0453869,49.910000000000004,0.00019600000000000002,0.0,0.0,0.0,0.00019600000000000002,0.0,0.0,0.0,0.000169,2
1734501513910413134,2795,1734501513875327246,gps,2,0,37.5551591,127.04538889999999,49.918,0.00019600000000000002,0.0,0.0,0.0,0.00019600000000000002,0.0,0.0,0.0,0.000169,2
1734501514039975892,2796,1734501514000327249,gps,2,0,37.5551585,127.04539079999999,49.901,0.00019600000000000002,0.0,0.0,0.0,0.00019600000000000002,0.0,0.0,0.0,0.00019600000000000002,2
1734501514186040518,2797,1734501514125327251,gps,2,0,37.5551581,127.04539279999999,49.902,0.00019600000000000002,0.0,0.0,0.0,0.00019600000000000002,0.0,0.0,0.0,0.000169,2
1734501514285786100,2798,1734501514250327254,gps,2,0,37.5551576,127.04539469999999,49.902,0.00019600000000000002,0.0,0.0,0.0,0.00019600000000000002,0.0,0.0,0.0,0.000169,2
1734501514410572697,2799,1734501514375327256,gps,2,0,37.555157099999995,127.0453967,49.908,0.00019600000000000002,0.0,0.0,0.0,0.00019600000000000002,0.0,0.0,0.0,0.000169,2
1734501514536043922,2800,1734501514500327259,gps,2,0,37.555156499999995,127.04539869999999,49.914,0.00019600000000000002,0.0,0.0,0.0,0.00019600000000000002,0.0,0.0,0.0,0.000169,2
1734501514658381893,2801,1734501514625327261,gps,2,0,37.5551561,127.04540069999999,49.915,0.00019600000000000002,0.0,0.0,0.0,0.00019600000000000002,0.0,0.0,0.0,0.00019600000000000002,2
1734501514784593819,2802,1734501514750327264,gps,2,0,37.5551555,127.04540259999999,49.907000000000004,0.00019600000000000002,0.0,0.0,0.0,0.00019600000000000002,0.0,0.0,0.0,0.000225,2
1734501514910064649,2803,1734501514875327266,gps,2,0,37.555155,127.0454046,49.919000000000004,0.00019600000000000002,0.0,0.0,0.0,0.00019600000000000002,0.0,0.0,0.0,0.000169,2
1734501515039357565,2804,1734501515000327268,gps,2,0,37.5551545,127.04540659999999,49.910000000000004,0.00019600000000000002,0.0,0.0,0.0,0.00019600000000000002,0.0,0.0,0.0,0.000169,2
1734501515159453542,2805,1734501515125327271,gps,2,0,37.5551539,127.0454084,49.901,0.00019600000000000002,0.0,0.0,0.0,0.00019600000000000002,0.0,0.0,0.0,0.00019600000000000002,2
1734501515284462315,2806,1734501515250327273,gps,2,0,37.5551534,127.0454104,49.899,0.00019600000000000002,0.0,0.0,0.0,0.00019600000000000002,0.0,0.0,0.0,0.000169,2
1734501515410531165,2807,1734501515375327276,gps,2,0,37.555153,127.0454125,49.927,0.00019600000000000002,0.0,0.0,0.0,0.00019600000000000002,0.0,0.0,0.0,0.000169,2
1734501515535858428,2808,1734501515500327278,gps,2,0,37.555152299999996,127.04541449999999,49.926,0.00019600000000000002,0.0,0.0,0.0,0.00019600000000000002,0.0,0.0,0.0,0.000144,2
1734501515660356124,2809,1734501515625327281,gps,2,0,37.555151699999996,127.0454164,49.918,0.00019600000000000002,0.0,0.0,0.0,0.00019600000000000002,0.0,0.0,0.0,0.000169,2
1734501515784484324,2810,1734501515750327283,gps,2,0,37.5551513,127.0454183,49.924,0.00019600000000000002,0.0,0.0,0.0,0.00019600000000000002,0.0,0.0,0.0,0.000144,2
1734501515909027014,2811,1734501515875327286,gps,2,0,37.5551506,127.04542029999999,49.936,0.00019600000000000002,0.0,0.0,0.0,0.00019600000000000002,0.0,0.0,0.0,0.000169,2
1734501516037821740,2812,1734501516000327288,gps,2,0,37.55515,127.0454223,49.926,0.00019600000000000002,0.0,0.0,0.0,0.00019600000000000002,0.0,0.0,0.0,0.00019600000000000002,2
1734501516185297424,2813,1734501516125327291,gps,2,0,37.5551496,127.0454242,49.939,0.00019600000000000002,0.0,0.0,0.0,0.00019600000000000002,0.0,0.0,0.0,0.000169,2
1734501516286116632,2814,1734501516250327293,gps,2,0,37.5551489,127.04542629999999,49.947,0.00019600000000000002,0.0,0.0,0.0,0.00019600000000000002,0.0,0.0,0.0,0.00019600000000000002,2
1734501516410896013,2815,1734501516375327296,gps,2,0,37.5551482,127.04542839999999,49.943,0.00019600000000000002,0.0,0.0,0.0,0.00019600000000000002,0.0,0.0,0.0,0.00019600000000000002,2
1734501516532492411,2816,1734501516500327298,gps,2,0,37.5551477,127.04543,49.931000000000004,0.00019600000000000002,0.0,0.0,0.0,0.00019600000000000002,0.0,0.0,0.0,0.000256,2
1734501516659571837,2817,1734501516625327301,gps,2,0,37.5551471,127.04543199999999,49.928000000000004,0.00019600000000000002,0.0,0.0,0.0,0.00019600000000000002,0.0,0.0,0.0,0.00019600000000000002,2
1734501516783298773,2818,1734501516750327303,gps,2,0,37.5551464,127.0454338,49.937,0.00019600000000000002,0.0,0.0,0.0,0.00019600000000000002,0.0,0.0,0.0,0.000225,2
1734501516910384141,2819,1734501516875327306,gps,2,0,37.5551459,127.0454357,49.927,0.00019600000000000002,0.0,0.0,0.0,0.00019600000000000002,0.0,0.0,0.0,0.000225,2
1734501517038738749,2820,1734501517000327308,gps,2,0,37.5551453,127.04543729999999,49.936,0.00019600000000000002,0.0,0.0,0.0,0.00019600000000000002,0.0,0.0,0.0,0.000225,2
1734501517160249594,2821,1734501517125327311,gps,2,0,37.5551447,127.0454391,49.93,0.00019600000000000002,0.0,0.0,0.0,0.00019600000000000002,0.0,0.0,0.0,0.00019600000000000002,2
1734501517290501075,2822,1734501517250327313,gps,2,0,37.5551439,127.04544109999999,49.94,0.00019600000000000002,0.0,0.0,0.0,0.00019600000000000002,0.0,0.0,0.0,0.000225,2
1734501517407281490,2823,1734501517375327316,gps,2,0,37.5551434,127.0454429,49.938,0.00019600000000000002,0.0,0.0,0.0,0.00019600000000000002,0.0,0.0,0.0,0.000256,2
1734501517535631224,2824,1734501517500327318,gps,2,0,37.555142599999996,127.04544489999999,49.937,0.00019600000000000002,0.0,0.0,0.0,0.00019600000000000002,0.0,0.0,0.0,0.000256,2
1734501517661130117,2825,1734501517625327321,gps,2,0,37.555141899999995,127.04544689999999,49.941,0.00019600000000000002,0.0,0.0,0.0,0.00019600000000000002,0.0,0.0,0.0,0.000225,2
1734501517785315192,2826,1734501517750327323,gps,2,0,37.555141299999995,127.0454487,49.947,0.00019600000000000002,0.0,0.0,0.0,0.00019600000000000002,0.0,0.0,0.0,0.000225,2
1734501517910446572,2827,1734501517875327326,gps,2,0,37.5551409,127.0454506,49.938,0.00019600000000000002,0.0,0.0,0.0,0.00019600000000000002,0.0,0.0,0.0,0.000225,2
1734501518038667470,2828,1734501518000327328,gps,2,0,37.5551403,127.04545239999999,49.941,0.00019600000000000002,0.0,0.0,0.0,0.00019600000000000002,0.0,0.0,0.0,0.000225,2
1734501518188409758,2829,1734501518125327331,gps,2,0,37.5551397,127.0454544,49.942,0.00019600000000000002,0.0,0.0,0.0,0.00019600000000000002,0.0,0.0,0.0,0.000225,2
1734501518281608710,2830,1734501518250327333,gps,2,0,37.5551392,127.0454563,49.937,0.00019600000000000002,0.0,0.0,0.0,0.00019600000000000002,0.0,0.0,0.0,0.00019600000000000002,2
1734501518411396241,2831,1734501518375327336,gps,2,0,37.5551386,127.04545829999999,49.947,0.00019600000000000002,0.0,0.0,0.0,0.00019600000000000002,0.0,0.0,0.0,0.000225,2
1734501518536569381,2832,1734501518500327338,gps,2,0,37.5551381,127.04546029999999,49.951,0.00019600000000000002,0.0,0.0,0.0,0.00019600000000000002,0.0,0.0,0.0,0.000225,2
1734501518660525678,2833,1734501518625327340,gps,2,0,37.5551374,127.0454621,49.94,0.00019600000000000002,0.0,0.0,0.0,0.00019600000000000002,0.0,0.0,0.0,0.00019600000000000002,2
1734501518785503198,2834,1734501518750327343,gps,2,0,37.555136999999995,127.04546409999999,49.95,0.00019600000000000002,0.0,0.0,0.0,0.00019600000000000002,0.0,0.0,0.0,0.00019600000000000002,2
1734501518910069365,2835,1734501518875327345,gps,2,0,37.5551366,127.0454661,49.953,0.00019600000000000002,0.0,0.0,0.0,0.00019600000000000002,0.0,0.0,0.0,0.00019600000000000002,2
1734501519039416632,2836,1734501519000327348,gps,2,0,37.5551362,127.0454681,49.954,0.00019600000000000002,0.0,0.0,0.0,0.00019600000000000002,0.0,0.0,0.0,0.00019600000000000002,2
1734501519159600206,2837,1734501519125327350,gps,2,0,37.555135799999995,127.04547,49.945,0.00019600000000000002,0.0,0.0,0.0,0.00019600000000000002,0.0,0.0,0.0,0.000225,2
1734501519286343310,2838,1734501519250327353,gps,2,0,37.5551354,127.0454721,49.953,0.00019600000000000002,0.0,0.0,0.0,0.00019600000000000002,0.0,0.0,0.0,0.00019600000000000002,2
1734501519417731830,2839,1734501519375327355,gps,2,0,37.555135,127.0454743,49.966,0.00019600000000000002,0.0,0.0,0.0,0.00019600000000000002,0.0,0.0,0.0,0.00019600000000000002,2
1734501519535543723,2840,1734501519500327358,gps,2,0,37.5551344,127.04547609999999,49.941,0.00019600000000000002,0.0,0.0,0.0,0.00019600000000000002,0.0,0.0,0.0,0.00028900000000000003,2
1734501519660963288,2841,1734501519625327360,gps,0,0,37.555133999999995,127.04547799999999,49.943,0.00019600000000000002,0.0,0.0,0.0,0.00019600000000000002,0.0,0.0,0.0,0.000361,2
1734501519783698451,2842,1734501519750327362,gps,0,0,37.555133399999995,127.04548009999999,49.969,0.00019600000000000002,0.0,0.0,0.0,0.00019600000000000002,0.0,0.0,0.0,0.00044100000000000004,2
1734501519910304524,2843,1734501519875327365,gps,0,0,37.555133,127.0454821,49.971000000000004,0.000225,0.0,0.0,0.0,0.000225,0.0,0.0,0.0,0.00048399999999999995,2
1734501520038704748,2844,1734501520000327367,gps,0,0,37.5551325,127.0454841,49.987,0.000225,0.0,0.0,0.0,0.000225,0.0,0.0,0.0,0.00048399999999999995,2
1734501520185423401,2845,1734501520125327370,gps,0,0,37.5551319,127.04548609999999,50.006,0.000225,0.0,0.0,0.0,0.000225,0.0,0.0,0.0,0.00048399999999999995,2
1734501520291275816,2846,1734501520250327372,gps,0,0,37.5551314,127.0454881,50.003,0.000225,0.0,0.0,0.0,0.000225,0.0,0.0,0.0,0.00048399999999999995,2
1734501520410196644,2847,1734501520375327375,gps,0,0,37.555130999999996,127.0454901,49.992000000000004,0.000225,0.0,0.0,0.0,0.000225,0.0,0.0,0.0,0.00048399999999999995,2
1734501520536113331,2848,1734501520500327377,gps,0,0,37.5551303,127.04549209999999,50.004,0.000225,0.0,0.0,0.0,0.000225,0.0,0.0,0.0,0.00048399999999999995,2
1734501520661067721,2849,1734501520625327380,gps,0,0,37.5551299,127.0454939,49.985,0.00019600000000000002,0.0,0.0,0.0,0.00019600000000000002,0.0,0.0,0.0,0.00044100000000000004,2
1734501520785985653,2850,1734501520750327382,gps,0,0,37.5551293,127.04549589999999,49.979,0.00019600000000000002,0.0,0.0,0.0,0.00019600000000000002,0.0,0.0,0.0,0.00044100000000000004,2
1734501520913119944,2851,1734501520875327385,gps,0,0,37.5551287,127.04549779999999,49.982,0.00019600000000000002,0.0,0.0,0.0,0.00019600000000000002,0.0,0.0,0.0,0.00044100000000000004,2
1734501521036600353,2852,1734501521000327387,gps,0,0,37.5551282,127.04549979999999,49.985,0.00019600000000000002,0.0,0.0,0.0,0.00019600000000000002,0.0,0.0,0.0,0.00044100000000000004,2
1734501521159570751,2853,1734501521125327390,gps,0,0,37.5551278,127.0455018,49.99,0.00019600000000000002,0.0,0.0,0.0,0.00019600000000000002,0.0,0.0,0.0,0.00044100000000000004,2
1734501521285489804,2854,1734501521250327392,gps,0,0,37.5551271,127.0455037,49.987,0.00019600000000000002,0.0,0.0,0.0,0.00019600000000000002,0.0,0.0,0.0,0.00044100000000000004,2
1734501521412574293,2855,1734501521375327395,gps,0,0,37.5551265,127.0455056,49.987,0.00019600000000000002,0.0,0.0,0.0,0.00019600000000000002,0.0,0.0,0.0,0.00044100000000000004,2
1734501521537516676,2856,1734501521500327397,gps,0,0,37.555126099999995,127.0455076,49.979,0.00019600000000000002,0.0,0.0,0.0,0.00019600000000000002,0.0,0.0,0.0,0.00044100000000000004,2
1734501521662203553,2857,1734501521625327400,gps,0,0,37.555125499999995,127.04550959999999,49.976,0.00019600000000000002,0.0,0.0,0.0,0.00019600000000000002,0.0,0.0,0.0,0.0004,2
1734501521785479599,2858,1734501521750327403,gps,0,0,37.555125,127.04551149999999,49.982,0.00019600000000000002,0.0,0.0,0.0,0.00019600000000000002,0.0,0.0,0.0,0.0004,2
1734501521906452071,2859,1734501521875327405,gps,0,0,37.5551244,127.04551339999999,49.976,0.00019600000000000002,0.0,0.0,0.0,0.00019600000000000002,0.0,0.0,0.0,0.0004,2
1734501522039776823,2860,1734501522000327408,gps,0,0,37.5551239,127.04551529999999,49.991,0.00019600000000000002,0.0,0.0,0.0,0.00019600000000000002,0.0,0.0,0.0,0.0004,2
1734501522184682089,2861,1734501522125327410,gps,0,0,37.5551233,127.0455173,49.986000000000004,0.00019600000000000002,0.0,0.0,0.0,0.00019600000000000002,0.0,0.0,0.0,0.0004,2
1734501522285885037,2862,1734501522250327413,gps,0,0,37.5551228,127.0455192,49.980000000000004,0.00019600000000000002,0.0,0.0,0.0,0.00019600000000000002,0.0,0.0,0.0,0.0004,2
1734501522412422447,2863,1734501522375327415,gps,0,0,37.5551223,127.0455212,49.993,0.00019600000000000002,0.0,0.0,0.0,0.00019600000000000002,0.0,0.0,0.0,0.0004,2
1734501522536051497,2864,1734501522500327418,gps,0,0,37.5551216,127.0455231,49.981,0.00019600000000000002,0.0,0.0,0.0,0.00019600000000000002,0.0,0.0,0.0,0.0004,2
1734501522660416609,2865,1734501522625327421,gps,0,0,37.555121199999995,127.04552509999999,49.987,0.00019600000000000002,0.0,0.0,0.0,0.00019600000000000002,0.0,0.0,0.0,0.000361,2
1734501522780376219,2866,1734501522750327423,gps,0,0,37.555120599999995,127.04552699999999,49.981,0.00019600000000000002,0.0,0.0,0.0,0.00019600000000000002,0.0,0.0,0.0,0.000361,2
1734501522910031137,2867,1734501522875327426,gps,0,0,37.5551199,127.04552899999999,49.972,0.00019600000000000002,0.0,0.0,0.0,0.00019600000000000002,0.0,0.0,0.0,0.000361,2
1734501523038867202,2868,1734501523000327428,gps,0,0,37.555119499999996,127.04553089999999,49.971000000000004,0.00019600000000000002,0.0,0.0,0.0,0.00019600000000000002,0.0,0.0,0.0,0.000361,2
1734501523160840548,2869,1734501523125327431,gps,0,0,37.555119,127.04553279999999,49.972,0.00019600000000000002,0.0,0.0,0.0,0.00019600000000000002,0.0,0.0,0.0,0.000361,2
1734501523286130015,2870,1734501523250327434,gps,0,0,37.5551184,127.0455348,49.968,0.00019600000000000002,0.0,0.0,0.0,0.00019600000000000002,0.0,0.0,0.0,0.000361,2
1734501523410512434,2871,1734501523375327436,gps,0,0,37.5551179,127.0455368,49.97,0.00019600000000000002,0.0,0.0,0.0,0.00019600000000000002,0.0,0.0,0.0,0.0004,2
1734501523536174279,2872,1734501523500327439,gps,0,0,37.5551173,127.0455387,49.968,0.00019600000000000002,0.0,0.0,0.0,0.00019600000000000002,0.0,0.0,0.0,0.0004,2
1734501523659328802,2873,1734501523625327442,gps,2,0,37.5551167,127.0455405,49.928000000000004,0.00019600000000000002,0.0,0.0,0.0,0.00019600000000000002,0.0,0.0,0.0,0.00028900000000000003,2
1734501523785460961,2874,1734501523750327444,gps,2,0,37.5551161,127.0455425,49.933,0.00019600000000000002,0.0,0.0,0.0,0.00019600000000000002,0.0,0.0,0.0,0.00019600000000000002,2
1734501523911069406,2875,1734501523875327447,gps,2,0,37.5551155,127.0455444,49.944,0.00019600000000000002,0.0,0.0,0.0,0.00019600000000000002,0.0,0.0,0.0,0.000225,2
1734501524038607129,2876,1734501524000327449,gps,2,0,37.5551148,127.04554639999999,49.939,0.00019600000000000002,0.0,0.0,0.0,0.00019600000000000002,0.0,0.0,0.0,0.00028900000000000003,2
1734501524184608020,2877,1734501524125327452,gps,2,0,37.5551143,127.0455483,49.921,0.00019600000000000002,0.0,0.0,0.0,0.00019600000000000002,0.0,0.0,0.0,0.00032399999999999996,2
1734501524285408617,2878,1734501524250327455,gps,2,0,37.5551138,127.0455501,49.913000000000004,0.00019600000000000002,0.0,0.0,0.0,0.00019600000000000002,0.0,0.0,0.0,0.00032399999999999996,2
1734501524411040537,2879,1734501524375327458,gps,2,0,37.5551132,127.045552,49.906,0.00019600000000000002,0.0,0.0,0.0,0.00019600000000000002,0.0,0.0,0.0,0.00032399999999999996,2
1734501524536413407,2880,1734501524500327460,gps,2,0,37.5551125,127.045554,49.909,0.00019600000000000002,0.0,0.0,0.0,0.00019600000000000002,0.0,0.0,0.0,0.00032399999999999996,2
1734501524660356004,2881,1734501524625327463,gps,2,0,37.555112099999995,127.04555599999999,49.922000000000004,0.00019600000000000002,0.0,0.0,0.0,0.00019600000000000002,0.0,0.0,0.0,0.000256,2
1734501524785811342,2882,1734501524750327465,gps,2,0,37.555111499999995,127.04555789999999,49.925000000000004,0.00019600000000000002,0.0,0.0,0.0,0.00019600000000000002,0.0,0.0,0.0,0.000256,2
1734501524908434747,2883,1734501524875327468,gps,2,0,37.5551111,127.0455595,49.921,0.00019600000000000002,0.0,0.0,0.0,0.00019600000000000002,0.0,0.0,0.0,0.000256,2
1734501525038331562,2884,1734501525000327470,gps,2,0,37.5551106,127.04556149999999,49.929,0.00019600000000000002,0.0,0.0,0.0,0.00019600000000000002,0.0,0.0,0.0,0.000256,2
1734501525161317955,2885,1734501525125327473,gps,2,0,37.5551101,127.04556339999999,49.929,0.00019600000000000002,0.0,0.0,0.0,0.00019600000000000002,0.0,0.0,0.0,0.00032399999999999996,2
1734501525293121593,2886,1734501525250327476,gps,2,0,37.5551096,127.04556559999999,49.93,0.00019600000000000002,0.0,0.0,0.0,0.00019600000000000002,0.0,0.0,0.0,0.00032399999999999996,2
1734501525412484149,2887,1734501525375327478,gps,2,0,37.555109099999996,127.0455674,49.917,0.00019600000000000002,0.0,0.0,0.0,0.00019600000000000002,0.0,0.0,0.0,0.00044100000000000004,2
1734501525533381366,2888,1734501525500327481,gps,2,0,37.5551086,127.04556939999999,49.906,0.00019600000000000002,0.0,0.0,0.0,0.00019600000000000002,0.0,0.0,0.0,0.000361,2
1734501525662220379,2889,1734501525625327483,gps,2,0,37.5551081,127.04557129999999,49.921,0.00019600000000000002,0.0,0.0,0.0,0.00019600000000000002,0.0,0.0,0.0,0.00032399999999999996,2
1734501525784567363,2890,1734501525750327486,gps,2,0,37.5551077,127.0455734,49.916000000000004,0.00019600000000000002,0.0,0.0,0.0,0.00019600000000000002,0.0,0.0,0.0,0.00028900000000000003,2
1734501525910008799,2891,1734501525875327488,gps,2,0,37.555107199999995,127.0455753,49.924,0.00019600000000000002,0.0,0.0,0.0,0.00019600000000000002,0.0,0.0,0.0,0.00032399999999999996,2
1734501526038468621,2892,1734501526000327491,gps,2,0,37.555106699999996,127.04557729999999,49.910000000000004,0.00019600000000000002,0.0,0.0,0.0,0.00019600000000000002,0.0,0.0,0.0,0.000361,2
1734501526186027247,2893,1734501526125327494,gps,2,0,37.555106099999996,127.0455793,49.905,0.00019600000000000002,0.0,0.0,0.0,0.00019600000000000002,0.0,0.0,0.0,0.00028900000000000003,2
1734501526285192010,2894,1734501526250327496,gps,2,0,37.5551057,127.0455812,49.905,0.00019600000000000002,0.0,0.0,0.0,0.00019600000000000002,0.0,0.0,0.0,0.00028900000000000003,2
1734501526407268852,2895,1734501526375327499,gps,2,0,37.5551051,127.04558309999999,49.9,0.00019600000000000002,0.0,0.0,0.0,0.00019600000000000002,0.0,0.0,0.0,0.00032399999999999996,2
1734501526535516158,2896,1734501526500327502,gps,2,0,37.5551046,127.0455851,49.898,0.00019600000000000002,0.0,0.0,0.0,0.00019600000000000002,0.0,0.0,0.0,0.00032399999999999996,2
1734501526660719738,2897,1734501526625327504,gps,2,0,37.5551041,127.04558689999999,49.9,0.00019600000000000002,0.0,0.0,0.0,0.00019600000000000002,0.0,0.0,0.0,0.000361,2
1734501526785208169,2898,1734501526750327507,gps,2,0,37.5551035,127.0455891,49.897,0.00019600000000000002,0.0,0.0,0.0,0.00019600000000000002,0.0,0.0,0.0,0.000361,2
1734501526910767501,2899,1734501526875327509,gps,2,0,37.555102999999995,127.04559099999999,49.906,0.00019600000000000002,0.0,0.0,0.0,0.00019600000000000002,0.0,0.0,0.0,0.00032399999999999996,2
1734501527038412514,2900,1734501527000327512,gps,2,0,37.555102399999996,127.04559289999999,49.898,0.00019600000000000002,0.0,0.0,0.0,0.00019600000000000002,0.0,0.0,0.0,0.000361,2
1734501527160106626,2901,1734501527125327515,gps,2,0,37.555101799999996,127.04559479999999,49.913000000000004,0.00019600000000000002,0.0,0.0,0.0,0.00019600000000000002,0.0,0.0,0.0,0.000361,2
