%time,field.stamp,field.id,field.x,field.y,field.z,field.distanceFromTag,field.rssi,field.rssi_fp
1732085150570712154,1732085150570451021,9,2.5775,-0.87,0.5,6.191270666666667,-80.16,-81.12
1732085150671066440,1732085150670471191,9,2.5775,-0.87,0.5,6.203778333333333,-79.91,-80.75
1732085150770836497,1732085150770494461,9,2.5775,-0.87,0.5,6.191271,-79.77,-80.62
1732085150870939675,1732085150870502233,9,2.5775,-0.87,0.5,6.178763666666666,-80.34,-81.13
1732085150970757378,1732085150970463275,9,2.5775,-0.87,0.5,6.178763666666666,-80.04,-81.0
1732085151070918900,1732085151070525646,9,2.5775,-0.87,0.5,6.185017333333334,-79.7,-80.78
1732085151172048956,1732085151171869993,9,2.5775,-0.87,0.5,6.203778666666667,-79.84,-80.89
1732085151271984977,1732085151271770954,9,2.5775,-0.87,0.5,6.203778666666667,-80.21,-80.9
1732085151372063915,1732085151371677160,9,2.5775,-0.87,0.5,6.197525,-79.77,-80.61
1732085151471909311,1732085151471601486,9,2.5775,-0.87,0.5,6.191271,-80.18,-80.87
1732085151572861849,1732085151572388410,9,2.5775,-0.87,0.5,6.197524666666666,-80.1,-80.54
1732085151672011296,1732085151671738386,9,2.5775,-0.87,0.5,6.197524666666666,-79.67,-80.43
1732085151772569730,1732085151772107124,9,2.5775,-0.87,0.5,6.197524666666666,-80.29,-80.89
1732085151872156204,1732085151871795177,9,2.5775,-0.87,0.5,6.185017333333334,-79.77,-81.1
1732085151971889860,1732085151971646308,9,2.5775,-0.87,0.5,6.197524666666666,-79.39,-80.5
1732085152072745163,1732085152072372913,9,2.5775,-0.87,0.5,6.191271,-80.15,-81.4
1732085152172195270,1732085152171789884,9,2.5775,-0.87,0.5,6.178763333333333,-79.75,-80.91
1732085152270914598,1732085152270523071,9,2.5775,-0.87,0.5,6.1600019999999995,-79.84,-80.55
1732085152370784852,1732085152370448827,9,2.5775,-0.87,0.5,6.153748333333333,-79.85,-80.7
1732085152470806367,1732085152470501899,9,2.5775,-0.87,0.5,6.185017333333334,-79.81,-80.62
1732085152570898117,1732085152570513725,9,2.5775,-0.87,0.5,6.191271333333333,-79.97,-80.95
1732085152670851207,1732085152670456647,9,2.5775,-0.87,0.5,6.210032666666667,-79.73,-80.7
1732085152770975219,1732085152770478248,9,2.5775,-0.87,0.5,6.203778666666667,-79.61,-80.7
1732085152870684196,1732085152870473623,9,2.5775,-0.87,0.5,6.2225399999999995,-79.58,-80.61
1732085152970851014,1732085152970479726,9,2.5775,-0.87,0.5,6.216285999999999,-79.77,-80.54
1732085153070774460,1732085153070431232,9,2.5775,-0.87,0.5,6.203778666666666,-80.21,-80.8
1732085153170898359,1732085153170484304,9,2.5775,-0.87,0.5,6.197524666666666,-80.03,-80.94
1732085153270923249,1732085153270523071,9,2.5775,-0.87,0.5,6.210032333333333,-79.67,-80.55
1732085153370803051,1732085153370493412,9,2.5775,-0.87,0.5,6.222539666666667,-79.57,-80.76
1732085153470849368,1732085153470472335,9,2.5775,-0.87,0.5,6.210032333333333,-80.37,-81.28
1732085153972771747,1732085153972588062,9,2.5775,-0.87,0.5,6.222539666666667,-81.14,-81.2
1732085154072782245,1732085154072646617,9,2.5775,-0.87,0.5,6.216286,-80.03,-80.98
1732085154172816593,1732085154172568082,9,2.5775,-0.87,0.5,6.216286,-80.39,-80.67
1732085154271916138,1732085154271595001,9,2.5775,-0.87,0.5,6.203778666666667,-79.57,-80.72
1732085154374134238,1732085154373917579,9,2.5775,-0.87,0.5,6.203778666666667,-79.87,-80.62
1732085154473384526,1732085154473143339,9,2.5775,-0.87,0.5,6.185017333333334,-79.98,-80.83
1732085154573233398,1732085154573077917,9,2.5775,-0.87,0.5,6.178763333333333,-80.25,-81.37
1732085154673627523,1732085154673326492,9,2.5775,-0.87,0.5,6.166255666666667,-79.76,-80.47
1732085154773513175,1732085154773314476,9,2.5775,-0.87,0.5,6.166255666666667,-80.06,-80.54
1732085154873634110,1732085154873431205,9,2.5775,-0.87,0.5,6.178763333333333,-79.45,-81.17
1732085154973761920,1732085154973542213,9,2.5775,-0.87,0.5,6.197524666666666,-80.44,-81.25
1732085155073917887,1732085155073574066,9,2.5775,-0.87,0.5,6.197524666666666,-79.85,-80.79
1732085155173912197,1732085155173714399,9,2.5775,-0.87,0.5,6.178763333333333,-79.74,-80.62
1732085155273742951,1732085155273629903,9,2.5775,-0.87,0.5,6.178763333333333,-79.93,-80.66
1732085155373204997,1732085155373121023,9,2.5775,-0.87,0.5,6.178763333333333,-80.12,-81.13
1732085155474110157,1732085155473776578,9,2.5775,-0.87,0.5,6.197524666666666,-79.95,-80.8
1732085155573665054,1732085155573517322,9,2.5775,-0.87,0.5,6.185017333333334,-80.0,-80.69
1732085155673704952,1732085155673404693,9,2.5775,-0.87,0.5,6.191271,-80.19,-80.69
1732085155773660041,1732085155773526430,9,2.5775,-0.87,0.5,6.197524666666666,-79.83,-80.74
1732085155874219911,1732085155873906135,9,2.5775,-0.87,0.5,6.203778333333333,-80.15,-80.72
1732085155973614622,1732085155973390817,9,2.5775,-0.87,0.5,6.185016999999999,-79.63,-80.73
1732085156073526284,1732085156073439598,9,2.5775,-0.87,0.5,6.185016999999999,-80.14,-80.9
1732085156173283758,1732085156173112392,9,2.5775,-0.87,0.5,6.166255666666667,-79.77,-81.06
1732085156273539407,1732085156273355722,9,2.5775,-0.87,0.5,6.178763333333333,-80.46,-81.31
1732085156373813861,1732085156373502731,9,2.5775,-0.87,0.5,6.172509666666667,-79.86,-80.84
1732085156473205721,1732085156473047018,9,2.5775,-0.87,0.5,6.197524666666666,-80.17,-80.78
1732085156573601164,1732085156573307037,9,2.5775,-0.87,0.5,6.197524666666666,-80.0,-80.92
1732085156673540616,1732085156673396825,9,2.5775,-0.87,0.5,6.191271,-79.86,-80.98
1732085156773750466,1732085156773507833,9,2.5775,-0.87,0.5,6.191271,-79.91,-81.02
1732085156870738394,1732085156870456218,9,2.5775,-0.87,0.5,6.197524666666666,-81.75,-82.07
1732085157372026393,1732085157371710777,9,2.5775,-0.87,0.5,6.216286,-80.47,-80.76
1732085157472910580,1732085157472534894,9,2.5775,-0.87,0.5,6.222539666666667,-80.32,-80.65
1732085157572925498,1732085157572686910,9,2.5775,-0.87,0.5,6.216286,-81.13,-81.26
1732085157670883649,1732085157670522689,9,2.5775,-0.87,0.5,6.216285999999999,-79.6,-80.47
1732085157771053965,1732085157770525693,9,2.5775,-0.87,0.5,6.210032333333333,-79.81,-80.61
1732085157872632831,1732085157872471570,9,2.5775,-0.87,0.5,6.203778333333333,-80.05,-81.21
1732085158003491343,1732085158003234148,9,2.5775,-0.87,0.5,6.197524666666666,-79.99,-80.72
1732085158072656437,1732085158072410583,9,2.5775,-0.87,0.5,6.185016999999999,-79.84,-80.93
1732085158172806022,1732085158172603607,9,2.5775,-0.87,0.5,6.178763333333333,-80.16,-81.18
1732085158273165408,1732085158272865056,9,2.5775,-0.87,0.5,6.166255666666667,-79.8,-81.12
1732085158373003259,1732085158372771263,9,2.5775,-0.87,0.5,6.172509666666667,-79.73,-80.54
1732085158472664546,1732085158472370862,9,2.5775,-0.87,0.5,6.1600019999999995,-79.84,-80.72
1732085158572100461,1732085158571839809,9,2.5775,-0.87,0.5,6.153748333333333,-79.53,-80.59
1732085158673124309,1732085158673030138,9,2.5775,-0.87,0.5,6.122478999999999,-79.82,-81.03
1732085158772397543,1732085158772066354,9,2.5775,-0.87,0.5,6.1162253333333325,-79.73,-80.72
1732085158873168328,1732085158872989177,9,2.5775,-0.87,0.5,6.1037176666666655,-80.28,-80.89
1732085158972918289,1732085158972688674,9,2.5775,-0.87,0.5,6.084956333333333,-79.51,-80.75
1732085159073145952,1732085159072884559,9,2.5775,-0.87,0.5,6.022417999999999,-79.51,-80.87
1732085159173300120,1732085159172951459,9,2.5775,-0.87,0.5,5.959879999999999,-79.31,-80.54
1732085159272547491,1732085159272158145,9,2.5775,-0.87,0.5,5.909849666666666,-79.28,-80.47
1732085159372352857,1732085159371811866,9,2.5775,-0.87,0.5,5.884834666666667,-79.02,-80.47
1732085159471934563,1732085159471549749,9,2.5775,-0.87,0.5,5.853565333333333,-79.71,-80.59
1732085159572657904,1732085159572508335,9,2.5775,-0.87,0.5,5.816042333333333,-79.31,-80.92
1732085159672286286,1732085159672193288,9,2.5775,-0.87,0.5,5.759758000000001,-79.32,-80.9
1732085159772973422,1732085159772817134,9,2.5775,-0.87,0.5,5.697220000000001,-79.52,-81.28
1732085159872279834,1732085159872193813,9,2.5775,-0.87,0.5,5.6284279999999995,-79.18,-80.73
1732085159972412355,1732085159972321748,9,2.5775,-0.87,0.5,5.572143666666666,-79.28,-80.72
1732085160072704663,1732085160072470664,9,2.5775,-0.87,0.5,5.522113333333333,-79.13,-80.54
1732085160171989478,1732085160171721696,9,2.5775,-0.87,0.5,5.478336666666666,-79.01,-80.65
1732085160272594470,1732085160272207021,9,2.5775,-0.87,0.5,5.422052333333333,-79.05,-80.64
1732085160371968140,1732085160371619701,9,2.5775,-0.87,0.5,5.372022,-79.07,-80.79
1732085160471965787,1732085160471693277,9,2.5775,-0.87,0.5,5.315738,-79.27,-81.01
1732085160572004711,1732085160571788549,9,2.5775,-0.87,0.5,5.265707666666667,-79.57,-80.9
1732085160671871689,1732085160671593189,9,2.5775,-0.87,0.5,5.2156769999999995,-79.26,-80.85
1732085160771909227,1732085160771651029,9,2.5775,-0.87,0.5,5.153139,-79.61,-82.19
1732085160872150933,1732085160871888160,9,2.5775,-0.87,0.5,5.096854666666666,-79.37,-82.21
1732085160972077163,1732085160971765041,9,2.5775,-0.87,0.5,5.003047666666667,-79.9,-81.36
1732085161072154883,1732085161071767568,9,2.5775,-0.87,0.5,4.946763333333333,-79.2,-80.57
1732085161172330137,1732085161171860694,9,2.5775,-0.87,0.5,4.827941,-79.01,-80.58
1732085161272157205,1732085161272007226,9,2.5775,-0.87,0.5,4.759149,-79.02,-80.5
1732085161370864089,1732085161370492696,9,2.5775,-0.87,0.5,4.684103333333333,-79.09,-80.94
1732085161470872572,1732085161470481395,9,2.5775,-0.87,0.5,4.6340726666666665,-78.96,-80.49
1732085161570885680,1732085161570462703,9,2.5775,-0.87,0.5,4.565280666666666,-78.68,-80.46
1732085161670757371,1732085161670457839,9,2.5775,-0.87,0.5,4.51525,-79.12,-80.93
1732085161771023113,1732085161770464181,9,2.5775,-0.87,0.5,4.440204333333333,-78.48,-80.39
1732085161871748244,1732085161870472908,9,2.5775,-0.87,0.5,4.402681666666667,-78.57,-80.41
1732085161973696100,1732085161973488569,9,2.5775,-0.87,0.5,4.352651333333333,-78.75,-80.71
1732085162073937687,1732085162073680877,9,2.5775,-0.87,0.5,4.315128666666666,-78.84,-80.66
1732085162173660517,1732085162173381090,9,2.5775,-0.87,0.5,4.252590333333333,-78.69,-80.49
1732085162273406798,1732085162273289203,9,2.5775,-0.87,0.5,4.196306,-78.68,-80.75
1732085162373926200,1732085162373769283,9,2.5775,-0.87,0.5,4.1150063333333335,-78.89,-81.28
1732085162473382482,1732085162473183393,9,2.5775,-0.87,0.5,4.0587219999999995,-79.06,-81.08
1732085162574527693,1732085162574387311,9,2.5775,-0.87,0.5,4.014945333333333,-79.06,-80.67
1732085162673274433,1732085162673132896,9,2.5775,-0.87,0.5,3.971168666666667,-79.18,-80.94
1732085163170898713,1732085163170468568,9,2.5775,-0.87,0.5,3.7585393333333332,-78.81,-81.49
1732085163272144713,1732085163271913290,9,2.5775,-0.87,0.5,3.7147626666666667,-79.3,-80.9
1732085163372028239,1732085163371777534,9,2.5775,-0.87,0.5,3.6834936666666667,-79.14,-80.82
1732085163470984552,1732085163470484495,9,2.5775,-0.87,0.5,3.6522243333333333,-78.99,-80.64
1732085163570927779,1732085163570463180,9,2.5775,-0.87,0.5,3.614701333333333,-79.21,-80.78
1732085163673220528,1732085163672919988,9,2.5775,-0.87,0.5,3.5771786666666667,-79.31,-80.68
1732085163773203487,1732085163772955417,9,2.5775,-0.87,0.5,3.5521636666666665,-78.74,-80.45
1732085163872802232,1732085163872522830,9,2.5775,-0.87,0.5,3.552163666666667,-79.42,-80.56
1732085163972808431,1732085163972693443,9,2.5775,-0.87,0.5,3.5521636666666665,-79.11,-80.61
1732085164073008516,1732085164072799444,9,2.5775,-0.87,0.5,3.5396559999999995,-79.49,-81.0
1732085164172581985,1732085164172458410,9,2.5775,-0.87,0.5,3.5146406666666667,-79.2,-81.25
1732085164272112736,1732085164271805524,9,2.5775,-0.87,0.5,3.5146406666666667,-79.19,-80.84
1732085164372755150,1732085164372534751,9,2.5775,-0.87,0.5,3.5083866666666665,-78.86,-80.46
1732085164472146209,1732085164471814870,9,2.5775,-0.87,0.5,3.4958793333333333,-79.04,-80.48
1732085164571855852,1732085164571592807,9,2.5775,-0.87,0.5,3.477117666666667,-78.76,-80.4
1732085164671826529,1732085164671587944,9,2.5775,-0.87,0.5,3.477117666666667,-79.02,-80.53
1732085164772802170,1732085164772584438,9,2.5775,-0.87,0.5,3.495879,-78.98,-80.52
1732085164872419817,1732085164872298002,9,2.5775,-0.87,0.5,3.5146406666666667,-78.98,-80.64
1732085164973157049,1732085164972809076,9,2.5775,-0.87,0.5,3.5271483333333333,-79.11,-80.62
1732085165072898245,1732085165072646617,9,2.5775,-0.87,0.5,3.5521636666666665,-78.73,-80.52
1732085165172773460,1732085165172522306,9,2.5775,-0.87,0.5,3.564671333333333,-79.09,-80.57
1732085165272949517,1732085165272589683,9,2.5775,-0.87,0.5,3.6084479999999997,-79.18,-80.95
1732085165373132248,1732085165373019456,9,2.5775,-0.87,0.5,3.627209333333333,-78.85,-80.6
1732085165472559886,1732085165472418546,9,2.5775,-0.87,0.5,3.658478333333333,-78.83,-80.96
1732085165572845206,1732085165572687387,9,2.5775,-0.87,0.5,3.6647323333333333,-78.87,-80.79
1732085165673076240,1732085165672784566,9,2.5775,-0.87,0.5,3.7022549999999996,-78.93,-80.88
1732085165772794768,1732085165772560596,9,2.5775,-0.87,0.5,3.7335239999999996,-79.07,-81.0
1732085165872564500,1732085165872308969,9,2.5775,-0.87,0.5,3.771046666666667,-79.13,-80.99
1732085165972804681,1732085165972561120,9,2.5775,-0.87,0.5,3.7773006666666666,-78.96,-80.96
1732085166072640296,1732085166072409391,9,2.5775,-0.87,0.5,3.8085696666666666,-79.1,-80.9
1732085166173137945,1732085166172860622,9,2.5775,-0.87,0.5,3.864854,-78.76,-80.41
1732085166272797499,1732085166272547721,9,2.5775,-0.87,0.5,3.9211383333333334,-78.9,-80.79
1732085166372624589,1732085166372371196,9,2.5775,-0.87,0.5,3.964915,-78.63,-80.88
1732085166472928736,1732085166472743272,9,2.5775,-0.87,0.5,4.0086916666666665,-78.99,-80.64
1732085166573430035,1732085166573227882,9,2.5775,-0.87,0.5,4.077483666666667,-78.61,-80.57
1732085166672671451,1732085166672506570,9,2.5775,-0.87,0.5,4.158783333333334,-78.8,-80.64
1732085166773154362,1732085166772867918,9,2.5775,-0.87,0.5,4.20256,-78.77,-80.6
1732085166872611861,1732085166872462034,9,2.5775,-0.87,0.5,4.252590333333333,-78.84,-80.84
1732085166972643851,1732085166972399950,9,2.5775,-0.87,0.5,4.315128333333333,-78.75,-80.91
1732085167072848127,1732085167072684049,9,2.5775,-0.87,0.5,4.402681666666667,-78.69,-80.86
1732085167172121846,1732085167171602725,9,2.5775,-0.87,0.5,4.502742666666666,-78.8,-80.75
1732085167272836495,1732085167272597074,9,2.5775,-0.87,0.5,4.577788333333333,-78.91,-81.01
1732085167371806606,1732085167371511697,9,2.5775,-0.87,0.5,4.640326666666667,-78.93,-80.77
1732085167471793829,1732085167471587181,9,2.5775,-0.87,0.5,4.696611,-79.08,-81.09
1732085167571745294,1732085167571536779,9,2.5775,-0.87,0.5,4.759149,-78.98,-80.74
1732085167672110999,1732085167671569824,9,2.5775,-0.87,0.5,4.846702333333334,-78.97,-81.27
1732085167771997292,1732085167771804332,9,2.5775,-0.87,0.5,4.946763333333333,-79.12,-80.54
1732085167871844211,1732085167871499300,9,2.5775,-0.87,0.5,5.046824333333333,-79.11,-80.65
1732085168002197992,1732085168001921892,9,2.5775,-0.87,0.5,5.140631333333332,-78.82,-80.43
1732085168071813709,1732085168071588516,9,2.5775,-0.87,0.5,5.2281846666666665,-78.71,-80.66
1732085168171900811,1732085168171615839,9,2.5775,-0.87,0.5,5.3470070000000005,-79.09,-80.77
1732085168271921202,1732085168271702766,9,2.5775,-0.87,0.5,5.4533216666666675,-78.8,-80.58
1732085168372131905,1732085168371763229,9,2.5775,-0.87,0.5,5.540874666666666,-79.04,-80.56
1732085168472165875,1732085168471819639,9,2.5775,-0.87,0.5,5.6284279999999995,-79.25,-81.04
1732085168572754065,1732085168572480916,9,2.5775,-0.87,0.5,5.722235,-78.64,-80.55
1732085169172630796,1732085169172395944,9,2.5775,-0.87,0.5,6.253809333333333,-79.66,-81.66
1732085169270909428,1732085169270465135,9,2.5775,-0.87,0.5,6.372631666666667,-80.27,-81.18
1732085169370694983,1732085169370507717,9,2.5775,-0.87,0.5,6.572753333333334,-80.4,-80.6
1732085169472667855,1732085169472500562,9,2.5775,-0.87,0.5,6.647799,-79.54,-81.11
1732085169572788159,1732085169572697401,9,2.5775,-0.87,0.5,6.741606333333333,-79.01,-80.95
1732085169672577456,1732085169672354221,9,2.5775,-0.87,0.5,6.822906,-79.27,-81.0
1732085169773478320,1732085169773328781,9,2.5775,-0.87,0.5,6.922967,-79.05,-80.82
1732085169872710764,1732085169872491359,9,2.5775,-0.87,0.5,7.010520333333333,-79.04,-80.52
1732085169971026746,1732085169970458030,9,2.5775,-0.87,0.5,7.129342666666666,-79.3,-80.74
1732085170071926949,1732085170071679115,9,2.5775,-0.87,0.5,7.235657333333333,-79.21,-80.71
1732085170171939373,1732085170171746730,9,2.5775,-0.87,0.5,7.323210666666667,-79.07,-80.66
1732085170272048725,1732085170271743059,9,2.5775,-0.87,0.5,7.410764,-79.3,-81.22
1732085170372293722,1732085170372045993,9,2.5775,-0.87,0.5,7.4983173333333335,-79.23,-80.78
1732085170472972449,1732085170472717761,9,2.5775,-0.87,0.5,7.604632,-79.32,-81.14
1732085170571000581,1732085170570463418,9,2.5775,-0.87,0.5,7.7109466666666675,-78.83,-80.51
1732085170670806787,1732085170670463085,9,2.5775,-0.87,0.5,7.798500000000001,-79.09,-80.71
1732085170770801259,1732085170770457029,9,2.5775,-0.87,0.5,7.923576000000001,-79.4,-80.5
1732085170870841906,1732085170870475530,9,2.5775,-0.87,0.5,8.011129333333335,-79.23,-80.61
1732085170970765291,1732085170970505952,9,2.5775,-0.87,0.5,8.117444333333333,-79.46,-80.59
1732085171070804596,1732085171070477962,9,2.5775,-0.87,0.5,8.192490333333334,-80.09,-80.96
1732085171170921358,1732085171170467853,9,2.5775,-0.87,0.5,8.317566666666666,-80.09,-80.87
1732085171273480646,1732085171273233652,9,2.5775,-0.87,0.5,8.442642999999999,-80.21,-80.72
1732085171373285203,1732085171373003721,9,2.5775,-0.87,0.5,8.567718999999999,-80.6,-81.19
1732085171472720727,1732085171472461462,9,2.5775,-0.87,0.5,8.674033666666666,-80.16,-80.83
1732085171573042564,1732085171572894811,9,2.5775,-0.87,0.5,8.774094333333334,-79.87,-80.71
1732085171672801485,1732085171672478199,9,2.5775,-0.87,0.5,8.874155333333334,-80.34,-80.74
1732085171772789440,1732085171772581815,9,2.5775,-0.87,0.5,8.974216666666665,-80.93,-82.14
1732085171872783905,1732085171872582674,9,2.5775,-0.87,0.5,9.068024,-80.03,-81.23
1732085171972957907,1732085171972744226,9,2.5775,-0.87,0.5,9.161831333333334,-80.35,-80.92
1732085172073424919,1732085172072743415,9,2.5775,-0.87,0.5,9.274399666666666,-80.35,-80.69
1732085172173235700,1732085172172878026,9,2.5775,-0.87,0.5,9.399475666666666,-81.12,-81.04
1732085172272615747,1732085172272397518,9,2.5775,-0.87,0.5,9.505790333333334,-80.33,-80.69
1732085172373057732,1732085172372803926,9,2.5775,-0.87,0.5,9.599597666666666,-80.61,-81.25
1732085172472584185,1732085172472401380,9,2.5775,-0.87,0.5,9.693405,-81.17,-81.5
1732085172572911525,1732085172572589397,9,2.5775,-0.87,0.5,9.830988666666666,-82.25,-81.63
1732085172672675137,1732085172672504425,9,2.5775,-0.87,0.5,9.974826333333333,-80.42,-80.89
1732085172773026383,1732085172772858381,9,2.5775,-0.87,0.5,10.112409999999999,-80.4,-80.99
1732085172872848123,1732085172872653722,9,2.5775,-0.87,0.5,10.218724666666667,-80.11,-81.25
1732085173003488632,1732085173003156423,9,2.5775,-0.87,0.5,10.331293,-80.48,-81.08
1732085173072706060,1732085173072491407,9,2.5775,-0.87,0.5,10.431354,-80.12,-80.93
1732085173172949187,1732085173172765254,9,2.5775,-0.87,0.5,10.543923,-79.73,-80.75
1732085173273132717,1732085173272818088,9,2.5775,-0.87,0.5,10.631476333333334,-80.41,-81.25
1732085173372887423,1732085173372658967,9,2.5775,-0.87,0.5,10.744044666666667,-79.96,-80.56
1732085173473026689,1732085173472793340,9,2.5775,-0.87,0.5,10.844105333333333,-80.97,-81.29
1732085173572821298,1732085173572596073,9,2.5775,-0.87,0.5,10.95042,-80.75,-80.88
1732085173673024157,1732085173672855615,9,2.5775,-0.87,0.5,11.050481333333332,-81.03,-81.66
1732085173772760383,1732085173772549152,9,2.5775,-0.87,0.5,11.175557666666668,-80.53,-81.05
1732085173874082879,1732085173873859643,9,2.5775,-0.87,0.5,11.300634,-80.3,-82.09
1732085173973634077,1732085173973467111,9,2.5775,-0.87,0.5,11.431963666666666,-79.98,-80.93
1732085174073329553,1732085174073207139,9,2.5775,-0.87,0.5,11.525770666666666,-80.54,-80.83
1732085174173521400,1732085174173249006,9,2.5775,-0.87,0.5,11.625831666666665,-80.4,-80.88
1732085174274483156,1732085174274096965,9,2.5775,-0.87,0.5,11.732146666666665,-80.29,-80.8
1732085174373419146,1732085174373141288,9,2.5775,-0.87,0.5,11.857223,-80.07,-80.88
1732085174473957785,1732085174473744869,9,2.5775,-0.87,0.5,11.969791333333333,-79.94,-81.34
1732085174573133394,1732085174573025941,9,2.5775,-0.87,0.5,12.088613333333335,-80.19,-80.8
1732085174673836720,1732085174673707962,9,2.5775,-0.87,0.5,12.188674333333333,-80.97,-81.4
1732085174773187499,1732085174773021459,9,2.5775,-0.87,0.5,12.307496666666667,-82.07,-82.06
1732085174873916393,1732085174873634338,9,2.5775,-0.87,0.5,12.407558,-82.17,-82.0
1732085174973593619,1732085174973368644,9,2.5775,-0.87,0.5,12.507618666666666,-82.35,-84.09
1732085175074420421,1732085175074249505,9,2.5775,-0.87,0.5,12.601425999999998,-81.72,-82.24
1732085175272450359,1732085175272189378,9,2.5775,-0.87,0.5,12.764024666666666,-80.46,-81.28
1732085175372106295,1732085175371726512,9,2.5775,-0.87,0.5,12.945385333333334,-81.83,-81.67
1732085175472210188,1732085175471909284,9,2.5775,-0.87,0.5,13.114238,-80.36,-80.97
1732085175571910709,1732085175571730613,9,2.5775,-0.87,0.5,13.208045333333333,-80.42,-80.8
1732085175672177961,1732085175671814203,9,2.5775,-0.87,0.5,13.301852666666667,-80.21,-80.49
1732085175772150265,1732085175771756887,9,2.5775,-0.87,0.5,13.408167333333333,-80.26,-80.67
1732085175970648498,1732085175970475196,9,2.5775,-0.87,0.5,13.564512666666667,-80.57,-80.92
1732085176070797683,1732085176070480823,9,2.5775,-0.87,0.5,13.702096333333335,-81.02,-82.02
1732085176172099212,1732085176171787977,9,2.5775,-0.87,0.5,13.858442000000002,-81.37,-82.16
1732085176270804718,1732085176270484685,9,2.5775,-0.87,0.5,13.977264,-81.76,-81.96
1732085176370936318,1732085176370472431,9,2.5775,-0.87,0.5,14.108593666666666,-82.92,-83.74
1732085176471022919,1732085176470533370,9,2.5775,-0.87,0.5,14.202400666666668,-83.04,-84.33
1732085176873645453,1732085176873499155,9,2.5775,-0.87,0.5,14.652675333333335,-82.95,-82.87
1732085176973351654,1732085176973132610,9,2.5775,-0.87,0.5,14.765243666666668,-81.63,-81.77
1732085177073107107,1732085177072903871,9,2.5775,-0.87,0.5,14.871558333333335,-82.0,-82.58
1732085177170893376,1732085177170448064,9,2.5775,-0.87,0.5,14.996634666666665,-82.27,-81.78
1732085177270991380,1732085177270457267,9,2.5775,-0.87,0.5,15.121710666666667,-82.6,-82.16
1732085177370932010,1732085177370462417,9,2.5775,-0.87,0.5,15.234279333333333,-82.26,-81.9
1732085177471196155,1732085177470455884,9,2.5775,-0.87,0.5,15.340594000000001,-83.17,-82.88
1732085177571071047,1732085177570544958,9,2.5775,-0.87,0.5,15.453163000000002,-83.98,-83.62
1732085177671142784,1732085177670658826,9,2.5775,-0.87,0.5,15.565731666666666,-82.45,-82.18
1732085177770839926,1732085177770450353,9,2.5775,-0.87,0.5,15.697061666666668,-82.75,-84.54
1732085177870959251,1732085177870479106,9,2.5775,-0.87,0.5,15.815883666666666,-83.67,-83.48
1732085177971155637,1732085177970463037,9,2.5775,-0.87,0.5,15.928451666666668,-83.25,-83.67
1732085178070758000,1732085178070470571,9,2.5775,-0.87,0.5,16.047274,-83.52,-83.31
1732085178171169408,1732085178170514106,9,2.5775,-0.87,0.5,16.159842333333334,-83.17,-84.81
1732085178271108400,1732085178270504474,9,2.5775,-0.87,0.5,16.278665,-83.18,-83.24
1732085178371190428,1732085178370503664,9,2.5775,-0.87,0.5,16.397487,-83.31,-84.59
1732085178470848187,1732085178470445871,9,2.5775,-0.87,0.5,16.522563333333334,-84.46,-85.49
1732085178570660378,1732085178570480585,9,2.5775,-0.87,0.5,16.647638999999998,-83.53,-83.03
1732085178670846072,1732085178670456171,9,2.5775,-0.87,0.5,16.866522333333332,-84.35,-85.95
1732085178770827632,1732085178770479679,9,2.5775,-0.87,0.5,16.966583999999997,-85.92,-85.49
1732085178870651590,1732085178870454549,9,2.5775,-0.87,0.5,17.07289833333333,-86.14,-86.64
1732085179072743230,1732085179072589397,9,2.5775,-0.87,0.5,17.191721,-87.08,-87.57
1732085179173561339,1732085179173331499,9,2.5775,-0.87,0.5,17.329304333333337,-88.39,-92.24
1732085179273668057,1732085179273438453,9,2.5775,-0.87,0.5,17.460635,-90.38,-95.21
1732085179373735469,1732085179373606204,9,2.5775,-0.87,0.5,17.560696,-90.75,-94.58
1732085179473210792,1732085179473017454,9,2.5775,-0.87,0.5,17.660757333333333,-91.23,-92.74
1732085179573291584,1732085179573052883,9,2.5775,-0.87,0.5,17.748310333333333,-90.63,-91.74
1732085179673174352,1732085179673096179,9,2.5775,-0.87,0.5,17.873386666666665,-90.17,-90.7
1732085179772041229,1732085179771691799,9,2.5775,-0.87,0.5,18.01097,-90.65,-91.31
1732085179871837515,1732085179871551513,9,2.5775,-0.87,0.5,18.161061666666665,-89.32,-90.16
1732085179972189135,1732085179971809864,9,2.5775,-0.87,0.5,18.304899000000002,-87.49,-87.37
1732085180071893376,1732085180071701288,9,2.5775,-0.87,0.5,18.436229,-87.16,-88.2
1732085180172225223,1732085180171883583,9,2.5775,-0.87,0.5,18.54879766666667,-86.44,-88.16
1732085180271894378,1732085180271575689,9,2.5775,-0.87,0.5,18.66762,-87.13,-87.49
1732085180371856981,1732085180371589183,9,2.5775,-0.87,0.5,18.780188666666668,-85.78,-86.59
1732085180471781548,1732085180471579074,9,2.5775,-0.87,0.5,18.911518333333337,-85.89,-85.5
1732085180572400466,1732085180572073698,9,2.5775,-0.87,0.5,19.024086666666665,-86.1,-86.16
1732085180670833162,1732085180670461654,9,2.5775,-0.87,0.5,19.117893666666664,-85.27,-85.7
1732085180770877421,1732085180770487546,9,2.5775,-0.87,0.5,19.224208,-85.16,-86.76
1732085180870828700,1732085180870450258,9,2.5775,-0.87,0.5,19.330523,-85.27,-85.39
1732085180970908722,1732085180970508575,9,2.5775,-0.87,0.5,19.443091666666668,-84.35,-84.27
1732085181070920909,1732085181070476293,9,2.5775,-0.87,0.5,19.549406666666666,-84.89,-86.49
1732085181170645858,1732085181170347213,9,2.5775,-0.87,0.5,19.661975333333334,-85.31,-84.6
1732085181270807027,1732085181270472764,9,2.5775,-0.87,0.5,19.774544000000002,-84.32,-85.18
1732085181370854186,1732085181370462656,9,2.5775,-0.87,0.5,19.887112666666667,-83.59,-83.12
1732085181472002168,1732085181471778392,9,2.5775,-0.87,0.5,19.987173333333335,-83.65,-83.23
1732085181573606371,1732085181573400497,9,2.5775,-0.87,0.5,20.09974166666667,-84.93,-85.14
1732085182171664692,1732085182171499013,9,2.5775,-0.87,0.5,20.781407666666667,-82.41,-82.04
1732085182271920599,1732085182271719694,9,2.5775,-0.87,0.5,20.906483333333334,-82.13,-83.48
1732085182370748398,1732085182370452165,9,2.5775,-0.87,0.5,21.019052000000002,-82.15,-81.7
1732085182470901809,1732085182470465421,9,2.5775,-0.87,0.5,21.137874333333333,-82.43,-82.39
1732085182573426879,1732085182573297977,9,2.5775,-0.87,0.5,21.23793566666667,-82.06,-83.31
1732085182673887335,1732085182673678636,9,2.5775,-0.87,0.5,21.356758333333335,-81.92,-82.18
1732085182773801106,1732085182773617267,9,2.5775,-0.87,0.5,21.46932666666667,-82.4,-81.96
1732085182873516767,1732085182873349428,9,2.5775,-0.87,0.5,21.569387333333335,-82.03,-81.99
1732085183004756227,1732085183004482746,9,2.5775,-0.87,0.5,21.681956,-81.64,-81.45
1732085183073602598,1732085183073421001,9,2.5775,-0.87,0.5,21.80703233333333,-83.64,-85.14
1732085183174005972,1732085183173854112,9,2.5775,-0.87,0.5,21.925854666666666,-81.8,-83.13
1732085183273664669,1732085183273393392,9,2.5775,-0.87,0.5,22.038422999999998,-82.22,-81.79
1732085183373959286,1732085183373705148,9,2.5775,-0.87,0.5,22.132230333333336,-82.94,-82.7
1732085183473473296,1732085183473329782,9,2.5775,-0.87,0.5,22.244798666666668,-81.71,-81.45
1732085183572827615,1732085183572602987,9,2.5775,-0.87,0.5,22.351112999999998,-82.18,-82.74
1732085183672627557,1732085183672441244,9,2.5775,-0.87,0.5,22.45742733333333,-81.85,-81.61
1732085183772874545,1732085183772765874,9,2.5775,-0.87,0.5,22.569996000000003,-82.1,-81.85
1732085183873089120,1732085183872886180,9,2.5775,-0.87,0.5,22.688819,-81.99,-82.17
1732085183972695414,1732085183972452402,9,2.5775,-0.87,0.5,22.820149333333333,-82.45,-82.26
1732085184072903935,1732085184072725296,9,2.5775,-0.87,0.5,22.938972000000003,-82.22,-81.8
1732085184172796684,1732085184172443866,9,2.5775,-0.87,0.5,23.051540333333335,-81.76,-81.47
1732085184273019914,1732085184272812604,9,2.5775,-0.87,0.5,23.139093333333335,-82.05,-82.16
1732085184372597916,1732085184372454881,9,2.5775,-0.87,0.5,23.214139333333335,-82.17,-82.21
1732085184472958419,1732085184472737312,9,2.5775,-0.87,0.5,23.307946666666666,-82.04,-82.07
1732085184572485667,1732085184572304964,9,2.5775,-0.87,0.5,23.426768999999997,-82.4,-82.03
1732085184673287871,1732085184673052072,9,2.5775,-0.87,0.5,23.545591,-82.68,-83.19
1732085184772989700,1732085184772650957,9,2.5775,-0.87,0.5,23.651905333333332,-82.65,-83.49
1732085184872306533,1732085184871875524,9,2.5775,-0.87,0.5,23.751966666666664,-82.83,-84.46
1732085184972222823,1732085184971843242,9,2.5775,-0.87,0.5,23.864535333333333,-83.23,-82.79
1732085185071825812,1732085185071634292,9,2.5775,-0.87,0.5,23.983358,-83.46,-84.95
1732085185171683031,1732085185171413183,9,2.5775,-0.87,0.5,24.10218,-82.89,-84.0
1732085185272108943,1732085185271810054,9,2.5775,-0.87,0.5,24.221002,-82.79,-82.56
1732085185372144967,1732085185371817827,9,2.5775,-0.87,0.5,24.327316333333332,-82.41,-81.96
1732085185471736530,1732085185471453428,9,2.5775,-0.87,0.5,24.446139000000002,-81.69,-81.56
1732085185571994496,1732085185571781396,9,2.5775,-0.87,0.5,24.54620033333333,-81.62,-82.28
1732085185671779564,1732085185671560049,9,2.5775,-0.87,0.5,24.658769000000003,-82.31,-82.49
1732085185771730016,1732085185771457910,9,2.5775,-0.87,0.5,24.75883,-82.27,-82.41
1732085185871881651,1732085185871670246,9,2.5775,-0.87,0.5,24.883906333333332,-82.65,-84.57
1732085185971811815,1732085185971560478,9,2.5775,-0.87,0.5,25.008982666666668,-82.02,-81.77
1732085186072121865,1732085186071727514,9,2.5775,-0.87,0.5,25.127804666666666,-82.1,-82.06
1732085186172089848,1732085186171664714,9,2.5775,-0.87,0.5,25.246626666666668,-82.43,-82.12
1732085186271691902,1732085186271433353,9,2.5775,-0.87,0.5,25.365449333333334,-84.52,-86.03
1732085186371891412,1732085186371665239,9,2.5775,-0.87,0.5,25.490525666666667,-82.35,-84.13
1732085186470860239,1732085186470505237,9,2.5775,-0.87,0.5,25.609348,-82.01,-82.14
1732085186571599946,1732085186571422576,9,2.5775,-0.87,0.5,25.728170000000002,-82.18,-83.2
1732085186672375637,1732085186671942472,9,2.5775,-0.87,0.5,25.834485,-82.68,-82.24
1732085186772431573,1732085186772215127,9,2.5775,-0.87,0.5,25.940799999999996,-83.3,-84.12
1732085186872644431,1732085186872398853,9,2.5775,-0.87,0.5,26.040861000000003,-82.06,-83.74
1732085186972826546,1732085186972569942,9,2.5775,-0.87,0.5,26.265997999999996,-81.79,-81.75
1732085187073240266,1732085187072702646,9,2.5775,-0.87,0.5,26.378566333333335,-82.03,-82.52
1732085187171729447,1732085187171567916,9,2.5775,-0.87,0.5,26.491134999999996,-81.84,-82.12
1732085187271943981,1732085187271589994,9,2.5775,-0.87,0.5,26.609956999999998,-81.6,-81.67
1732085187371984375,1732085187371724605,9,2.5775,-0.87,0.5,26.716272,-81.74,-82.0
1732085187999462431,1732085187999247789,9,2.5775,-0.87,0.5,27.32289133333333,-81.98,-81.86
1732085188072130274,1732085188071884632,9,2.5775,-0.87,0.5,27.441714,-81.51,-81.22
1732085188171775749,1732085188171491861,9,2.5775,-0.87,0.5,27.566790333333334,-81.97,-81.78
1732085188270922637,1732085188270502567,9,2.5775,-0.87,0.5,27.679359,-81.57,-81.61
1732085188372311575,1732085188371967077,9,2.5775,-0.87,0.5,27.785673333333335,-81.63,-81.31
1732085188471986283,1732085188471721172,9,2.5775,-0.87,0.5,27.898242,-82.52,-83.65
1732085188572067574,1732085188571769952,9,2.5775,-0.87,0.5,28.017064666666666,-81.92,-81.59
1732085188670983649,1732085188670442819,9,2.5775,-0.87,0.5,28.135887333333333,-82.07,-82.01
1732085188771046994,1732085188770485401,9,2.5775,-0.87,0.5,28.229694333333338,-81.59,-81.84
1732085188870855755,1732085188870477676,9,2.5775,-0.87,0.5,28.348516333333333,-82.48,-82.01
1732085188970792881,1732085188970428466,9,2.5775,-0.87,0.5,28.473592666666665,-84.97,-84.12
1732085189071427831,1732085189070504665,9,2.5775,-0.87,0.5,28.579907000000002,-81.33,-81.27
1732085189171061127,1732085189170430183,9,2.5775,-0.87,0.5,28.679968000000002,-81.52,-81.37
1732085189271093972,1732085189270517349,9,2.5775,-0.87,0.5,28.761267333333333,-81.33,-81.32
1732085189370779655,1732085189370430469,9,2.5775,-0.87,0.5,28.88009033333333,-82.14,-82.16
1732085189471751516,1732085189470498800,9,2.5775,-0.87,0.5,29.005166666666668,-82.39,-82.45
1732085189570990687,1732085189570418834,9,2.5775,-0.87,0.5,29.13649666666667,-81.4,-81.7
1732085189671014078,1732085189670442819,9,2.5775,-0.87,0.5,29.261572666666666,-82.09,-81.61
1732085189771066333,1732085189770480155,9,2.5775,-0.87,0.5,29.38039466666667,-81.38,-81.31
1732085189870657384,1732085189870461940,9,2.5775,-0.87,0.5,29.505471,-82.62,-82.59
1732085189971273428,1732085189970518112,9,2.5775,-0.87,0.5,29.59927833333333,-81.33,-81.28
1732085190071348891,1732085190070449113,9,2.5775,-0.87,0.5,29.699339666666663,-81.99,-81.93
1732085190171097864,1732085190170515775,9,2.5775,-0.87,0.5,29.805654,-81.62,-81.57
1732085190773556186,1732085190773376941,9,2.5775,-0.87,0.5,30.631157333333334,-81.44,-81.24
1732085190873100873,1732085190872791528,9,2.5775,-0.87,0.5,30.743725666666666,-81.51,-81.35
1732085190970935593,1732085190970557212,9,2.5775,-0.87,0.5,30.862547666666668,-82.22,-82.11
1732085191071226639,1732085191070520162,9,2.5775,-0.87,0.5,30.975116,-84.13,-85.67
1732085191173619472,1732085191173306226,9,2.5775,-0.87,0.5,31.081430333333333,-81.46,-81.47
1732085191273772560,1732085191273516654,9,2.5775,-0.87,0.5,31.187745333333336,-82.12,-82.43
1732085191374365750,1732085191374147653,9,2.5775,-0.87,0.5,31.300314,-81.78,-81.48
1732085191474086229,1732085191473956346,9,2.5775,-0.87,0.5,31.412882666666665,-82.2,-82.08
1732085191573731281,1732085191573566675,9,2.5775,-0.87,0.5,31.544212666666667,-81.38,-81.23
1732085191673999732,1732085191673741340,9,2.5775,-0.87,0.5,31.650527666666665,-82.18,-82.35
1732085191770683345,1732085191770463466,9,2.5775,-0.87,0.5,31.775604,-81.82,-81.7
1732085191870831272,1732085191870458126,9,2.5775,-0.87,0.5,31.881919,-82.44,-82.07
1732085191971612626,1732085191971452236,9,2.5775,-0.87,0.5,32.00699533333333,-81.08,-81.13
1732085192072288983,1732085192071946859,9,2.5775,-0.87,0.5,32.12581733333334,-82.7,-84.28
1732085192172360025,1732085192171809196,9,2.5775,-0.87,0.5,32.23213166666667,-81.93,-82.13
1732085192272515963,1732085192272330522,9,2.5775,-0.87,0.5,32.33219233333333,-82.68,-82.41
1732085192371686075,1732085192371435880,9,2.5775,-0.87,0.5,32.44476166666667,-81.44,-81.79
1732085192471892137,1732085192471493005,9,2.5775,-0.87,0.5,32.569838000000004,-82.34,-84.04
1732085192570896821,1732085192570453643,9,2.5775,-0.87,0.5,32.707421333333336,-82.81,-84.38
1732085192670978475,1732085192670455455,9,2.5775,-0.87,0.5,32.819989,-82.75,-82.37
1732085192773807030,1732085192773493766,9,2.5775,-0.87,0.5,32.92630333333333,-82.81,-84.32
1732085192874226657,1732085192873983383,9,2.5775,-0.87,0.5,33.02011066666667,-81.41,-81.29
1732085193001106266,1732085193000955581,9,2.5775,-0.87,0.5,33.13268,-82.39,-81.96
1732085193074124875,1732085193073961496,9,2.5775,-0.87,0.5,33.23899533333333,-82.71,-82.76
1732085193173627615,1732085193173478126,9,2.5775,-0.87,0.5,33.357818,-81.57,-81.5
1732085193273355851,1732085193273235082,9,2.5775,-0.87,0.5,33.48914766666666,-81.71,-81.46
1732085193374599074,1732085193374395370,9,2.5775,-0.87,0.5,33.620477666666666,-82.47,-83.71
1732085193474016916,1732085193473730325,9,2.5775,-0.87,0.5,33.75180766666667,-81.87,-83.39
1732085193573733024,1732085193573514938,9,2.5775,-0.87,0.5,33.845615,-82.07,-81.59
1732085193673609561,1732085193673362970,9,2.5775,-0.87,0.5,33.945675666666666,-81.58,-81.58
1732085193773419761,1732085193773257732,9,2.5775,-0.87,0.5,34.051989999999996,-81.77,-81.4
1732085193873568242,1732085193873311519,9,2.5775,-0.87,0.5,34.164558,-83.01,-82.89
1732085193974427002,1732085193974204301,9,2.5775,-0.87,0.5,34.295888,-83.24,-82.65
1732085194073421004,1732085194073232173,9,2.5775,-0.87,0.5,34.408457,-82.78,-82.63
1732085194173564462,1732085194173308610,9,2.5775,-0.87,0.5,34.521026,-83.24,-83.77
1732085194274461656,1732085194274151563,9,2.5775,-0.87,0.5,34.62734033333333,-81.9,-81.71
1732085194370855189,1732085194370460748,9,2.5775,-0.87,0.5,34.733654666666666,-81.83,-82.01
1732085194470801409,1732085194470470905,9,2.5775,-0.87,0.5,34.852477666666665,-81.54,-81.46
1732085194570841401,1732085194570488691,9,2.5775,-0.87,0.5,34.95879333333334,-81.87,-81.58
1732085194670802298,1732085194670480966,9,2.5775,-0.87,0.5,35.077616,-82.77,-82.17
1732085194770848410,1732085194770479202,9,2.5775,-0.87,0.5,35.183930333333336,-81.78,-81.47
1732085194870798267,1732085194870491981,9,2.5775,-0.87,0.5,35.302751666666666,-82.38,-81.94
1732085194970849931,1732085194970487117,9,2.5775,-0.87,0.5,35.409065999999996,-81.55,-81.35
1732085195070795671,1732085195070489645,9,2.5775,-0.87,0.5,35.50912666666667,-81.9,-81.95
1732085195170745124,1732085195170465230,9,2.5775,-0.87,0.5,35.634203,-82.21,-81.69
1732085195270858384,1732085195270476579,9,2.5775,-0.87,0.5,35.765533,-82.77,-82.96
1732085195370782725,1732085195370479345,9,2.5775,-0.87,0.5,35.90937133333333,-82.82,-82.52
1732085195471755009,1732085195471491336,9,2.5775,-0.87,0.5,36.021940666666666,-82.71,-83.22
1732085195572464184,1732085195572066068,9,2.5775,-0.87,0.5,36.12825633333333,-83.06,-83.76
1732085195673206035,1732085195673006296,9,2.5775,-0.87,0.5,36.240823999999996,-82.08,-81.74
1732085195774526130,1732085195774388074,9,2.5775,-0.87,0.5,36.34088466666667,-82.27,-81.88
1732085195873269406,1732085195873125314,9,2.5775,-0.87,0.5,36.44094533333333,-81.97,-81.89
1732085195970854628,1732085195970476150,9,2.5775,-0.87,0.5,36.54725966666666,-81.55,-81.4
1732085196071437207,1732085196070888757,9,2.5775,-0.87,0.5,36.672336,-81.65,-81.81
1732085196170779688,1732085196170471191,9,2.5775,-0.87,0.5,36.803666,-82.39,-81.81
1732085196270896716,1732085196270481109,9,2.5775,-0.87,0.5,36.90372833333333,-81.99,-81.76
1732085196870957091,1732085196870573759,9,2.5775,-0.87,0.5,37.57288466666666,-84.12,-83.25
1732085196971016565,1732085196970472097,9,2.5775,-0.87,0.5,37.71046933333333,-82.35,-81.79
1732085197072979464,1732085197072695970,9,2.5775,-0.87,0.5,37.841799,-83.61,-83.23
1732085197173820957,1732085197173704147,9,2.5775,-0.87,0.5,37.935606,-81.94,-81.71
1732085197273638716,1732085197273410320,9,2.5775,-0.87,0.5,38.035667,-81.91,-81.6
1732085197372972604,1732085197372731447,9,2.5775,-0.87,0.5,38.12947433333334,-81.92,-82.32
1732085197472275548,1732085197472155094,9,2.5775,-0.87,0.5,38.24204366666667,-82.48,-82.37
1732085197571784396,1732085197571583271,9,2.5775,-0.87,0.5,38.35461133333333,-81.8,-81.49
1732085197671856297,1732085197671599388,9,2.5775,-0.87,0.5,38.49219466666667,-84.03,-83.27
1732085197771864630,1732085197771571636,9,2.5775,-0.87,0.5,38.623524333333336,-81.21,-81.31
1732085197872452343,1732085197872191667,9,2.5775,-0.87,0.5,38.73609366666667,-82.39,-82.16
1732085198002219528,1732085198001934051,9,2.5775,-0.87,0.5,38.829901,-81.89,-81.89
1732085198071794688,1732085198071502447,9,2.5775,-0.87,0.5,38.93621533333333,-81.87,-81.58
1732085198170941325,1732085198170558214,9,2.5775,-0.87,0.5,39.055038,-82.55,-82.27
1732085198272009855,1732085198271814107,9,2.5775,-0.87,0.5,39.180114333333336,-82.08,-82.15
1732085198372665802,1732085198371768474,9,2.5775,-0.87,0.5,39.29268366666667,-82.17,-82.16
1732085198471976637,1732085198471838474,9,2.5775,-0.87,0.5,39.42401366666667,-81.82,-81.87
1732085198571889251,1732085198571793556,9,2.5775,-0.87,0.5,39.542836333333334,-82.37,-81.95
1732085198671725422,1732085198671446084,9,2.5775,-0.87,0.5,39.655404,-82.46,-82.28
1732085198771020710,1732085198770455837,9,2.5775,-0.87,0.5,39.749210999999995,-82.94,-82.48
1732085198870916991,1732085198870442867,9,2.5775,-0.87,0.5,39.85552533333333,-81.91,-81.76
1732085198970942618,1732085198970495462,9,2.5775,-0.87,0.5,40.11818533333333,-81.55,-81.66
1732085199070874209,1732085199070481061,9,2.5775,-0.87,0.5,40.230753,-81.34,-81.87
1732085199170775808,1732085199170464754,9,2.5775,-0.87,0.5,40.318305333333335,-82.11,-82.61
1732085199270822907,1732085199270527124,9,2.5775,-0.87,0.5,40.437128,-82.03,-81.87
1732085199371183603,1732085199370448827,9,2.5775,-0.87,0.5,40.56845933333333,-82.12,-82.08
1732085199470814235,1732085199470452547,9,2.5775,-0.87,0.5,40.69353566666666,-82.05,-81.7
1732085199570769480,1732085199570462465,9,2.5775,-0.87,0.5,40.793596666666666,-82.25,-82.1
1732085199671100402,1732085199670575380,9,2.5775,-0.87,0.5,40.89365733333333,-81.69,-81.62
1732085199770859212,1732085199770471572,9,2.5775,-0.87,0.5,41.012480000000004,-83.03,-82.42
1732085199870937989,1732085199870453357,9,2.5775,-0.87,0.5,41.15006466666667,-82.13,-83.18
1732085199971044359,1732085199970454692,9,2.5775,-0.87,0.5,41.287648,-83.11,-84.06
1732085200070777334,1732085200070447206,9,2.5775,-0.87,0.5,41.38770866666667,-82.39,-82.67
1732085200170884971,1732085200170512437,9,2.5775,-0.87,0.5,41.48776933333334,-82.29,-81.81
1732085200270826022,1732085200270467519,9,2.5775,-0.87,0.5,41.59408366666667,-82.12,-83.76
1732085200370757867,1732085200370458126,9,2.5775,-0.87,0.5,41.706652999999996,-83.09,-83.32
1732085200470844178,1732085200470501422,9,2.5775,-0.87,0.5,41.82547466666667,-82.27,-82.69
1732085200570889834,1732085200570456504,9,2.5775,-0.87,0.5,41.92553566666666,-83.64,-83.44
1732085200670880175,1732085200670485019,9,2.5775,-0.87,0.5,42.05686533333333,-82.62,-82.55
1732085200771035327,1732085200770529508,9,2.5775,-0.87,0.5,42.169434333333335,-83.97,-83.54
1732085200870838687,1732085200870463371,9,2.5775,-0.87,0.5,42.288256999999994,-82.47,-82.07
1732085200970854738,1732085200970476865,9,2.5775,-0.87,0.5,42.39457133333334,-82.47,-81.93
1732085201070848595,1732085201070471525,9,2.5775,-0.87,0.5,42.50088566666667,-82.44,-82.04
1732085201170807500,1732085201170461654,9,2.5775,-0.87,0.5,42.6072,-82.27,-82.01
1732085201271281169,1732085201270473003,9,2.5775,-0.87,0.5,42.732276333333324,-87.44,-89.35
1732085201370779704,1732085201370476961,9,2.5775,-0.87,0.5,42.86360633333334,-82.42,-83.3
1732085201470785009,1732085201470483303,9,2.5775,-0.87,0.5,42.994937333333326,-82.63,-82.29
1732085201570819819,1732085201570461750,9,2.5775,-0.87,0.5,43.11375999999999,-81.79,-81.46
1732085201670871954,1732085201670485496,9,2.5775,-0.87,0.5,43.22007566666667,-82.42,-83.99
1732085201770900833,1732085201770497798,9,2.5775,-0.87,0.5,43.32639,-82.45,-83.89
1732085201870834787,1732085201870469093,9,2.5775,-0.87,0.5,43.41394366666666,-82.14,-82.42
1732085201970934714,1732085201970530509,9,2.5775,-0.87,0.5,43.532765000000005,-82.36,-81.96
1732085202072807327,1732085202072648763,9,2.5775,-0.87,0.5,43.639079333333335,-82.97,-82.43
1732085202172646522,1732085202172434091,9,2.5775,-0.87,0.5,43.76415433333333,-82.52,-82.83
1732085202273466816,1732085202273221015,9,2.5775,-0.87,0.5,43.86421633333333,-82.12,-81.68
1732085202371919291,1732085202371597290,9,2.5775,-0.87,0.5,44.00805466666667,-82.74,-82.34
1732085202472641807,1732085202472366094,9,2.5775,-0.87,0.5,44.12687766666667,-82.82,-83.2
1732085202670838041,1732085202670475244,9,2.5775,-0.87,0.5,44.28322166666667,-82.84,-84.04
1732085202772397542,1732085202772095680,9,2.5775,-0.87,0.5,44.420805,-83.45,-82.95
1732085202870708201,1732085202870477199,9,2.5775,-0.87,0.5,44.57089666666667,-83.41,-83.51
1732085202970838875,1732085202970469474,9,2.5775,-0.87,0.5,44.68971966666667,-82.65,-82.33
1732085203070975884,1732085203070459604,9,2.5775,-0.87,0.5,44.78978066666667,-82.58,-82.07
1732085203173666034,1732085203173544645,9,2.5775,-0.87,0.5,44.90234866666666,-82.78,-82.54
1732085203274071623,1732085203273855447,9,2.5775,-0.87,0.5,45.008664,-82.82,-82.94
1732085203372076258,1732085203371971845,9,2.5775,-0.87,0.5,45.121233,-83.26,-83.43
1732085203471535412,1732085203471299648,9,2.5775,-0.87,0.5,45.265071,-83.38,-82.84
1732085203571651460,1732085203571492671,9,2.5775,-0.87,0.5,45.396401000000004,-82.82,-82.28
1732085203673316541,1732085203673089265,9,2.5775,-0.87,0.5,45.508969,-83.57,-83.61
1732085203773592784,1732085203773308277,9,2.5775,-0.87,0.5,45.596522666666665,-81.87,-82.44
1732085203874236118,1732085203874044418,9,2.5775,-0.87,0.5,45.702836999999995,-83.63,-83.42
1732085203973520264,1732085203973251342,9,2.5775,-0.87,0.5,45.82165966666667,-83.27,-83.04
1732085204074138770,1732085204073861122,9,2.5775,-0.87,0.5,45.946734666666664,-82.25,-83.59
1732085204173878539,1732085204173677682,9,2.5775,-0.87,0.5,46.053048999999994,-82.85,-82.7
1732085204274048136,1732085204273849487,9,2.5775,-0.87,0.5,46.178125333333334,-82.27,-81.77
1732085204373979231,1732085204373803853,9,2.5775,-0.87,0.5,46.27818766666667,-82.29,-81.99
1732085204473766399,1732085204473362445,9,2.5775,-0.87,0.5,46.384503333333335,-84.15,-84.43
1732085204573435522,1732085204573311090,9,2.5775,-0.87,0.5,46.484564,-82.87,-82.92
1732085204672818651,1732085204672570705,9,2.5775,-0.87,0.5,46.61589366666667,-84.06,-83.25
1732085204773101150,1732085204772867918,9,2.5775,-0.87,0.5,46.740970000000004,-81.97,-81.58
1732085204873043886,1732085204872826099,9,2.5775,-0.87,0.5,46.847284333333334,-84.13,-83.72
1732085204974098256,1732085204973884820,9,2.5775,-0.87,0.5,46.90982266666666,-83.65,-83.27
1732085205072066402,1732085205071862459,9,2.5775,-0.87,0.5,46.984868000000006,-84.2,-84.79
1732085205172386059,1732085205172246694,9,2.5775,-0.87,0.5,47.03489933333333,-83.21,-82.79
1732085205272780152,1732085205272534608,9,2.5775,-0.87,0.5,47.08492900000001,-83.17,-82.89
1732085205372871890,1732085205372765541,9,2.5775,-0.87,0.5,47.097435999999995,-83.31,-83.08
1732085205472698252,1732085205472615480,9,2.5775,-0.87,0.5,47.13495833333334,-84.85,-84.7
1732085205572918548,1732085205572667360,9,2.5775,-0.87,0.5,47.14746666666667,-84.32,-84.86
1732085205671823511,1732085205671548604,9,2.5775,-0.87,0.5,47.19749766666666,-85.17,-87.04
1732085205772120918,1732085205771923542,9,2.5775,-0.87,0.5,47.210005,-83.77,-83.27
1732085205872010797,1732085205871666669,9,2.5775,-0.87,0.5,47.22876566666667,-83.19,-84.15
1732085205971989360,1732085205971632719,9,2.5775,-0.87,0.5,47.222511999999995,-84.45,-84.15
1732085206072414996,1732085206072034120,9,2.5775,-0.87,0.5,47.20375133333334,-83.33,-83.71
1732085206172521702,1732085206172175884,9,2.5775,-0.87,0.5,47.18499066666667,-81.44,-81.61
1732085206272554738,1732085206272283077,9,2.5775,-0.87,0.5,47.166228666666676,-81.09,-82.45
1732085206370920707,1732085206370455741,9,2.5775,-0.87,0.5,47.166228666666676,-82.18,-83.23
1732085206470878285,1732085206470455408,9,2.5775,-0.87,0.5,47.15372033333333,-81.95,-82.05
1732085206570950035,1732085206570469856,9,2.5775,-0.87,0.5,47.128705000000004,-81.8,-81.61
1732085206670844181,1732085206670459508,9,2.5775,-0.87,0.5,47.097435999999995,-81.0,-81.36
1732085206770595193,1732085206770400285,9,2.5775,-0.87,0.5,47.091182333333336,-82.0,-82.25
1732085206870843113,1732085206870460748,9,2.5775,-0.87,0.5,47.10994433333334,-81.91,-83.42
1732085206971054663,1732085206970509767,9,2.5775,-0.87,0.5,47.14121333333333,-83.63,-84.55
1732085207072027734,1732085207071803569,9,2.5775,-0.87,0.5,47.153720666666665,-82.47,-83.41
1732085207172200393,1732085207172020196,9,2.5775,-0.87,0.5,47.14121233333333,-81.62,-81.37
1732085207272011496,1732085207271643400,9,2.5775,-0.87,0.5,47.13495866666667,-81.68,-81.64
1732085207371791511,1732085207371667861,9,2.5775,-0.87,0.5,47.10994300000001,-81.28,-81.77
1732085207470989946,1732085207470478296,9,2.5775,-0.87,0.5,47.103689333333335,-81.53,-82.14
1732085207570820876,1732085207570459365,9,2.5775,-0.87,0.5,47.116197666666665,-81.21,-81.17
1732085207670811851,1732085207670447349,9,2.5775,-0.87,0.5,47.116197666666665,-81.38,-81.42
1732085207772476760,1732085207772381067,9,2.5775,-0.87,0.5,47.116197666666665,-82.01,-82.15
1732085207871789003,1732085207871471405,9,2.5775,-0.87,0.5,47.116197666666665,-81.36,-82.04
1732085208002094376,1732085208001796007,9,2.5775,-0.87,0.5,47.14121333333333,-81.82,-83.05
1732085208071977394,1732085208071690082,9,2.5775,-0.87,0.5,47.166228666666676,-81.17,-80.97
1732085208171910909,1732085208171623468,9,2.5775,-0.87,0.5,47.17873566666666,-81.32,-81.35
1732085208270677037,1732085208270458459,9,2.5775,-0.87,0.5,47.172482,-81.54,-82.28
1732085208370736701,1732085208370507955,9,2.5775,-0.87,0.5,47.17873566666666,-81.32,-81.03
1732085208471786316,1732085208471483230,9,2.5775,-0.87,0.5,47.19749766666666,-82.02,-81.66
1732085208570749033,1732085208570502042,9,2.5775,-0.87,0.5,47.22876666666667,-82.51,-82.12
1732085208670758313,1732085208670464038,9,2.5775,-0.87,0.5,47.22876666666667,-82.15,-82.06
1732085208772251388,1732085208772164106,9,2.5775,-0.87,0.5,47.22876666666667,-81.15,-80.9
1732085209170755916,1732085209170466423,9,2.5775,-0.87,0.5,47.241274,-81.63,-82.24
1732085209270811825,1732085209270469665,9,2.5775,-0.87,0.5,47.24752766666666,-81.49,-81.31
1732085209372893605,1732085209372610330,9,2.5775,-0.87,0.5,47.24752766666666,-81.09,-81.48
1732085209472976716,1732085209472824811,9,2.5775,-0.87,0.5,47.26003599999999,-81.29,-81.52
1732085209571723024,1732085209571472167,9,2.5775,-0.87,0.5,47.272543000000006,-81.86,-82.93
1732085209670691902,1732085209670477151,9,2.5775,-0.87,0.5,47.278796666666665,-81.24,-81.47
1732085209770680621,1732085209770465373,9,2.5775,-0.87,0.5,47.30381233333333,-81.69,-83.48
1732085209870800094,1732085209870461463,9,2.5775,-0.87,0.5,47.291305333333334,-81.15,-81.2
1732085209970732933,1732085209970487833,9,2.5775,-0.87,0.5,47.303812333333326,-82.07,-81.97
1732085210070857570,1732085210070481300,9,2.5775,-0.87,0.5,47.291303666666664,-81.5,-82.54
1732085210170807728,1732085210170453786,9,2.5775,-0.87,0.5,47.297557000000005,-81.37,-81.44
1732085210270836613,1732085210270453929,9,2.5775,-0.87,0.5,47.31006566666667,-82.49,-84.28
1732085210370905892,1732085210370539426,9,2.5775,-0.87,0.5,47.31631933333333,-82.35,-81.93
1732085210470800736,1732085210470455884,9,2.5775,-0.87,0.5,47.310066,-81.5,-81.42
1732085210570893605,1732085210570468902,9,2.5775,-0.87,0.5,47.29755733333334,-82.62,-82.61
1732085210670866463,1732085210670459747,9,2.5775,-0.87,0.5,47.291303666666664,-81.56,-81.53
1732085210771016220,1732085210770484447,9,2.5775,-0.87,0.5,47.291303666666664,-82.02,-82.32
1732085210870907841,1732085210870466470,9,2.5775,-0.87,0.5,47.303812333333326,-82.27,-81.91
1732085210970768992,1732085210970453500,9,2.5775,-0.87,0.5,47.303812333333326,-81.63,-81.41
1732085211071075282,1732085211070459842,9,2.5775,-0.87,0.5,47.303812333333326,-82.4,-82.23
1732085211170970503,1732085211170481681,9,2.5775,-0.87,0.5,47.29755733333334,-82.97,-83.42
1732085211270819866,1732085211270449876,9,2.5775,-0.87,0.5,47.303810999999996,-82.93,-83.31
1732085211371060185,1732085211370470285,9,2.5775,-0.87,0.5,47.31006433333334,-81.89,-82.64
1732085211470960717,1732085211470473527,9,2.5775,-0.87,0.5,47.322572666666666,-82.69,-84.63
1732085211570971551,1732085211570476770,9,2.5775,-0.87,0.5,47.322572666666666,-81.6,-81.71
1732085211670886604,1732085211670524597,9,2.5775,-0.87,0.5,47.335081333333335,-83.16,-83.08
1732085211770746782,1732085211770467758,9,2.5775,-0.87,0.5,47.322573,-81.4,-81.78
1732085211870978908,1732085211870471954,9,2.5775,-0.87,0.5,47.335081333333335,-81.67,-81.87
1732085211974084854,1732085211973760604,9,2.5775,-0.87,0.5,47.347588333333334,-81.38,-83.02
1732085212073420040,1732085212073147058,9,2.5775,-0.87,0.5,47.35384333333334,-81.89,-82.91
1732085212173724809,1732085212173503398,9,2.5775,-0.87,0.5,47.36635066666667,-81.02,-82.33
1732085212273568925,1732085212273420095,9,2.5775,-0.87,0.5,47.35384366666667,-81.33,-81.9
1732085212373853169,1732085212373589515,9,2.5775,-0.87,0.5,47.36635066666667,-81.01,-81.04
1732085212472759849,1732085212472498416,9,2.5775,-0.87,0.5,47.35384333333334,-81.54,-81.58
1732085212573812101,1732085212573502302,9,2.5775,-0.87,0.5,47.36635033333334,-81.02,-81.01
1732085212673429499,1732085212673229217,9,2.5775,-0.87,0.5,47.378857333333336,-81.77,-81.44
1732085212773820158,1732085212773674964,9,2.5775,-0.87,0.5,47.403873000000004,-81.42,-81.19
1732085212873883280,1732085212873569250,9,2.5775,-0.87,0.5,47.42263500000001,-81.44,-81.49
1732085213004346536,1732085213004187822,9,2.5775,-0.87,0.5,47.42263500000001,-81.19,-81.6
1732085213072725596,1732085213072530269,9,2.5775,-0.87,0.5,47.435142000000006,-81.37,-81.61
1732085213173164347,1732085213172937393,9,2.5775,-0.87,0.5,47.460156000000005,-82.13,-81.81
1732085213273883783,1732085213273625373,9,2.5775,-0.87,0.5,47.485171666666666,-81.51,-83.25
1732085213371926175,1732085213371618747,9,2.5775,-0.87,0.5,47.497678666666665,-81.85,-81.81
1732085213472499294,1732085213472295284,9,2.5775,-0.87,0.5,47.510187333333334,-81.05,-81.01
1732085213572184008,1732085213571929454,9,2.5775,-0.87,0.5,47.522695666666664,-81.18,-81.21
1732085213672972211,1732085213672713756,9,2.5775,-0.87,0.5,47.54771133333333,-80.94,-80.96
1732085213773070849,1732085213772817850,9,2.5775,-0.87,0.5,47.553964666666666,-81.43,-81.4
1732085213872947382,1732085213872659683,9,2.5775,-0.87,0.5,47.57272533333333,-80.82,-81.1
1732085213972203032,1732085213971913099,9,2.5775,-0.87,0.5,47.56021833333333,-80.76,-81.15
1732085214071947621,1732085214071719884,9,2.5775,-0.87,0.5,47.58523399999999,-80.84,-81.24
1732085214172268677,1732085214171791553,9,2.5775,-0.87,0.5,47.597742333333336,-81.13,-81.3
1732085214272238176,1732085214271956443,9,2.5775,-0.87,0.5,47.635265000000004,-82.18,-82.1
1732085214370648994,1732085214370460271,9,2.5775,-0.87,0.5,47.635265000000004,-80.83,-81.43
1732085214470646306,1732085214470447540,9,2.5775,-0.87,0.5,47.65402566666666,-80.93,-81.04
1732085214570919709,1732085214570466995,9,2.5775,-0.87,0.5,47.660279,-80.78,-80.97
1732085214673184595,1732085214672859668,9,2.5775,-0.87,0.5,47.691548000000004,-82.32,-83.79
1732085215273133221,1732085215272850036,9,2.5775,-0.87,0.5,47.77910033333333,-81.8,-81.78
1732085215372692867,1732085215372268199,9,2.5775,-0.87,0.5,47.797862333333335,-81.08,-81.1
1732085215471858561,1732085215471619129,9,2.5775,-0.87,0.5,47.822878,-81.74,-81.64
1732085215570775381,1732085215570389270,9,2.5775,-0.87,0.5,47.83538633333333,-82.19,-82.45
1732085215670757881,1732085215670430183,9,2.5775,-0.87,0.5,47.854147000000005,-81.54,-83.19
1732085215771093006,1732085215770478010,9,2.5775,-0.87,0.5,47.916685333333334,-81.83,-81.83
1732085215870890147,1732085215870456218,9,2.5775,-0.87,0.5,47.935447333333336,-82.47,-82.94
1732085215971007133,1732085215970444440,9,2.5775,-0.87,0.5,47.922938666666674,-82.67,-83.87
1732085216070798633,1732085216070461988,9,2.5775,-0.87,0.5,47.897923,-82.17,-82.49
1732085216170788545,1732085216170459032,9,2.5775,-0.87,0.5,47.89166966666667,-82.47,-82.06
1732085216270787114,1732085216270452022,9,2.5775,-0.87,0.5,47.910431666666675,-84.14,-85.02
1732085216370873466,1732085216370464086,9,2.5775,-0.87,0.5,47.916685333333334,-84.18,-86.41
1732085216470874002,1732085216470457553,9,2.5775,-0.87,0.5,47.90417666666667,-84.98,-84.9
1732085216570974533,1732085216570480108,9,2.5775,-0.87,0.5,47.879161333333336,-85.18,-84.93
1732085216670915307,1732085216670493125,9,2.5775,-0.87,0.5,47.87290766666667,-85.02,-87.37
1732085216770913260,1732085216770457267,9,2.5775,-0.87,0.5,47.847892333333334,-85.43,-85.08
1732085216870738000,1732085216870450735,9,2.5775,-0.87,0.5,47.82287666666667,-85.54,-86.54
1732085216970806388,1732085216970438718,9,2.5775,-0.87,0.5,47.77910066666667,-86.72,-87.69
1732085217070861078,1732085217070455074,9,2.5775,-0.87,0.5,47.75408633333333,-87.73,-90.39
1732085217170762671,1732085217170432567,9,2.5775,-0.87,0.5,47.729072,-88.62,-91.1
1732085217270857820,1732085217270462512,9,2.5775,-0.87,0.5,47.72281833333333,-87.68,-87.03
1732085217370937061,1732085217370494365,9,2.5775,-0.87,0.5,47.71030999999999,-88.27,-87.96
1732085217470949087,1732085217470514535,9,2.5775,-0.87,0.5,47.69154833333334,-87.99,-88.93
1732085217572089309,1732085217571680307,9,2.5775,-0.87,0.5,47.65402566666666,-88.86,-88.57
1732085217672275046,1732085217671993970,9,2.5775,-0.87,0.5,47.62901133333333,-89.3,-89.48
1732085217771840480,1732085217771627187,9,2.5775,-0.87,0.5,47.616504,-89.83,-90.74
1732085217871655106,1732085217871475219,9,2.5775,-0.87,0.5,47.62901133333333,-89.28,-89.32
1732085218002313071,1732085218002076148,9,2.5775,-0.87,0.5,47.635265000000004,-90.27,-90.37
1732085218071755858,1732085218071561574,9,2.5775,-0.87,0.5,47.62275666666667,-89.03,-89.82
1732085218172004171,1732085218171761989,9,2.5775,-0.87,0.5,47.610249333333336,-91.22,-93.83
1732085218271816021,1732085218271628618,9,2.5775,-0.87,0.5,47.59148733333333,-89.31,-90.63
1732085218371794706,1732085218371607780,9,2.5775,-0.87,0.5,47.597741000000006,-89.18,-90.0
1732085218471810568,1732085218471556186,9,2.5775,-0.87,0.5,47.610248333333324,-90.29,-91.89
1732085218571904896,1732085218571645736,9,2.5775,-0.87,0.5,47.647771,-88.88,-88.6
1732085218671890104,1732085218671611547,9,2.5775,-0.87,0.5,47.660279333333335,-90.72,-90.93
1732085218771928471,1732085218771581172,9,2.5775,-0.87,0.5,47.660279333333335,-89.31,-89.34
1732085218871828641,1732085218871566295,9,2.5775,-0.87,0.5,47.64151866666666,-90.42,-90.31
1732085218973529414,1732085218973268032,9,2.5775,-0.87,0.5,47.64151866666666,-88.58,-89.35
1732085219073223398,1732085219073095321,9,2.5775,-0.87,0.5,47.62901133333333,-88.51,-90.09
1732085219173808130,1732085219173675537,9,2.5775,-0.87,0.5,47.616503,-88.53,-88.71
1732085219273254703,1732085219273136377,9,2.5775,-0.87,0.5,47.597741000000006,-89.88,-90.65
1732085219373078930,1732085219372941255,9,2.5775,-0.87,0.5,47.578979,-88.3,-89.09
1732085219473460752,1732085219473223924,9,2.5775,-0.87,0.5,47.566471666666665,-88.62,-88.35
1732085219572151117,1732085219571944713,9,2.5775,-0.87,0.5,47.53520266666666,-88.27,-89.16
1732085219672069480,1732085219671766519,9,2.5775,-0.87,0.5,47.49768,-88.62,-88.93
1732085219772759624,1732085219772554636,9,2.5775,-0.87,0.5,47.466411,-88.54,-89.24
1732085219871857260,1732085219871703624,9,2.5775,-0.87,0.5,47.447650333333335,-88.24,-89.26
1732085219971912470,1732085219971620082,9,2.5775,-0.87,0.5,47.41012800000001,-88.98,-89.15
1732085220071914570,1732085220071729660,9,2.5775,-0.87,0.5,47.37260533333333,-88.09,-87.46
1732085220172700952,1732085220172430753,9,2.5775,-0.87,0.5,47.303812333333326,-89.35,-90.92
1732085220272793180,1732085220272567272,9,2.5775,-0.87,0.5,47.278796666666665,-88.1,-88.01
1732085220371826228,1732085220371557712,9,2.5775,-0.87,0.5,47.21625866666667,-89.88,-90.65
1732085220472010236,1732085220471740484,9,2.5775,-0.87,0.5,47.178735999999994,-89.02,-89.05
1732085220570818175,1732085220570493459,9,2.5775,-0.87,0.5,47.128705000000004,-90.36,-89.71
1732085220670980092,1732085220670495033,9,2.5775,-0.87,0.5,47.07242033333333,-88.97,-90.9
1732085221271835618,1732085221271569013,9,2.5775,-0.87,0.5,46.68468566666667,-88.29,-88.04
1732085221371731758,1732085221371540546,9,2.5775,-0.87,0.5,46.609638999999994,-88.11,-88.94
1732085221470721041,1732085221470475435,9,2.5775,-0.87,0.5,46.53459266666667,-90.23,-90.9
1732085221571179799,1732085221570565700,9,2.5775,-0.87,0.5,46.45954733333334,-88.38,-89.06
1732085221672807952,1732085221672564029,9,2.5775,-0.87,0.5,46.384502,-88.52,-88.8
1732085221773048717,1732085221772848844,9,2.5775,-0.87,0.5,46.30945666666667,-88.35,-87.87
1732085221873179370,1732085221872770309,9,2.5775,-0.87,0.5,46.21564933333334,-89.05,-89.35
1732085221972674856,1732085221972530603,9,2.5775,-0.87,0.5,46.140602666666666,-88.27,-88.37
1732085222072972188,1732085222072720050,9,2.5775,-0.87,0.5,46.06555733333334,-90.78,-90.93
1732085222172376233,1732085222172012805,9,2.5775,-0.87,0.5,45.99051233333333,-88.1,-88.01
1732085222271927874,1732085222271670103,9,2.5775,-0.87,0.5,45.90296,-93.5,-92.93
1732085222371932448,1732085222371664047,9,2.5775,-0.87,0.5,45.81540633333333,-88.76,-90.11
1732085222472129767,1732085222471832990,9,2.5775,-0.87,0.5,45.721599,-88.46,-88.94
1732085222572003958,1732085222571733951,9,2.5775,-0.87,0.5,45.627792,-88.7,-88.79
1732085222672225599,1732085222671961784,9,2.5775,-0.87,0.5,45.54023833333334,-88.59,-88.03
1732085222772581584,1732085222772267580,9,2.5775,-0.87,0.5,45.43392266666667,-90.17,-91.36
1732085222871836317,1732085222871552705,9,2.5775,-0.87,0.5,45.34011533333334,-88.85,-89.06
