%time,field.header.seq,field.header.stamp,field.header.frame_id,field.status.status,field.status.service,field.latitude,field.longitude,field.altitude,field.position_covariance0,field.position_covariance1,field.position_covariance2,field.position_covariance3,field.position_covariance4,field.position_covariance5,field.position_covariance6,field.position_covariance7,field.position_covariance8,field.position_covariance_type
1732085150789247024,68851,1732085150749972209,gps,2,0,37.5552293,127.0451329,49.835,0.00019600000000000002,0.0,0.0,0.0,0.00019600000000000002,0.0,0.0,0.0,0.0006250000000000001,2
1732085150914435846,68852,1732085150874972210,gps,2,0,37.5552292,127.0451329,49.847,0.000225,0.0,0.0,0.0,0.000225,0.0,0.0,0.0,0.000576,2
1732085151045120366,68853,1732085150999972211,gps,2,0,37.5552293,127.0451329,49.836,0.000225,0.0,0.0,0.0,0.000225,0.0,0.0,0.0,0.000576,2
1732085151167278894,68854,1732085151124972210,gps,2,0,37.5552293,127.04513299999999,49.861000000000004,0.000225,0.0,0.0,0.0,0.000225,0.0,0.0,0.0,0.000576,2
1732085151313002145,68855,1732085151249972211,gps,2,0,37.5552293,127.0451329,49.847,0.00019600000000000002,0.0,0.0,0.0,0.00019600000000000002,0.0,0.0,0.0,0.0006250000000000001,2
1732085151416944415,68856,1732085151374972211,gps,2,0,37.5552291,127.0451331,49.857,0.00019600000000000002,0.0,0.0,0.0,0.00019600000000000002,0.0,0.0,0.0,0.0006250000000000001,2
1732085151540278771,68857,1732085151499972211,gps,2,0,37.5552291,127.04513299999999,49.864000000000004,0.00019600000000000002,0.0,0.0,0.0,0.00019600000000000002,0.0,0.0,0.0,0.0006250000000000001,2
1732085151664816848,68858,1732085151624972212,gps,2,0,37.5552292,127.04513299999999,49.894,0.000225,0.0,0.0,0.0,0.000225,0.0,0.0,0.0,0.000676,2
1732085151789533295,68859,1732085151749972212,gps,2,0,37.5552291,127.04513299999999,49.915,0.000225,0.0,0.0,0.0,0.000225,0.0,0.0,0.0,0.0007289999999999999,2
1732085151914906637,68860,1732085151874972212,gps,2,0,37.5552291,127.0451332,49.911,0.000225,0.0,0.0,0.0,0.000225,0.0,0.0,0.0,0.0008410000000000001,2
1732085152044557592,68861,1732085151999972214,gps,2,0,37.5552291,127.04513299999999,49.909,0.000256,0.0,0.0,0.0,0.000256,0.0,0.0,0.0,0.0011560000000000001,2
1732085152163530909,68862,1732085152124972213,gps,2,0,37.5552291,127.0451329,49.910000000000004,0.000256,0.0,0.0,0.0,0.000256,0.0,0.0,0.0,0.0013689999999999998,2
1732085152291683586,68863,1732085152249972213,gps,2,0,37.5552293,127.04513279999999,49.861000000000004,0.00032399999999999996,0.0,0.0,0.0,0.00032399999999999996,0.0,0.0,0.0,0.0018489999999999997,2
1732085152416463662,68864,1732085152374972214,gps,2,0,37.5552293,127.0451329,49.847,0.00032399999999999996,0.0,0.0,0.0,0.00032399999999999996,0.0,0.0,0.0,0.002116,2
1732085152541954910,68865,1732085152499972214,gps,2,0,37.5552293,127.0451329,49.853,0.00032399999999999996,0.0,0.0,0.0,0.00032399999999999996,0.0,0.0,0.0,0.002116,2
1732085152665806222,68866,1732085152624972214,gps,2,0,37.5552294,127.04513279999999,49.84,0.000361,0.0,0.0,0.0,0.000361,0.0,0.0,0.0,0.002304,2
1732085152788236839,68867,1732085152749972215,gps,2,0,37.555229499999996,127.0451327,49.802,0.000361,0.0,0.0,0.0,0.000361,0.0,0.0,0.0,0.002209,2
1732085152913142204,68868,1732085152874972215,gps,2,0,37.5552297,127.0451325,49.774,0.00032399999999999996,0.0,0.0,0.0,0.00032399999999999996,0.0,0.0,0.0,0.0019359999999999998,2
1732085153044200681,68869,1732085152999972217,gps,2,0,37.5552298,127.0451325,49.732,0.000361,0.0,0.0,0.0,0.000361,0.0,0.0,0.0,0.002025,2
1732085153164617044,68870,1732085153124972216,gps,2,0,37.5552296,127.0451324,49.741,0.000361,0.0,0.0,0.0,0.000361,0.0,0.0,0.0,0.002116,2
1732085153313130359,68871,1732085153249972216,gps,2,0,37.5552297,127.04513259999999,49.74,0.0004,0.0,0.0,0.0,0.0004,0.0,0.0,0.0,0.002304,2
1732085153414608952,68872,1732085153374972217,gps,2,0,37.5552296,127.0451327,49.748,0.000361,0.0,0.0,0.0,0.000361,0.0,0.0,0.0,0.0018489999999999997,2
1732085153540114970,68873,1732085153499972217,gps,2,0,37.5552296,127.0451327,49.742000000000004,0.00032399999999999996,0.0,0.0,0.0,0.00032399999999999996,0.0,0.0,0.0,0.0016810000000000002,2
1732085153666068928,68874,1732085153624972217,gps,2,0,37.555229499999996,127.04513279999999,49.748,0.00032399999999999996,0.0,0.0,0.0,0.00032399999999999996,0.0,0.0,0.0,0.0016,2
1732085153789785198,68875,1732085153749972218,gps,2,0,37.5552296,127.0451327,49.746,0.00032399999999999996,0.0,0.0,0.0,0.00032399999999999996,0.0,0.0,0.0,0.001521,2
1732085153914184620,68876,1732085153874972218,gps,2,0,37.5552297,127.04513259999999,49.730000000000004,0.00032399999999999996,0.0,0.0,0.0,0.00032399999999999996,0.0,0.0,0.0,0.001444,2
1732085154043117297,68877,1732085153999972219,gps,2,0,37.5552297,127.0451325,49.730000000000004,0.00032399999999999996,0.0,0.0,0.0,0.00032399999999999996,0.0,0.0,0.0,0.001444,2
1732085154165247504,68878,1732085154124972219,gps,2,0,37.5552298,127.0451325,49.743,0.00028900000000000003,0.0,0.0,0.0,0.00028900000000000003,0.0,0.0,0.0,0.001444,2
1732085154292704333,68879,1732085154249972219,gps,2,0,37.5552297,127.04513259999999,49.743,0.00028900000000000003,0.0,0.0,0.0,0.00028900000000000003,0.0,0.0,0.0,0.001444,2
1732085154415807634,68880,1732085154374972219,gps,2,0,37.5552296,127.04513259999999,49.76,0.000256,0.0,0.0,0.0,0.000256,0.0,0.0,0.0,0.0011560000000000001,2
1732085154541845866,68881,1732085154499972220,gps,2,0,37.5552297,127.04513259999999,49.724000000000004,0.000225,0.0,0.0,0.0,0.000225,0.0,0.0,0.0,0.001024,2
1732085154665849396,68882,1732085154624972220,gps,2,0,37.5552296,127.0451325,49.74,0.000225,0.0,0.0,0.0,0.000225,0.0,0.0,0.0,0.0009609999999999999,2
1732085154790278531,68883,1732085154749972221,gps,2,0,37.5552297,127.04513259999999,49.742000000000004,0.000225,0.0,0.0,0.0,0.000225,0.0,0.0,0.0,0.0009609999999999999,2
1732085154911193407,68884,1732085154874972221,gps,2,0,37.5552296,127.04513259999999,49.756,0.000225,0.0,0.0,0.0,0.000225,0.0,0.0,0.0,0.0009609999999999999,2
1732085155045938775,68885,1732085154999972222,gps,2,0,37.5552297,127.04513259999999,49.741,0.000225,0.0,0.0,0.0,0.000225,0.0,0.0,0.0,0.001024,2
1732085155167431677,68886,1732085155124972222,gps,2,0,37.5552297,127.0451325,49.738,0.000256,0.0,0.0,0.0,0.000256,0.0,0.0,0.0,0.0010890000000000001,2
1732085155309158214,68887,1732085155249972222,gps,2,0,37.5552297,127.0451325,49.734,0.000256,0.0,0.0,0.0,0.000256,0.0,0.0,0.0,0.0010890000000000001,2
1732085155423406196,68888,1732085155374972222,gps,2,0,37.5552294,127.04513279999999,49.827,0.00019600000000000002,0.0,0.0,0.0,0.00019600000000000002,0.0,0.0,0.0,0.000529,2
1732085155543899156,68889,1732085155499972222,gps,2,0,37.5552293,127.0451329,49.849000000000004,0.00019600000000000002,0.0,0.0,0.0,0.00019600000000000002,0.0,0.0,0.0,0.00044100000000000004,2
1732085155668654179,68890,1732085155624972223,gps,2,0,37.5552293,127.0451329,49.865,0.00019600000000000002,0.0,0.0,0.0,0.00019600000000000002,0.0,0.0,0.0,0.0004,2
1732085155788340078,68891,1732085155749972223,gps,2,0,37.5552292,127.0451329,49.865,0.00019600000000000002,0.0,0.0,0.0,0.00019600000000000002,0.0,0.0,0.0,0.0004,2
1732085155917419081,68892,1732085155874972223,gps,2,0,37.5552293,127.0451329,49.862,0.00019600000000000002,0.0,0.0,0.0,0.00019600000000000002,0.0,0.0,0.0,0.0004,2
1732085156047824761,68893,1732085155999972225,gps,2,0,37.5552293,127.04513299999999,49.855000000000004,0.00019600000000000002,0.0,0.0,0.0,0.00019600000000000002,0.0,0.0,0.0,0.0004,2
1732085156167820539,68894,1732085156124972224,gps,2,0,37.5552292,127.0451329,49.875,0.00019600000000000002,0.0,0.0,0.0,0.00019600000000000002,0.0,0.0,0.0,0.0004,2
1732085156301214575,68895,1732085156249972224,gps,2,0,37.5552292,127.0451329,49.882,0.00019600000000000002,0.0,0.0,0.0,0.00019600000000000002,0.0,0.0,0.0,0.00044100000000000004,2
1732085156419907021,68896,1732085156374972225,gps,2,0,37.5552292,127.04513299999999,49.888,0.00019600000000000002,0.0,0.0,0.0,0.00019600000000000002,0.0,0.0,0.0,0.0004,2
1732085156544633241,68897,1732085156499972225,gps,2,0,37.5552292,127.0451329,49.876,0.00019600000000000002,0.0,0.0,0.0,0.00019600000000000002,0.0,0.0,0.0,0.0004,2
1732085156666237142,68898,1732085156624972225,gps,2,0,37.5552292,127.0451329,49.873,0.00019600000000000002,0.0,0.0,0.0,0.00019600000000000002,0.0,0.0,0.0,0.0004,2
1732085156792250966,68899,1732085156749972226,gps,2,0,37.5552292,127.0451329,49.86,0.00019600000000000002,0.0,0.0,0.0,0.00019600000000000002,0.0,0.0,0.0,0.000361,2
1732085156917845564,68900,1732085156874972226,gps,2,0,37.5552292,127.0451329,49.859,0.00019600000000000002,0.0,0.0,0.0,0.00019600000000000002,0.0,0.0,0.0,0.000361,2
1732085157047314068,68901,1732085156999972227,gps,2,0,37.5552292,127.0451329,49.871,0.00019600000000000002,0.0,0.0,0.0,0.00019600000000000002,0.0,0.0,0.0,0.000361,2
1732085157167992546,68902,1732085157124972227,gps,2,0,37.5552293,127.04513279999999,49.868,0.00019600000000000002,0.0,0.0,0.0,0.00019600000000000002,0.0,0.0,0.0,0.000361,2
1732085157304951541,68903,1732085157249972227,gps,2,0,37.5552293,127.04513279999999,49.859,0.00019600000000000002,0.0,0.0,0.0,0.00019600000000000002,0.0,0.0,0.0,0.000361,2
1732085157418238788,68904,1732085157374972227,gps,2,0,37.5552293,127.0451329,49.848,0.00019600000000000002,0.0,0.0,0.0,0.00019600000000000002,0.0,0.0,0.0,0.00028900000000000003,2
1732085157542753461,68905,1732085157499972228,gps,2,0,37.5552293,127.0451329,49.85,0.00019600000000000002,0.0,0.0,0.0,0.00019600000000000002,0.0,0.0,0.0,0.00028900000000000003,2
1732085157667238520,68906,1732085157624972228,gps,2,0,37.5552293,127.0451329,49.848,0.00019600000000000002,0.0,0.0,0.0,0.00019600000000000002,0.0,0.0,0.0,0.00028900000000000003,2
1732085157793324434,68907,1732085157749972228,gps,2,0,37.5552293,127.0451329,49.853,0.00019600000000000002,0.0,0.0,0.0,0.00019600000000000002,0.0,0.0,0.0,0.00028900000000000003,2
1732085157918149732,68908,1732085157874972229,gps,2,0,37.5552292,127.0451329,49.854,0.00019600000000000002,0.0,0.0,0.0,0.00019600000000000002,0.0,0.0,0.0,0.00028900000000000003,2
1732085158049746902,68909,1732085157999972230,gps,2,0,37.5552292,127.0451329,49.868,0.00019600000000000002,0.0,0.0,0.0,0.00019600000000000002,0.0,0.0,0.0,0.00028900000000000003,2
1732085158168434077,68910,1732085158124972229,gps,2,0,37.5552292,127.0451331,49.870000000000005,0.00019600000000000002,0.0,0.0,0.0,0.00019600000000000002,0.0,0.0,0.0,0.00028900000000000003,2
1732085158299408259,68911,1732085158249972230,gps,2,0,37.5552291,127.04513329999999,49.864000000000004,0.00019600000000000002,0.0,0.0,0.0,0.00019600000000000002,0.0,0.0,0.0,0.00028900000000000003,2
1732085158417421175,68912,1732085158374972230,gps,2,0,37.5552291,127.04513349999999,49.867000000000004,0.00019600000000000002,0.0,0.0,0.0,0.00019600000000000002,0.0,0.0,0.0,0.00028900000000000003,2
1732085158540856540,68913,1732085158499972230,gps,2,0,37.555228899999996,127.04513379999999,49.866,0.00019600000000000002,0.0,0.0,0.0,0.00019600000000000002,0.0,0.0,0.0,0.00028900000000000003,2
1732085158667855735,68914,1732085158624972231,gps,2,0,37.555228799999995,127.0451344,49.861000000000004,0.00019600000000000002,0.0,0.0,0.0,0.00019600000000000002,0.0,0.0,0.0,0.00028900000000000003,2
1732085158792852065,68915,1732085158749972231,gps,2,0,37.5552286,127.0451349,49.849000000000004,0.00019600000000000002,0.0,0.0,0.0,0.00019600000000000002,0.0,0.0,0.0,0.00032399999999999996,2
1732085158917207812,68916,1732085158874972232,gps,2,0,37.5552285,127.0451353,49.861000000000004,0.00019600000000000002,0.0,0.0,0.0,0.00019600000000000002,0.0,0.0,0.0,0.00028900000000000003,2
1732085159046337649,68917,1732085158999972233,gps,2,0,37.555228299999996,127.045136,49.861000000000004,0.00019600000000000002,0.0,0.0,0.0,0.00019600000000000002,0.0,0.0,0.0,0.00032399999999999996,2
1732085159168596519,68918,1732085159124972232,gps,2,0,37.5552281,127.0451367,49.861000000000004,0.00019600000000000002,0.0,0.0,0.0,0.00019600000000000002,0.0,0.0,0.0,0.00032399999999999996,2
1732085159302999427,68919,1732085159249972233,gps,2,0,37.5552279,127.04513739999999,49.866,0.00019600000000000002,0.0,0.0,0.0,0.00019600000000000002,0.0,0.0,0.0,0.00032399999999999996,2
1732085159413201522,68920,1732085159374972233,gps,2,0,37.555227699999996,127.0451382,49.868,0.00019600000000000002,0.0,0.0,0.0,0.00019600000000000002,0.0,0.0,0.0,0.00032399999999999996,2
1732085159541870440,68921,1732085159499972233,gps,2,0,37.5552275,127.04513899999999,49.863,0.00019600000000000002,0.0,0.0,0.0,0.00019600000000000002,0.0,0.0,0.0,0.00032399999999999996,2
1732085159665293532,68922,1732085159624972234,gps,2,0,37.5552272,127.0451398,49.862,0.00019600000000000002,0.0,0.0,0.0,0.00019600000000000002,0.0,0.0,0.0,0.00032399999999999996,2
1732085159789567134,68923,1732085159749972234,gps,2,0,37.555226999999995,127.0451406,49.848,0.00019600000000000002,0.0,0.0,0.0,0.00019600000000000002,0.0,0.0,0.0,0.00032399999999999996,2
1732085159914782918,68924,1732085159874972234,gps,2,0,37.5552267,127.0451416,49.859,0.00019600000000000002,0.0,0.0,0.0,0.00019600000000000002,0.0,0.0,0.0,0.000361,2
1732085160044987987,68925,1732085159999972236,gps,2,0,37.555226399999995,127.04514259999999,49.882,0.00019600000000000002,0.0,0.0,0.0,0.00019600000000000002,0.0,0.0,0.0,0.000361,2
1732085160166647391,68926,1732085160124972235,gps,2,0,37.5552261,127.0451435,49.859,0.00019600000000000002,0.0,0.0,0.0,0.00019600000000000002,0.0,0.0,0.0,0.000361,2
1732085160287610457,68927,1732085160249972235,gps,2,0,37.555225899999996,127.0451444,49.871,0.00019600000000000002,0.0,0.0,0.0,0.00019600000000000002,0.0,0.0,0.0,0.000361,2
1732085160415677715,68928,1732085160374972236,gps,2,0,37.5552256,127.0451456,49.865,0.00019600000000000002,0.0,0.0,0.0,0.00019600000000000002,0.0,0.0,0.0,0.000361,2
1732085160541336438,68929,1732085160499972236,gps,2,0,37.5552253,127.04514669999999,49.849000000000004,0.00019600000000000002,0.0,0.0,0.0,0.00019600000000000002,0.0,0.0,0.0,0.00032399999999999996,2
1732085160667250877,68930,1732085160624972236,gps,2,0,37.555225,127.0451477,49.864000000000004,0.00019600000000000002,0.0,0.0,0.0,0.00019600000000000002,0.0,0.0,0.0,0.000361,2
1732085160790618630,68931,1732085160749972237,gps,2,0,37.5552247,127.0451487,49.865,0.00019600000000000002,0.0,0.0,0.0,0.00019600000000000002,0.0,0.0,0.0,0.000361,2
1732085160918145461,68932,1732085160874972237,gps,2,0,37.5552244,127.0451499,49.86,0.00019600000000000002,0.0,0.0,0.0,0.00019600000000000002,0.0,0.0,0.0,0.000361,2
1732085161045936868,68933,1732085160999972238,gps,2,0,37.555223999999995,127.0451511,49.869,0.00019600000000000002,0.0,0.0,0.0,0.00019600000000000002,0.0,0.0,0.0,0.000361,2
1732085161163834333,68934,1732085161124972237,gps,2,0,37.5552238,127.04515239999999,49.865,0.00019600000000000002,0.0,0.0,0.0,0.00019600000000000002,0.0,0.0,0.0,0.000361,2
1732085161303232041,68935,1732085161249972238,gps,2,0,37.5552235,127.0451535,49.875,0.00019600000000000002,0.0,0.0,0.0,0.00019600000000000002,0.0,0.0,0.0,0.000361,2
1732085161416805831,68936,1732085161374972238,gps,2,0,37.5552231,127.0451547,49.891,0.00019600000000000002,0.0,0.0,0.0,0.00019600000000000002,0.0,0.0,0.0,0.00032399999999999996,2
1732085161542942722,68937,1732085161499972238,gps,2,0,37.555222799999996,127.04515599999999,49.889,0.00019600000000000002,0.0,0.0,0.0,0.00019600000000000002,0.0,0.0,0.0,0.00032399999999999996,2
1732085161667035579,68938,1732085161624972239,gps,2,0,37.5552224,127.0451573,49.886,0.00019600000000000002,0.0,0.0,0.0,0.00019600000000000002,0.0,0.0,0.0,0.00032399999999999996,2
1732085161791045919,68939,1732085161749972239,gps,2,0,37.555222199999996,127.04515839999999,49.887,0.00019600000000000002,0.0,0.0,0.0,0.00019600000000000002,0.0,0.0,0.0,0.00028900000000000003,2
1732085161916081136,68940,1732085161874972239,gps,2,0,37.5552217,127.04515989999999,49.9,0.00019600000000000002,0.0,0.0,0.0,0.00019600000000000002,0.0,0.0,0.0,0.00032399999999999996,2
1732085162045247792,68941,1732085161999972240,gps,2,0,37.5552214,127.0451612,49.888,0.00019600000000000002,0.0,0.0,0.0,0.00019600000000000002,0.0,0.0,0.0,0.00032399999999999996,2
1732085162166646406,68942,1732085162124972240,gps,2,0,37.5552211,127.04516249999999,49.903,0.00019600000000000002,0.0,0.0,0.0,0.00019600000000000002,0.0,0.0,0.0,0.00032399999999999996,2
1732085162299262626,68943,1732085162249972240,gps,2,0,37.5552206,127.0451638,49.888,0.00019600000000000002,0.0,0.0,0.0,0.00019600000000000002,0.0,0.0,0.0,0.00032399999999999996,2
1732085162417740274,68944,1732085162374972240,gps,2,0,37.555220399999996,127.045165,49.866,0.00019600000000000002,0.0,0.0,0.0,0.00019600000000000002,0.0,0.0,0.0,0.00032399999999999996,2
1732085162542886195,68945,1732085162499972240,gps,2,0,37.55522,127.0451664,49.875,0.00019600000000000002,0.0,0.0,0.0,0.00019600000000000002,0.0,0.0,0.0,0.00032399999999999996,2
1732085162665842893,68946,1732085162624972241,gps,2,0,37.5552196,127.04516779999999,49.88,0.00019600000000000002,0.0,0.0,0.0,0.00019600000000000002,0.0,0.0,0.0,0.00032399999999999996,2
1732085162790647051,68947,1732085162749972241,gps,2,0,37.555219099999995,127.04516919999999,49.881,0.00019600000000000002,0.0,0.0,0.0,0.00019600000000000002,0.0,0.0,0.0,0.00032399999999999996,2
1732085162915269515,68948,1732085162874972241,gps,2,0,37.5552188,127.0451705,49.898,0.00019600000000000002,0.0,0.0,0.0,0.00019600000000000002,0.0,0.0,0.0,0.00032399999999999996,2
1732085163044409945,68949,1732085162999972242,gps,2,0,37.5552182,127.0451719,49.89,0.00019600000000000002,0.0,0.0,0.0,0.00019600000000000002,0.0,0.0,0.0,0.00032399999999999996,2
1732085163167616284,68950,1732085163124972242,gps,2,0,37.5552178,127.04517329999999,49.889,0.00019600000000000002,0.0,0.0,0.0,0.00019600000000000002,0.0,0.0,0.0,0.00032399999999999996,2
1732085163316607150,68951,1732085163249972242,gps,2,0,37.5552174,127.0451746,49.902,0.00019600000000000002,0.0,0.0,0.0,0.00019600000000000002,0.0,0.0,0.0,0.00032399999999999996,2
1732085163423097568,68952,1732085163374972242,gps,2,0,37.555217,127.04517609999999,49.895,0.00019600000000000002,0.0,0.0,0.0,0.00019600000000000002,0.0,0.0,0.0,0.00028900000000000003,2
1732085163543132825,68953,1732085163499972242,gps,2,0,37.5552165,127.0451775,49.893,0.00019600000000000002,0.0,0.0,0.0,0.00019600000000000002,0.0,0.0,0.0,0.00032399999999999996,2
1732085163668531594,68954,1732085163624972243,gps,2,0,37.555216,127.04517879999999,49.902,0.00019600000000000002,0.0,0.0,0.0,0.00019600000000000002,0.0,0.0,0.0,0.00032399999999999996,2
1732085163792321352,68955,1732085163749972243,gps,2,0,37.5552156,127.0451803,49.902,0.00019600000000000002,0.0,0.0,0.0,0.00019600000000000002,0.0,0.0,0.0,0.00032399999999999996,2
1732085163913936562,68956,1732085163874972243,gps,2,0,37.5552152,127.0451817,49.896,0.00019600000000000002,0.0,0.0,0.0,0.00019600000000000002,0.0,0.0,0.0,0.00032399999999999996,2
1732085164046987624,68957,1732085163999972244,gps,2,0,37.5552148,127.045183,49.888,0.00019600000000000002,0.0,0.0,0.0,0.00019600000000000002,0.0,0.0,0.0,0.00032399999999999996,2
1732085164166923005,68958,1732085164124972244,gps,2,0,37.555214299999996,127.04518449999999,49.898,0.00019600000000000002,0.0,0.0,0.0,0.00019600000000000002,0.0,0.0,0.0,0.00028900000000000003,2
1732085164292663166,68959,1732085164249972244,gps,2,0,37.5552138,127.045186,49.914,0.00019600000000000002,0.0,0.0,0.0,0.00019600000000000002,0.0,0.0,0.0,0.00028900000000000003,2
1732085164417579929,68960,1732085164374972244,gps,2,0,37.5552135,127.04518739999999,49.903,0.00019600000000000002,0.0,0.0,0.0,0.00019600000000000002,0.0,0.0,0.0,0.00028900000000000003,2
1732085164544232109,68961,1732085164499972245,gps,2,0,37.555213099999996,127.04518879999999,49.89,0.00019600000000000002,0.0,0.0,0.0,0.00019600000000000002,0.0,0.0,0.0,0.00028900000000000003,2
1732085164669115556,68962,1732085164624972245,gps,2,0,37.5552126,127.04519029999999,49.909,0.00019600000000000002,0.0,0.0,0.0,0.00019600000000000002,0.0,0.0,0.0,0.00028900000000000003,2
1732085164789731316,68963,1732085164749972245,gps,2,0,37.5552122,127.0451918,49.92,0.00019600000000000002,0.0,0.0,0.0,0.00019600000000000002,0.0,0.0,0.0,0.00028900000000000003,2
1732085164917785770,68964,1732085164874972245,gps,2,0,37.555211799999995,127.0451933,49.926,0.00019600000000000002,0.0,0.0,0.0,0.00019600000000000002,0.0,0.0,0.0,0.00028900000000000003,2
1732085165046935555,68965,1732085164999972247,gps,2,0,37.5552114,127.04519479999999,49.927,0.00019600000000000002,0.0,0.0,0.0,0.00019600000000000002,0.0,0.0,0.0,0.00028900000000000003,2
1732085165166776169,68966,1732085165124972246,gps,2,0,37.555211,127.04519619999999,49.931000000000004,0.00019600000000000002,0.0,0.0,0.0,0.00019600000000000002,0.0,0.0,0.0,0.00028900000000000003,2
1732085165321205538,68967,1732085165249972246,gps,2,0,37.555210599999995,127.04519769999999,49.924,0.00019600000000000002,0.0,0.0,0.0,0.00019600000000000002,0.0,0.0,0.0,0.00028900000000000003,2
1732085165422947465,68968,1732085165374972246,gps,2,0,37.5552103,127.0451992,49.918,0.00019600000000000002,0.0,0.0,0.0,0.00019600000000000002,0.0,0.0,0.0,0.00028900000000000003,2
1732085165542353534,68969,1732085165499972247,gps,2,0,37.5552099,127.0452006,49.921,0.00019600000000000002,0.0,0.0,0.0,0.00019600000000000002,0.0,0.0,0.0,0.00028900000000000003,2
1732085165665184171,68970,1732085165624972247,gps,2,0,37.5552095,127.0452021,49.926,0.00019600000000000002,0.0,0.0,0.0,0.00019600000000000002,0.0,0.0,0.0,0.00028900000000000003,2
1732085165791369329,68971,1732085165749972247,gps,2,0,37.5552091,127.04520369999999,49.931000000000004,0.00019600000000000002,0.0,0.0,0.0,0.00019600000000000002,0.0,0.0,0.0,0.00028900000000000003,2
1732085165916344498,68972,1732085165874972248,gps,2,0,37.555208799999996,127.0452052,49.925000000000004,0.00019600000000000002,0.0,0.0,0.0,0.00019600000000000002,0.0,0.0,0.0,0.00028900000000000003,2
1732085166048136024,68973,1732085165999972249,gps,2,0,37.5552085,127.0452066,49.916000000000004,0.00019600000000000002,0.0,0.0,0.0,0.00019600000000000002,0.0,0.0,0.0,0.00028900000000000003,2
1732085166168058714,68974,1732085166124972248,gps,2,0,37.5552081,127.04520819999999,49.937,0.00019600000000000002,0.0,0.0,0.0,0.00019600000000000002,0.0,0.0,0.0,0.00028900000000000003,2
1732085166295202229,68975,1732085166249972249,gps,2,0,37.5552077,127.0452097,49.932,0.00019600000000000002,0.0,0.0,0.0,0.00019600000000000002,0.0,0.0,0.0,0.00028900000000000003,2
1732085166419347528,68976,1732085166374972249,gps,2,0,37.5552074,127.0452112,49.911,0.00019600000000000002,0.0,0.0,0.0,0.00019600000000000002,0.0,0.0,0.0,0.00028900000000000003,2
1732085166544486967,68977,1732085166499972249,gps,2,0,37.555206999999996,127.04521279999999,49.912,0.00019600000000000002,0.0,0.0,0.0,0.00019600000000000002,0.0,0.0,0.0,0.00028900000000000003,2
1732085166668193039,68978,1732085166624972250,gps,2,0,37.5552066,127.04521419999999,49.917,0.00019600000000000002,0.0,0.0,0.0,0.00019600000000000002,0.0,0.0,0.0,0.00028900000000000003,2
1732085166794005754,68979,1732085166749972250,gps,2,0,37.5552062,127.0452158,49.916000000000004,0.00019600000000000002,0.0,0.0,0.0,0.00019600000000000002,0.0,0.0,0.0,0.00028900000000000003,2
1732085166918765002,68980,1732085166874972250,gps,2,0,37.555205699999995,127.04521729999999,49.937,0.00019600000000000002,0.0,0.0,0.0,0.00019600000000000002,0.0,0.0,0.0,0.00028900000000000003,2
1732085167047662664,68981,1732085166999972252,gps,2,0,37.5552053,127.0452189,49.94,0.00019600000000000002,0.0,0.0,0.0,0.00019600000000000002,0.0,0.0,0.0,0.00028900000000000003,2
1732085167168501398,68982,1732085167124972251,gps,2,0,37.5552048,127.04522039999999,49.94,0.00019600000000000002,0.0,0.0,0.0,0.00019600000000000002,0.0,0.0,0.0,0.00032399999999999996,2
1732085167306261647,68983,1732085167249972251,gps,2,0,37.5552044,127.045222,49.936,0.00019600000000000002,0.0,0.0,0.0,0.00019600000000000002,0.0,0.0,0.0,0.00028900000000000003,2
1732085167423213644,68984,1732085167374972251,gps,2,0,37.555203899999995,127.0452234,49.93,0.00019600000000000002,0.0,0.0,0.0,0.00019600000000000002,0.0,0.0,0.0,0.00032399999999999996,2
1732085167541619050,68985,1732085167499972252,gps,2,0,37.555203399999996,127.04522499999999,49.948,0.00019600000000000002,0.0,0.0,0.0,0.00019600000000000002,0.0,0.0,0.0,0.00028900000000000003,2
1732085167667835748,68986,1732085167624972252,gps,2,0,37.555203,127.0452265,49.96,0.00019600000000000002,0.0,0.0,0.0,0.00019600000000000002,0.0,0.0,0.0,0.00032399999999999996,2
1732085167793417384,68987,1732085167749972252,gps,2,0,37.5552025,127.04522809999999,49.942,0.00019600000000000002,0.0,0.0,0.0,0.00019600000000000002,0.0,0.0,0.0,0.00032399999999999996,2
1732085167917926846,68988,1732085167874972253,gps,2,0,37.555202099999995,127.0452294,49.942,0.00019600000000000002,0.0,0.0,0.0,0.00019600000000000002,0.0,0.0,0.0,0.00032399999999999996,2
1732085168048143146,68989,1732085167999972254,gps,2,0,37.5552016,127.04523089999999,49.943,0.00019600000000000002,0.0,0.0,0.0,0.00019600000000000002,0.0,0.0,0.0,0.00032399999999999996,2
1732085168168140143,68990,1732085168124972253,gps,2,0,37.5552011,127.0452325,49.935,0.00019600000000000002,0.0,0.0,0.0,0.00019600000000000002,0.0,0.0,0.0,0.00032399999999999996,2
1732085168296114292,68991,1732085168249972254,gps,2,0,37.5552005,127.04523409999999,49.932,0.00019600000000000002,0.0,0.0,0.0,0.00019600000000000002,0.0,0.0,0.0,0.00032399999999999996,2
1732085168422316501,68992,1732085168374972254,gps,2,0,37.5552001,127.04523549999999,49.931000000000004,0.00019600000000000002,0.0,0.0,0.0,0.00019600000000000002,0.0,0.0,0.0,0.00028900000000000003,2
1732085168544437503,68993,1732085168499972254,gps,2,0,37.5551996,127.0452371,49.946,0.00019600000000000002,0.0,0.0,0.0,0.00019600000000000002,0.0,0.0,0.0,0.00028900000000000003,2
1732085168668968464,68994,1732085168624972255,gps,2,0,37.555199,127.04523859999999,49.94,0.00019600000000000002,0.0,0.0,0.0,0.00019600000000000002,0.0,0.0,0.0,0.00028900000000000003,2
1732085168793840020,68995,1732085168749972255,gps,2,0,37.5551987,127.0452401,49.951,0.00019600000000000002,0.0,0.0,0.0,0.00019600000000000002,0.0,0.0,0.0,0.000256,2
1732085168918136169,68996,1732085168874972255,gps,2,0,37.5551982,127.0452416,49.96,0.00019600000000000002,0.0,0.0,0.0,0.00019600000000000002,0.0,0.0,0.0,0.000256,2
1732085169049360598,68997,1732085168999972257,gps,2,0,37.5551977,127.0452431,49.945,0.00019600000000000002,0.0,0.0,0.0,0.00019600000000000002,0.0,0.0,0.0,0.000256,2
1732085169170750916,68998,1732085169124972256,gps,2,0,37.555197199999995,127.04524459999999,49.955,0.00019600000000000002,0.0,0.0,0.0,0.00019600000000000002,0.0,0.0,0.0,0.000256,2
1732085169313641794,68999,1732085169249972256,gps,2,0,37.5551969,127.0452461,49.953,0.00019600000000000002,0.0,0.0,0.0,0.00019600000000000002,0.0,0.0,0.0,0.00028900000000000003,2
1732085169424132325,69000,1732085169374972257,gps,2,0,37.5551964,127.0452476,49.945,0.00019600000000000002,0.0,0.0,0.0,0.00019600000000000002,0.0,0.0,0.0,0.000256,2
1732085169544850587,69001,1732085169499972257,gps,2,0,37.5551959,127.0452492,49.953,0.00019600000000000002,0.0,0.0,0.0,0.00019600000000000002,0.0,0.0,0.0,0.000256,2
1732085169670674578,69002,1732085169624972257,gps,2,0,37.5551956,127.0452507,49.946,0.00019600000000000002,0.0,0.0,0.0,0.00019600000000000002,0.0,0.0,0.0,0.000256,2
1732085169795109940,69003,1732085169749972258,gps,2,0,37.5551952,127.0452522,49.936,0.00019600000000000002,0.0,0.0,0.0,0.00019600000000000002,0.0,0.0,0.0,0.000256,2
1732085169920826140,69004,1732085169874972258,gps,2,0,37.5551949,127.0452538,49.956,0.00019600000000000002,0.0,0.0,0.0,0.00019600000000000002,0.0,0.0,0.0,0.000256,2
1732085170050177346,69005,1732085169999972259,gps,2,0,37.5551945,127.0452553,49.954,0.00019600000000000002,0.0,0.0,0.0,0.00019600000000000002,0.0,0.0,0.0,0.000256,2
1732085170167066111,69006,1732085170124972258,gps,2,0,37.5551941,127.0452569,49.96,0.00019600000000000002,0.0,0.0,0.0,0.00019600000000000002,0.0,0.0,0.0,0.00028900000000000003,2
1732085170301275162,69007,1732085170249972259,gps,2,0,37.5551937,127.04525849999999,49.962,0.00019600000000000002,0.0,0.0,0.0,0.00019600000000000002,0.0,0.0,0.0,0.00028900000000000003,2
1732085170419625865,69008,1732085170374972259,gps,2,0,37.5551934,127.04526,49.964,0.00019600000000000002,0.0,0.0,0.0,0.00019600000000000002,0.0,0.0,0.0,0.00028900000000000003,2
1732085170545023364,69009,1732085170499972259,gps,2,0,37.555192999999996,127.04526159999999,49.958,0.00019600000000000002,0.0,0.0,0.0,0.00019600000000000002,0.0,0.0,0.0,0.00028900000000000003,2
1732085170669047399,69010,1732085170624972260,gps,2,0,37.5551926,127.0452632,49.96,0.00019600000000000002,0.0,0.0,0.0,0.00019600000000000002,0.0,0.0,0.0,0.00028900000000000003,2
1732085170793962633,69011,1732085170749972260,gps,2,0,37.5551923,127.04526469999999,49.955,0.00019600000000000002,0.0,0.0,0.0,0.00019600000000000002,0.0,0.0,0.0,0.00028900000000000003,2
1732085170917956800,69012,1732085170874972260,gps,2,0,37.555192,127.0452663,49.967,0.00019600000000000002,0.0,0.0,0.0,0.00019600000000000002,0.0,0.0,0.0,0.00028900000000000003,2
1732085171047124369,69013,1732085170999972261,gps,2,0,37.5551916,127.04526779999999,49.976,0.00019600000000000002,0.0,0.0,0.0,0.00019600000000000002,0.0,0.0,0.0,0.00028900000000000003,2
1732085171169169466,69014,1732085171124972261,gps,2,0,37.555191199999996,127.0452694,49.969,0.00019600000000000002,0.0,0.0,0.0,0.00019600000000000002,0.0,0.0,0.0,0.00028900000000000003,2
1732085171307243331,69015,1732085171249972261,gps,2,0,37.5551908,127.045271,49.955,0.00019600000000000002,0.0,0.0,0.0,0.00019600000000000002,0.0,0.0,0.0,0.000256,2
1732085171430416413,69016,1732085171374972261,gps,2,0,37.5551904,127.0452725,49.955,0.00019600000000000002,0.0,0.0,0.0,0.00019600000000000002,0.0,0.0,0.0,0.000256,2
1732085171544804400,69017,1732085171499972262,gps,2,0,37.555189999999996,127.0452741,49.955,0.00019600000000000002,0.0,0.0,0.0,0.00019600000000000002,0.0,0.0,0.0,0.000256,2
1732085171668617849,69018,1732085171624972262,gps,2,0,37.5551896,127.04527569999999,49.954,0.00019600000000000002,0.0,0.0,0.0,0.00019600000000000002,0.0,0.0,0.0,0.000256,2
1732085171792944915,69019,1732085171749972262,gps,2,0,37.5551891,127.0452772,49.979,0.00019600000000000002,0.0,0.0,0.0,0.00019600000000000002,0.0,0.0,0.0,0.000256,2
1732085171918108670,69020,1732085171874972263,gps,2,0,37.5551886,127.04527879999999,49.97,0.00019600000000000002,0.0,0.0,0.0,0.00019600000000000002,0.0,0.0,0.0,0.00028900000000000003,2
1732085172047120699,69021,1732085171999972264,gps,2,0,37.555188199999996,127.04528029999999,49.975,0.00019600000000000002,0.0,0.0,0.0,0.00019600000000000002,0.0,0.0,0.0,0.00028900000000000003,2
1732085172170751178,69022,1732085172124972263,gps,2,0,37.5551877,127.04528189999999,49.966,0.00019600000000000002,0.0,0.0,0.0,0.00019600000000000002,0.0,0.0,0.0,0.00028900000000000003,2
1732085172295958779,69023,1732085172249972263,gps,2,0,37.5551873,127.04528339999999,49.965,0.00019600000000000002,0.0,0.0,0.0,0.00019600000000000002,0.0,0.0,0.0,0.00028900000000000003,2
1732085172419943469,69024,1732085172374972264,gps,2,0,37.555186899999995,127.0452849,49.97,0.00019600000000000002,0.0,0.0,0.0,0.00019600000000000002,0.0,0.0,0.0,0.00028900000000000003,2
1732085172546488649,69025,1732085172499972264,gps,2,0,37.555186299999995,127.04528649999999,49.975,0.00019600000000000002,0.0,0.0,0.0,0.00019600000000000002,0.0,0.0,0.0,0.00028900000000000003,2
1732085172671328132,69026,1732085172624972264,gps,2,0,37.5551858,127.045288,49.980000000000004,0.00019600000000000002,0.0,0.0,0.0,0.00019600000000000002,0.0,0.0,0.0,0.00028900000000000003,2
1732085172798140935,69027,1732085172749972264,gps,2,0,37.5551853,127.0452895,49.983000000000004,0.00019600000000000002,0.0,0.0,0.0,0.00019600000000000002,0.0,0.0,0.0,0.00028900000000000003,2
1732085172916308273,69028,1732085172874972265,gps,2,0,37.555185,127.04529099999999,49.974000000000004,0.00019600000000000002,0.0,0.0,0.0,0.00019600000000000002,0.0,0.0,0.0,0.00028900000000000003,2
1732085173050621104,69029,1732085172999972266,gps,2,0,37.5551844,127.0452926,49.973,0.00019600000000000002,0.0,0.0,0.0,0.00019600000000000002,0.0,0.0,0.0,0.000256,2
1732085173169923441,69030,1732085173124972265,gps,2,0,37.5551838,127.04529409999999,49.975,0.00019600000000000002,0.0,0.0,0.0,0.00019600000000000002,0.0,0.0,0.0,0.000256,2
1732085173309935994,69031,1732085173249972266,gps,2,0,37.5551835,127.04529559999999,49.979,0.00019600000000000002,0.0,0.0,0.0,0.00019600000000000002,0.0,0.0,0.0,0.00028900000000000003,2
1732085173427523805,69032,1732085173374972266,gps,2,0,37.555183,127.04529729999999,49.99,0.00019600000000000002,0.0,0.0,0.0,0.00019600000000000002,0.0,0.0,0.0,0.00028900000000000003,2
1732085173546932774,69033,1732085173499972266,gps,2,0,37.5551825,127.04529869999999,49.979,0.00019600000000000002,0.0,0.0,0.0,0.00019600000000000002,0.0,0.0,0.0,0.00028900000000000003,2
1732085173670857031,69034,1732085173624972266,gps,2,0,37.555181999999995,127.04530009999999,49.978,0.00019600000000000002,0.0,0.0,0.0,0.00019600000000000002,0.0,0.0,0.0,0.00028900000000000003,2
1732085173790800441,69035,1732085173749972267,gps,2,0,37.5551817,127.0453017,49.982,0.00019600000000000002,0.0,0.0,0.0,0.00019600000000000002,0.0,0.0,0.0,0.00028900000000000003,2
1732085173920625894,69036,1732085173874972267,gps,2,0,37.5551812,127.0453033,49.984,0.00019600000000000002,0.0,0.0,0.0,0.00019600000000000002,0.0,0.0,0.0,0.00028900000000000003,2
1732085174049838644,69037,1732085173999972268,gps,2,0,37.555180799999995,127.0453048,49.975,0.00019600000000000002,0.0,0.0,0.0,0.00019600000000000002,0.0,0.0,0.0,0.00028900000000000003,2
1732085174179300495,69038,1732085174124972267,gps,2,0,37.555180299999996,127.0453064,49.967,0.00019600000000000002,0.0,0.0,0.0,0.00019600000000000002,0.0,0.0,0.0,0.00028900000000000003,2
1732085174299030144,69039,1732085174249972268,gps,2,0,37.5551799,127.04530799999999,49.968,0.00019600000000000002,0.0,0.0,0.0,0.00019600000000000002,0.0,0.0,0.0,0.00028900000000000003,2
1732085174422593966,69040,1732085174374972268,gps,2,0,37.5551795,127.0453096,49.985,0.00019600000000000002,0.0,0.0,0.0,0.00019600000000000002,0.0,0.0,0.0,0.00032399999999999996,2
1732085174546975322,69041,1732085174499972268,gps,2,0,37.555178999999995,127.0453112,50.001,0.00019600000000000002,0.0,0.0,0.0,0.00019600000000000002,0.0,0.0,0.0,0.00032399999999999996,2
1732085174666633001,69042,1732085174624972268,gps,2,0,37.5551787,127.04531279999999,49.994,0.00019600000000000002,0.0,0.0,0.0,0.00019600000000000002,0.0,0.0,0.0,0.00032399999999999996,2
1732085174793198396,69043,1732085174749972269,gps,2,0,37.5551783,127.0453143,49.992000000000004,0.00019600000000000002,0.0,0.0,0.0,0.00019600000000000002,0.0,0.0,0.0,0.00032399999999999996,2
1732085174917819684,69044,1732085174874972269,gps,2,0,37.5551779,127.04531589999999,49.986000000000004,0.00019600000000000002,0.0,0.0,0.0,0.00019600000000000002,0.0,0.0,0.0,0.00032399999999999996,2
1732085175050072809,69045,1732085174999972270,gps,2,0,37.5551776,127.04531739999999,49.986000000000004,0.00019600000000000002,0.0,0.0,0.0,0.00019600000000000002,0.0,0.0,0.0,0.00032399999999999996,2
1732085175170966729,69046,1732085175124972270,gps,2,0,37.555177199999996,127.0453189,49.968,0.00019600000000000002,0.0,0.0,0.0,0.00019600000000000002,0.0,0.0,0.0,0.00028900000000000003,2
1732085175309962682,69047,1732085175249972270,gps,2,0,37.5551769,127.0453204,49.966,0.00019600000000000002,0.0,0.0,0.0,0.00019600000000000002,0.0,0.0,0.0,0.00028900000000000003,2
1732085175426667435,69048,1732085175374972270,gps,2,0,37.5551764,127.04532209999999,49.962,0.00019600000000000002,0.0,0.0,0.0,0.00019600000000000002,0.0,0.0,0.0,0.00028900000000000003,2
1732085175546000657,69049,1732085175499972270,gps,2,0,37.555175999999996,127.0453235,49.972,0.00019600000000000002,0.0,0.0,0.0,0.00019600000000000002,0.0,0.0,0.0,0.00028900000000000003,2
1732085175669538083,69050,1732085175624972270,gps,2,0,37.5551755,127.0453252,49.971000000000004,0.00019600000000000002,0.0,0.0,0.0,0.00019600000000000002,0.0,0.0,0.0,0.00028900000000000003,2
1732085175795067098,69051,1732085175749972271,gps,2,0,37.5551752,127.0453266,49.976,0.00019600000000000002,0.0,0.0,0.0,0.00019600000000000002,0.0,0.0,0.0,0.00028900000000000003,2
1732085175921064307,69052,1732085175874972271,gps,2,0,37.555174799999996,127.04532839999999,49.982,0.00019600000000000002,0.0,0.0,0.0,0.00019600000000000002,0.0,0.0,0.0,0.00032399999999999996,2
1732085176050439717,69053,1732085175999972272,gps,2,0,37.5551743,127.0453299,49.996,0.00019600000000000002,0.0,0.0,0.0,0.00019600000000000002,0.0,0.0,0.0,0.00032399999999999996,2
1732085176170131208,69054,1732085176124972271,gps,2,0,37.5551738,127.04533149999999,49.989000000000004,0.00019600000000000002,0.0,0.0,0.0,0.00019600000000000002,0.0,0.0,0.0,0.00032399999999999996,2
1732085176295921402,69055,1732085176249972272,gps,2,0,37.555173499999995,127.045333,49.992000000000004,0.00019600000000000002,0.0,0.0,0.0,0.00019600000000000002,0.0,0.0,0.0,0.000361,2
1732085176424031346,69056,1732085176374972272,gps,2,0,37.555172999999996,127.04533459999999,49.973,0.00019600000000000002,0.0,0.0,0.0,0.00019600000000000002,0.0,0.0,0.0,0.00032399999999999996,2
1732085176544148910,69057,1732085176499972272,gps,2,0,37.5551726,127.0453361,49.969,0.00019600000000000002,0.0,0.0,0.0,0.00019600000000000002,0.0,0.0,0.0,0.00032399999999999996,2
1732085176670647030,69058,1732085176624972272,gps,2,0,37.5551722,127.0453376,49.980000000000004,0.00019600000000000002,0.0,0.0,0.0,0.00019600000000000002,0.0,0.0,0.0,0.00032399999999999996,2
1732085176794891099,69059,1732085176749972273,gps,2,0,37.555171699999995,127.04533909999999,49.973,0.00019600000000000002,0.0,0.0,0.0,0.00019600000000000002,0.0,0.0,0.0,0.00032399999999999996,2
1732085176919894810,69060,1732085176874972273,gps,2,0,37.5551712,127.0453407,49.963,0.00019600000000000002,0.0,0.0,0.0,0.00019600000000000002,0.0,0.0,0.0,0.00032399999999999996,2
1732085177049913581,69061,1732085176999972274,gps,2,0,37.5551707,127.04534229999999,49.976,0.00019600000000000002,0.0,0.0,0.0,0.00019600000000000002,0.0,0.0,0.0,0.00028900000000000003,2
1732085177170803572,69062,1732085177124972273,gps,2,0,37.5551703,127.04534369999999,49.972,0.00019600000000000002,0.0,0.0,0.0,0.00019600000000000002,0.0,0.0,0.0,0.00028900000000000003,2
1732085177323088749,69063,1732085177249972274,gps,2,0,37.5551698,127.0453453,49.957,0.00019600000000000002,0.0,0.0,0.0,0.00019600000000000002,0.0,0.0,0.0,0.00028900000000000003,2
1732085177423684134,69064,1732085177374972274,gps,2,0,37.555169299999996,127.04534679999999,49.954,0.00019600000000000002,0.0,0.0,0.0,0.00019600000000000002,0.0,0.0,0.0,0.00032399999999999996,2
1732085177546085606,69065,1732085177499972274,gps,2,0,37.5551688,127.04534849999999,49.962,0.00019600000000000002,0.0,0.0,0.0,0.00019600000000000002,0.0,0.0,0.0,0.00032399999999999996,2
1732085177670481361,69066,1732085177624972274,gps,2,0,37.5551684,127.04535,49.963,0.00019600000000000002,0.0,0.0,0.0,0.00019600000000000002,0.0,0.0,0.0,0.00032399999999999996,2
1732085177794499715,69067,1732085177749972274,gps,2,0,37.5551679,127.0453514,49.974000000000004,0.00019600000000000002,0.0,0.0,0.0,0.00019600000000000002,0.0,0.0,0.0,0.00032399999999999996,2
1732085177921339717,69068,1732085177874972275,gps,2,0,37.555167399999995,127.0453531,49.979,0.00019600000000000002,0.0,0.0,0.0,0.00019600000000000002,0.0,0.0,0.0,0.00028900000000000003,2
1732085178050273925,69069,1732085177999972276,gps,2,0,37.555167,127.0453546,49.97,0.00019600000000000002,0.0,0.0,0.0,0.00019600000000000002,0.0,0.0,0.0,0.00028900000000000003,2
1732085178170993753,69070,1732085178124972275,gps,2,0,37.5551666,127.04535609999999,49.973,0.00019600000000000002,0.0,0.0,0.0,0.00019600000000000002,0.0,0.0,0.0,0.00028900000000000003,2
1732085178292010332,69071,1732085178249972275,gps,2,0,37.5551661,127.0453577,49.965,0.00019600000000000002,0.0,0.0,0.0,0.00019600000000000002,0.0,0.0,0.0,0.00028900000000000003,2
1732085178420016077,69072,1732085178374972276,gps,2,0,37.555165699999996,127.0453592,49.986000000000004,0.00019600000000000002,0.0,0.0,0.0,0.00019600000000000002,0.0,0.0,0.0,0.000256,2
1732085178545599465,69073,1732085178499972276,gps,2,0,37.5551653,127.04536069999999,49.974000000000004,0.00019600000000000002,0.0,0.0,0.0,0.00019600000000000002,0.0,0.0,0.0,0.000225,2
1732085178669396396,69074,1732085178624972276,gps,2,0,37.5551649,127.0453622,49.978,0.00019600000000000002,0.0,0.0,0.0,0.00019600000000000002,0.0,0.0,0.0,0.000225,2
1732085178794510677,69075,1732085178749972276,gps,2,0,37.555164399999995,127.0453639,49.976,0.00019600000000000002,0.0,0.0,0.0,0.00019600000000000002,0.0,0.0,0.0,0.000225,2
1732085178919899618,69076,1732085178874972277,gps,2,0,37.555164,127.04536549999999,49.982,0.00019600000000000002,0.0,0.0,0.0,0.00019600000000000002,0.0,0.0,0.0,0.000225,2
1732085179049083231,69077,1732085178999972278,gps,2,0,37.5551636,127.04536689999999,49.975,0.00019600000000000002,0.0,0.0,0.0,0.00019600000000000002,0.0,0.0,0.0,0.000225,2
1732085179167015116,69078,1732085179124972277,gps,2,0,37.5551633,127.0453685,49.979,0.00019600000000000002,0.0,0.0,0.0,0.00019600000000000002,0.0,0.0,0.0,0.000225,2
1732085179319454789,69079,1732085179249972277,gps,2,0,37.5551629,127.0453701,49.982,0.00019600000000000002,0.0,0.0,0.0,0.00019600000000000002,0.0,0.0,0.0,0.000225,2
1732085179424759218,69080,1732085179374972278,gps,2,0,37.5551624,127.04537169999999,49.985,0.00019600000000000002,0.0,0.0,0.0,0.00019600000000000002,0.0,0.0,0.0,0.00019600000000000002,2
1732085179545314047,69081,1732085179499972278,gps,2,0,37.555161999999996,127.0453732,49.986000000000004,0.00019600000000000002,0.0,0.0,0.0,0.00019600000000000002,0.0,0.0,0.0,0.00019600000000000002,2
1732085179669220352,69082,1732085179624972278,gps,2,0,37.5551617,127.04537479999999,49.986000000000004,0.00019600000000000002,0.0,0.0,0.0,0.00019600000000000002,0.0,0.0,0.0,0.00019600000000000002,2
1732085179793018362,69083,1732085179749972278,gps,2,0,37.5551613,127.0453764,49.985,0.00019600000000000002,0.0,0.0,0.0,0.00019600000000000002,0.0,0.0,0.0,0.000225,2
1732085179917938199,69084,1732085179874972278,gps,2,0,37.5551609,127.045378,49.984,0.00019600000000000002,0.0,0.0,0.0,0.00019600000000000002,0.0,0.0,0.0,0.000225,2
1732085180047157380,69085,1732085179999972280,gps,2,0,37.5551605,127.04537959999999,49.985,0.00019600000000000002,0.0,0.0,0.0,0.00019600000000000002,0.0,0.0,0.0,0.000225,2
1732085180167988751,69086,1732085180124972279,gps,2,0,37.555160099999995,127.0453812,49.984,0.00019600000000000002,0.0,0.0,0.0,0.00019600000000000002,0.0,0.0,0.0,0.000225,2
1732085180294594382,69087,1732085180249972279,gps,2,0,37.5551598,127.04538269999999,49.982,0.00019600000000000002,0.0,0.0,0.0,0.00019600000000000002,0.0,0.0,0.0,0.000225,2
1732085180418900446,69088,1732085180374972279,gps,2,0,37.5551594,127.04538439999999,49.977000000000004,0.00019600000000000002,0.0,0.0,0.0,0.00019600000000000002,0.0,0.0,0.0,0.000225,2
1732085180543931780,69089,1732085180499972280,gps,2,0,37.555158999999996,127.04538579999999,49.984,0.00019600000000000002,0.0,0.0,0.0,0.00019600000000000002,0.0,0.0,0.0,0.000225,2
1732085180667126405,69090,1732085180624972280,gps,2,0,37.5551586,127.0453874,49.988,0.00019600000000000002,0.0,0.0,0.0,0.00019600000000000002,0.0,0.0,0.0,0.000225,2
1732085180791603379,69091,1732085180749972280,gps,2,0,37.5551582,127.04538889999999,49.978,0.00019600000000000002,0.0,0.0,0.0,0.00019600000000000002,0.0,0.0,0.0,0.00019600000000000002,2
1732085180917227022,69092,1732085180874972280,gps,2,0,37.555157699999995,127.0453905,49.984,0.00019600000000000002,0.0,0.0,0.0,0.00019600000000000002,0.0,0.0,0.0,0.000225,2
1732085181044762111,69093,1732085180999972282,gps,2,0,37.5551572,127.04539199999999,49.993,0.00019600000000000002,0.0,0.0,0.0,0.00019600000000000002,0.0,0.0,0.0,0.000225,2
1732085181169095983,69094,1732085181124972281,gps,2,0,37.5551568,127.0453936,49.984,0.00019600000000000002,0.0,0.0,0.0,0.00019600000000000002,0.0,0.0,0.0,0.000225,2
1732085181317940372,69095,1732085181249972281,gps,2,0,37.5551563,127.04539519999999,49.982,0.00019600000000000002,0.0,0.0,0.0,0.00019600000000000002,0.0,0.0,0.0,0.000225,2
1732085181423795218,69096,1732085181374972281,gps,2,0,37.5551558,127.0453965,49.979,0.00019600000000000002,0.0,0.0,0.0,0.00019600000000000002,0.0,0.0,0.0,0.000225,2
1732085181543722796,69097,1732085181499972282,gps,2,0,37.555155299999996,127.0453981,49.984,0.00019600000000000002,0.0,0.0,0.0,0.00019600000000000002,0.0,0.0,0.0,0.00019600000000000002,2
1732085181667912285,69098,1732085181624972282,gps,2,0,37.5551548,127.04539969999999,49.979,0.00019600000000000002,0.0,0.0,0.0,0.00019600000000000002,0.0,0.0,0.0,0.00019600000000000002,2
1732085181794410496,69099,1732085181749972282,gps,2,0,37.5551544,127.0454013,49.987,0.00019600000000000002,0.0,0.0,0.0,0.00019600000000000002,0.0,0.0,0.0,0.00019600000000000002,2
1732085181915806288,69100,1732085181874972282,gps,2,0,37.5551539,127.0454027,49.987,0.00019600000000000002,0.0,0.0,0.0,0.00019600000000000002,0.0,0.0,0.0,0.00019600000000000002,2
1732085182048243953,69101,1732085181999972284,gps,2,0,37.5551534,127.0454043,49.976,0.00019600000000000002,0.0,0.0,0.0,0.00019600000000000002,0.0,0.0,0.0,0.00019600000000000002,2
1732085182167832733,69102,1732085182124972283,gps,2,0,37.555152899999996,127.04540589999999,49.974000000000004,0.00019600000000000002,0.0,0.0,0.0,0.00019600000000000002,0.0,0.0,0.0,0.00019600000000000002,2
1732085182295052647,69103,1732085182249972283,gps,2,0,37.5551524,127.04540739999999,49.987,0.00019600000000000002,0.0,0.0,0.0,0.00019600000000000002,0.0,0.0,0.0,0.00019600000000000002,2
1732085182419681465,69104,1732085182374972284,gps,2,0,37.555152,127.0454089,49.993,0.00019600000000000002,0.0,0.0,0.0,0.00019600000000000002,0.0,0.0,0.0,0.00019600000000000002,2
1732085182544787988,69105,1732085182499972284,gps,2,0,37.5551515,127.0454104,49.988,0.00019600000000000002,0.0,0.0,0.0,0.00019600000000000002,0.0,0.0,0.0,0.00019600000000000002,2
1732085182669824644,69106,1732085182624972284,gps,2,0,37.555150999999995,127.04541189999999,49.99,0.00019600000000000002,0.0,0.0,0.0,0.00019600000000000002,0.0,0.0,0.0,0.00019600000000000002,2
1732085182789662350,69107,1732085182749972284,gps,2,0,37.555150499999996,127.04541359999999,49.996,0.00019600000000000002,0.0,0.0,0.0,0.00019600000000000002,0.0,0.0,0.0,0.00019600000000000002,2
1732085182918016320,69108,1732085182874972285,gps,2,0,37.5551501,127.04541499999999,49.989000000000004,0.00019600000000000002,0.0,0.0,0.0,0.00019600000000000002,0.0,0.0,0.0,0.00019600000000000002,2
1732085183047840219,69109,1732085182999972286,gps,2,0,37.555149799999995,127.04541649999999,49.988,0.00019600000000000002,0.0,0.0,0.0,0.00019600000000000002,0.0,0.0,0.0,0.00019600000000000002,2
1732085183169631818,69110,1732085183124972285,gps,2,0,37.5551494,127.045418,49.974000000000004,0.00019600000000000002,0.0,0.0,0.0,0.00019600000000000002,0.0,0.0,0.0,0.00019600000000000002,2
1732085183321907254,69111,1732085183249972286,gps,2,0,37.5551488,127.04541959999999,49.983000000000004,0.00019600000000000002,0.0,0.0,0.0,0.00019600000000000002,0.0,0.0,0.0,0.000225,2
1732085183425924059,69112,1732085183374972286,gps,2,0,37.5551485,127.0454211,49.985,0.00019600000000000002,0.0,0.0,0.0,0.00019600000000000002,0.0,0.0,0.0,0.000225,2
1732085183545187482,69113,1732085183499972286,gps,2,0,37.5551482,127.04542269999999,49.993,0.00019600000000000002,0.0,0.0,0.0,0.00019600000000000002,0.0,0.0,0.0,0.00019600000000000002,2
1732085183665994494,69114,1732085183624972286,gps,2,0,37.5551477,127.04542439999999,49.989000000000004,0.00019600000000000002,0.0,0.0,0.0,0.00019600000000000002,0.0,0.0,0.0,0.00019600000000000002,2
1732085183792560283,69115,1732085183749972287,gps,2,0,37.5551473,127.04542599999999,49.986000000000004,0.00019600000000000002,0.0,0.0,0.0,0.00019600000000000002,0.0,0.0,0.0,0.00019600000000000002,2
1732085183917165193,69116,1732085183874972287,gps,2,0,37.555146799999996,127.0454278,49.978,0.000225,0.0,0.0,0.0,0.000225,0.0,0.0,0.0,0.000256,2
1732085184047730546,69117,1732085183999972288,gps,2,0,37.5551466,127.045429,49.997,0.000225,0.0,0.0,0.0,0.000225,0.0,0.0,0.0,0.000256,2
1732085184168893466,69118,1732085184124972288,gps,2,0,37.5551463,127.0454307,49.982,0.000225,0.0,0.0,0.0,0.000225,0.0,0.0,0.0,0.00028900000000000003,2
1732085184293793603,69119,1732085184249972288,gps,2,0,37.555146,127.0454322,49.977000000000004,0.000225,0.0,0.0,0.0,0.000225,0.0,0.0,0.0,0.00028900000000000003,2
1732085184419227512,69120,1732085184374972288,gps,2,0,37.555145599999996,127.0454338,49.969,0.000256,0.0,0.0,0.0,0.000256,0.0,0.0,0.0,0.00028900000000000003,2
1732085184544161058,69121,1732085184499972288,gps,2,0,37.5551454,127.0454352,49.989000000000004,0.000256,0.0,0.0,0.0,0.000256,0.0,0.0,0.0,0.00028900000000000003,2
1732085184667648332,69122,1732085184624972289,gps,2,0,37.555144899999995,127.0454369,49.982,0.000225,0.0,0.0,0.0,0.000225,0.0,0.0,0.0,0.00028900000000000003,2
1732085184794854255,69123,1732085184749972289,gps,2,0,37.5551447,127.0454381,49.977000000000004,0.000256,0.0,0.0,0.0,0.000256,0.0,0.0,0.0,0.00028900000000000003,2
1732085184919067268,69124,1732085184874972289,gps,2,0,37.555144299999995,127.04543969999999,49.981,0.000256,0.0,0.0,0.0,0.000256,0.0,0.0,0.0,0.00032399999999999996,2
1732085185047606918,69125,1732085184999972290,gps,2,0,37.555143799999996,127.0454413,49.991,0.000256,0.0,0.0,0.0,0.000256,0.0,0.0,0.0,0.00032399999999999996,2
1732085185167632809,69126,1732085185124972290,gps,2,0,37.5551433,127.0454429,50.011,0.000225,0.0,0.0,0.0,0.000225,0.0,0.0,0.0,0.00032399999999999996,2
1732085185318643127,69127,1732085185249972290,gps,2,0,37.5551429,127.04544449999999,50.009,0.000256,0.0,0.0,0.0,0.000256,0.0,0.0,0.0,0.00028900000000000003,2
1732085185422042472,69128,1732085185374972290,gps,2,0,37.555142499999995,127.04544609999999,50.015,0.000256,0.0,0.0,0.0,0.000256,0.0,0.0,0.0,0.00028900000000000003,2
1732085185541766446,69129,1732085185499972290,gps,2,0,37.555141899999995,127.0454475,50.009,0.000256,0.0,0.0,0.0,0.000256,0.0,0.0,0.0,0.00028900000000000003,2
1732085185668048438,69130,1732085185624972291,gps,2,0,37.5551415,127.0454491,50.016,0.000256,0.0,0.0,0.0,0.000256,0.0,0.0,0.0,0.00028900000000000003,2
1732085185793246081,69131,1732085185749972291,gps,2,0,37.5551411,127.0454506,50.011,0.000256,0.0,0.0,0.0,0.000256,0.0,0.0,0.0,0.00028900000000000003,2
1732085185918058243,69132,1732085185874972291,gps,2,0,37.5551404,127.04545209999999,50.015,0.000256,0.0,0.0,0.0,0.000256,0.0,0.0,0.0,0.00028900000000000003,2
1732085186047421241,69133,1732085185999972292,gps,2,0,37.5551399,127.0454535,50.002,0.000225,0.0,0.0,0.0,0.000225,0.0,0.0,0.0,0.00028900000000000003,2
1732085186167121044,69134,1732085186124972292,gps,2,0,37.5551393,127.04545499999999,50.003,0.000225,0.0,0.0,0.0,0.000225,0.0,0.0,0.0,0.00028900000000000003,2
1732085186295571787,69135,1732085186249972292,gps,2,0,37.555139,127.04545669999999,50.001,0.000225,0.0,0.0,0.0,0.000225,0.0,0.0,0.0,0.00028900000000000003,2
1732085186416051137,69136,1732085186374972292,gps,2,0,37.5551384,127.0454582,49.999,0.000225,0.0,0.0,0.0,0.000225,0.0,0.0,0.0,0.000256,2
1732085186544837555,69137,1732085186499972293,gps,2,0,37.555137699999996,127.0454597,49.994,0.000225,0.0,0.0,0.0,0.000225,0.0,0.0,0.0,0.000256,2
1732085186667836992,69138,1732085186624972293,gps,2,0,37.5551373,127.04546119999999,49.999,0.000225,0.0,0.0,0.0,0.000225,0.0,0.0,0.0,0.000256,2
1732085186792102772,69139,1732085186749972293,gps,2,0,37.5551369,127.0454628,50.001,0.000225,0.0,0.0,0.0,0.000225,0.0,0.0,0.0,0.000256,2
1732085186917299300,69140,1732085186874972293,gps,2,0,37.5551363,127.04546429999999,50.004,0.000225,0.0,0.0,0.0,0.000225,0.0,0.0,0.0,0.000256,2
1732085187047048214,69141,1732085186999972295,gps,2,0,37.555135899999996,127.04546579999999,50.007,0.000225,0.0,0.0,0.0,0.000225,0.0,0.0,0.0,0.000256,2
1732085187170323937,69142,1732085187124972294,gps,2,0,37.5551355,127.0454673,50.011,0.000225,0.0,0.0,0.0,0.000225,0.0,0.0,0.0,0.000256,2
1732085187314820655,69143,1732085187249972294,gps,2,0,37.555135,127.0454688,50.008,0.000225,0.0,0.0,0.0,0.000225,0.0,0.0,0.0,0.000256,2
1732085187423685696,69144,1732085187374972295,gps,2,0,37.555134599999995,127.04547029999999,50.004,0.000225,0.0,0.0,0.0,0.000225,0.0,0.0,0.0,0.000256,2
1732085187544831422,69145,1732085187499972295,gps,2,0,37.5551341,127.0454719,50.015,0.000225,0.0,0.0,0.0,0.000225,0.0,0.0,0.0,0.000256,2
1732085187669200411,69146,1732085187624972295,gps,2,0,37.5551337,127.0454735,50.007,0.000225,0.0,0.0,0.0,0.000225,0.0,0.0,0.0,0.000256,2
1732085187795754821,69147,1732085187749972295,gps,2,0,37.5551333,127.045475,50.002,0.000225,0.0,0.0,0.0,0.000225,0.0,0.0,0.0,0.000225,2
1732085187918676169,69148,1732085187874972296,gps,2,0,37.555133,127.04547649999999,50.006,0.00028900000000000003,0.0,0.0,0.0,0.00028900000000000003,0.0,0.0,0.0,0.000361,2
1732085188047742747,69149,1732085187999972297,gps,2,0,37.5551327,127.0454781,50.006,0.00028900000000000003,0.0,0.0,0.0,0.00028900000000000003,0.0,0.0,0.0,0.00048399999999999995,2
1732085188165910881,69150,1732085188124972296,gps,2,0,37.5551324,127.0454796,49.982,0.00032399999999999996,0.0,0.0,0.0,0.00032399999999999996,0.0,0.0,0.0,0.000529,2
1732085188294368090,69151,1732085188249972296,gps,2,0,37.5551318,127.04548129999999,50.013,0.00032399999999999996,0.0,0.0,0.0,0.00032399999999999996,0.0,0.0,0.0,0.000529,2
1732085188419362424,69152,1732085188374972297,gps,2,0,37.5551314,127.04548279999999,50.01,0.00032399999999999996,0.0,0.0,0.0,0.00032399999999999996,0.0,0.0,0.0,0.000529,2
1732085188545454785,69153,1732085188499972297,gps,2,0,37.5551312,127.04548439999999,49.998,0.00032399999999999996,0.0,0.0,0.0,0.00032399999999999996,0.0,0.0,0.0,0.000529,2
1732085188667809533,69154,1732085188624972297,gps,2,0,37.5551308,127.045486,49.973,0.00032399999999999996,0.0,0.0,0.0,0.00032399999999999996,0.0,0.0,0.0,0.000529,2
1732085188792703785,69155,1732085188749972298,gps,2,0,37.5551305,127.0454875,49.992000000000004,0.00032399999999999996,0.0,0.0,0.0,0.00032399999999999996,0.0,0.0,0.0,0.000529,2
1732085188916796556,69156,1732085188874972298,gps,2,0,37.5551301,127.04548919999999,49.984,0.00032399999999999996,0.0,0.0,0.0,0.00032399999999999996,0.0,0.0,0.0,0.000576,2
1732085189046876105,69157,1732085188999972299,gps,2,0,37.5551295,127.04549069999999,50.015,0.00032399999999999996,0.0,0.0,0.0,0.00032399999999999996,0.0,0.0,0.0,0.000576,2
1732085189168093793,69158,1732085189124972298,gps,2,0,37.555129099999995,127.0454924,50.005,0.00032399999999999996,0.0,0.0,0.0,0.00032399999999999996,0.0,0.0,0.0,0.000576,2
1732085189319441163,69159,1732085189249972299,gps,2,0,37.5551289,127.04549399999999,50.004,0.00032399999999999996,0.0,0.0,0.0,0.00032399999999999996,0.0,0.0,0.0,0.0006250000000000001,2
1732085189424294477,69160,1732085189374972299,gps,2,0,37.5551284,127.0454955,50.005,0.00032399999999999996,0.0,0.0,0.0,0.00032399999999999996,0.0,0.0,0.0,0.0006250000000000001,2
1732085189543802262,69161,1732085189499972299,gps,2,0,37.555127899999995,127.04549709999999,50.028,0.00032399999999999996,0.0,0.0,0.0,0.00032399999999999996,0.0,0.0,0.0,0.0006250000000000001,2
1732085189667538529,69162,1732085189624972299,gps,2,0,37.5551276,127.0454987,50.008,0.00028900000000000003,0.0,0.0,0.0,0.00028900000000000003,0.0,0.0,0.0,0.0006250000000000001,2
1732085189793243465,69163,1732085189749972300,gps,2,0,37.5551271,127.04550019999999,50.004,0.00028900000000000003,0.0,0.0,0.0,0.00028900000000000003,0.0,0.0,0.0,0.0006250000000000001,2
1732085189917002588,69164,1732085189874972300,gps,2,0,37.5551266,127.04550169999999,50.005,0.00028900000000000003,0.0,0.0,0.0,0.00028900000000000003,0.0,0.0,0.0,0.0006250000000000001,2
1732085190045014250,69165,1732085189999972301,gps,2,0,37.5551262,127.0455033,50.016,0.00028900000000000003,0.0,0.0,0.0,0.00028900000000000003,0.0,0.0,0.0,0.0006250000000000001,2
1732085190167864197,69166,1732085190124972301,gps,2,0,37.5551257,127.0455049,50.01,0.00028900000000000003,0.0,0.0,0.0,0.00028900000000000003,0.0,0.0,0.0,0.0006250000000000001,2
1732085190293701145,69167,1732085190249972301,gps,2,0,37.5551253,127.0455063,50.007,0.00028900000000000003,0.0,0.0,0.0,0.00028900000000000003,0.0,0.0,0.0,0.0006250000000000001,2
1732085190417745370,69168,1732085190374972301,gps,2,0,37.5551247,127.04550789999999,49.996,0.00028900000000000003,0.0,0.0,0.0,0.00028900000000000003,0.0,0.0,0.0,0.0006250000000000001,2
1732085190543987788,69169,1732085190499972301,gps,2,0,37.555124299999996,127.0455095,49.999,0.00028900000000000003,0.0,0.0,0.0,0.00028900000000000003,0.0,0.0,0.0,0.0006250000000000001,2
1732085190667787121,69170,1732085190624972302,gps,2,0,37.5551238,127.0455111,50.004,0.00028900000000000003,0.0,0.0,0.0,0.00028900000000000003,0.0,0.0,0.0,0.0006250000000000001,2
1732085190792066866,69171,1732085190749972302,gps,2,0,37.5551234,127.0455125,49.997,0.00028900000000000003,0.0,0.0,0.0,0.00028900000000000003,0.0,0.0,0.0,0.0006250000000000001,2
1732085190913564213,69172,1732085190874972302,gps,2,0,37.5551229,127.045514,49.998,0.00028900000000000003,0.0,0.0,0.0,0.00028900000000000003,0.0,0.0,0.0,0.0006250000000000001,2
1732085191046573314,69173,1732085190999972303,gps,2,0,37.555122399999995,127.04551559999999,50.025,0.00028900000000000003,0.0,0.0,0.0,0.00028900000000000003,0.0,0.0,0.0,0.0006250000000000001,2
1732085191166647229,69174,1732085191124972303,gps,2,0,37.555122,127.0455173,50.005,0.00028900000000000003,0.0,0.0,0.0,0.00028900000000000003,0.0,0.0,0.0,0.0006250000000000001,2
1732085191304878654,69175,1732085191249972303,gps,2,0,37.5551214,127.04551869999999,50.02,0.00028900000000000003,0.0,0.0,0.0,0.00028900000000000003,0.0,0.0,0.0,0.0006250000000000001,2
1732085191418892103,69176,1732085191374972303,gps,2,0,37.5551211,127.0455202,49.997,0.00028900000000000003,0.0,0.0,0.0,0.00028900000000000003,0.0,0.0,0.0,0.0006250000000000001,2
1732085191544992810,69177,1732085191499972304,gps,2,0,37.5551205,127.04552179999999,50.006,0.00028900000000000003,0.0,0.0,0.0,0.00028900000000000003,0.0,0.0,0.0,0.0006250000000000001,2
1732085191670924485,69178,1732085191624972304,gps,2,0,37.555120099999996,127.0455233,50.006,0.00028900000000000003,0.0,0.0,0.0,0.00028900000000000003,0.0,0.0,0.0,0.0006250000000000001,2
1732085191789183855,69179,1732085191749972304,gps,2,0,37.5551198,127.04552489999999,49.980000000000004,0.00028900000000000003,0.0,0.0,0.0,0.00028900000000000003,0.0,0.0,0.0,0.0006250000000000001,2
1732085191917775240,69180,1732085191874972304,gps,2,0,37.555119399999995,127.0455264,49.963,0.00032399999999999996,0.0,0.0,0.0,0.00032399999999999996,0.0,0.0,0.0,0.0006250000000000001,2
1732085192047621357,69181,1732085191999972306,gps,2,0,37.5551189,127.04552799999999,49.992000000000004,0.00032399999999999996,0.0,0.0,0.0,0.00032399999999999996,0.0,0.0,0.0,0.000676,2
1732085192167231459,69182,1732085192124972305,gps,2,0,37.5551184,127.04552939999999,50.015,0.00028900000000000003,0.0,0.0,0.0,0.00028900000000000003,0.0,0.0,0.0,0.0006250000000000001,2
1732085192293859245,69183,1732085192249972305,gps,2,0,37.555118,127.045531,50.016,0.00028900000000000003,0.0,0.0,0.0,0.00028900000000000003,0.0,0.0,0.0,0.0006250000000000001,2
1732085192419010567,69184,1732085192374972305,gps,2,0,37.555117599999996,127.04553259999999,50.008,0.00028900000000000003,0.0,0.0,0.0,0.00028900000000000003,0.0,0.0,0.0,0.000676,2
1732085192544055467,69185,1732085192499972306,gps,2,0,37.5551174,127.0455341,49.994,0.00028900000000000003,0.0,0.0,0.0,0.00028900000000000003,0.0,0.0,0.0,0.000676,2
1732085192665896620,69186,1732085192624972306,gps,2,0,37.5551168,127.0455358,50.022,0.00028900000000000003,0.0,0.0,0.0,0.00028900000000000003,0.0,0.0,0.0,0.000676,2
1732085192792697250,69187,1732085192749972306,gps,2,0,37.555116399999996,127.0455372,50.032000000000004,0.00028900000000000003,0.0,0.0,0.0,0.00028900000000000003,0.0,0.0,0.0,0.0006250000000000001,2
1732085192917750745,69188,1732085192874972307,gps,2,0,37.555116,127.0455389,50.003,0.00028900000000000003,0.0,0.0,0.0,0.00028900000000000003,0.0,0.0,0.0,0.0006250000000000001,2
