%time,field.header.seq,field.header.stamp,field.header.frame_id,field.status.status,field.status.service,field.latitude,field.longitude,field.altitude,field.position_covariance0,field.position_covariance1,field.position_covariance2,field.position_covariance3,field.position_covariance4,field.position_covariance5,field.position_covariance6,field.position_covariance7,field.position_covariance8,field.position_covariance_type
1733129523788877320,27720,1733129523749501003,gps,2,0,37.5552369,127.0451078,49.821,0.00019600000000000002,0.0,0.0,0.0,0.00019600000000000002,0.0,0.0,0.0,0.00012099999999999999,2
1733129523911100762,27721,1733129523874501004,gps,2,0,37.555236799999996,127.0451078,49.818,0.00019600000000000002,0.0,0.0,0.0,0.00019600000000000002,0.0,0.0,0.0,0.00012099999999999999,2
1733129524042237036,27722,1733129523999501006,gps,2,0,37.555236799999996,127.04510789999999,49.828,0.00019600000000000002,0.0,0.0,0.0,0.00019600000000000002,0.0,0.0,0.0,0.00012099999999999999,2
1733129524163942468,27723,1733129524124501006,gps,2,0,37.555236799999996,127.04510789999999,49.833,0.00019600000000000002,0.0,0.0,0.0,0.00019600000000000002,0.0,0.0,0.0,0.00012099999999999999,2
1733129524287445150,27724,1733129524249501007,gps,2,0,37.5552367,127.0451078,49.839,0.00019600000000000002,0.0,0.0,0.0,0.00019600000000000002,0.0,0.0,0.0,0.00012099999999999999,2
1733129524416552327,27725,1733129524374501008,gps,2,0,37.5552367,127.04510789999999,49.833,0.00019600000000000002,0.0,0.0,0.0,0.00019600000000000002,0.0,0.0,0.0,0.00012099999999999999,2
1733129524541108536,27726,1733129524499501010,gps,2,0,37.555236799999996,127.0451078,49.828,0.00019600000000000002,0.0,0.0,0.0,0.00019600000000000002,0.0,0.0,0.0,0.00012099999999999999,2
1733129524664939792,27727,1733129524624501011,gps,2,0,37.555236799999996,127.04510789999999,49.837,0.00019600000000000002,0.0,0.0,0.0,0.00019600000000000002,0.0,0.0,0.0,0.00012099999999999999,2
1733129524789859028,27728,1733129524749501012,gps,2,0,37.555236799999996,127.04510789999999,49.825,0.00019600000000000002,0.0,0.0,0.0,0.00019600000000000002,0.0,0.0,0.0,0.00012099999999999999,2
1733129524913813459,27729,1733129524874501013,gps,2,0,37.5552367,127.0451078,49.825,0.00019600000000000002,0.0,0.0,0.0,0.00019600000000000002,0.0,0.0,0.0,0.000144,2
1733129525043691812,27730,1733129524999501015,gps,2,0,37.555236799999996,127.04510769999999,49.827,0.00019600000000000002,0.0,0.0,0.0,0.00019600000000000002,0.0,0.0,0.0,0.000144,2
1733129525162071071,27731,1733129525124501015,gps,2,0,37.555236799999996,127.0451078,49.835,0.00019600000000000002,0.0,0.0,0.0,0.00019600000000000002,0.0,0.0,0.0,0.000144,2
1733129525291884798,27732,1733129525249501017,gps,2,0,37.555236799999996,127.0451078,49.829,0.00019600000000000002,0.0,0.0,0.0,0.00019600000000000002,0.0,0.0,0.0,0.000144,2
1733129525426529823,27733,1733129525374501018,gps,2,0,37.555236799999996,127.04510789999999,49.841,0.00019600000000000002,0.0,0.0,0.0,0.00019600000000000002,0.0,0.0,0.0,0.000144,2
1733129525539753703,27734,1733129525499501019,gps,2,0,37.5552367,127.04510789999999,49.85,0.00019600000000000002,0.0,0.0,0.0,0.00019600000000000002,0.0,0.0,0.0,0.000144,2
1733129525664557130,27735,1733129525624501020,gps,2,0,37.555236799999996,127.0451078,49.837,0.00019600000000000002,0.0,0.0,0.0,0.00019600000000000002,0.0,0.0,0.0,0.000144,2
1733129525788993992,27736,1733129525749501021,gps,2,0,37.5552367,127.04510789999999,49.85,0.00019600000000000002,0.0,0.0,0.0,0.00019600000000000002,0.0,0.0,0.0,0.000144,2
1733129525914687901,27737,1733129525874501022,gps,2,0,37.5552367,127.04510789999999,49.846000000000004,0.00019600000000000002,0.0,0.0,0.0,0.00019600000000000002,0.0,0.0,0.0,0.000144,2
1733129526040917273,27738,1733129525999501025,gps,2,0,37.5552367,127.04510769999999,49.816,0.00019600000000000002,0.0,0.0,0.0,0.00019600000000000002,0.0,0.0,0.0,0.00019600000000000002,2
1733129526166700660,27739,1733129526124501025,gps,2,0,37.5552366,127.04510769999999,49.807,0.00019600000000000002,0.0,0.0,0.0,0.00019600000000000002,0.0,0.0,0.0,0.000256,2
1733129526292245685,27740,1733129526249501026,gps,2,0,37.5552367,127.0451075,49.786,0.00019600000000000002,0.0,0.0,0.0,0.00019600000000000002,0.0,0.0,0.0,0.000256,2
1733129526416792099,27741,1733129526374501027,gps,2,0,37.5552367,127.0451076,49.808,0.00019600000000000002,0.0,0.0,0.0,0.00019600000000000002,0.0,0.0,0.0,0.00028900000000000003,2
1733129526543109002,27742,1733129526499501028,gps,2,0,37.5552366,127.04510769999999,49.807,0.00019600000000000002,0.0,0.0,0.0,0.00019600000000000002,0.0,0.0,0.0,0.00028900000000000003,2
1733129526666798176,27743,1733129526624501029,gps,2,0,37.5552367,127.04510769999999,49.815,0.00019600000000000002,0.0,0.0,0.0,0.00019600000000000002,0.0,0.0,0.0,0.00032399999999999996,2
1733129526789152555,27744,1733129526749501031,gps,2,0,37.5552367,127.04510769999999,49.804,0.00019600000000000002,0.0,0.0,0.0,0.00019600000000000002,0.0,0.0,0.0,0.00032399999999999996,2
1733129526913227876,27745,1733129526874501032,gps,2,0,37.5552367,127.04510769999999,49.802,0.00019600000000000002,0.0,0.0,0.0,0.00019600000000000002,0.0,0.0,0.0,0.00032399999999999996,2
1733129527043826339,27746,1733129526999501034,gps,2,0,37.5552366,127.0451075,49.792,0.00019600000000000002,0.0,0.0,0.0,0.00019600000000000002,0.0,0.0,0.0,0.00032399999999999996,2
1733129527164870889,27747,1733129527124501034,gps,2,0,37.5552367,127.0451076,49.798,0.00019600000000000002,0.0,0.0,0.0,0.00019600000000000002,0.0,0.0,0.0,0.00032399999999999996,2
1733129527291416717,27748,1733129527249501035,gps,2,0,37.555236799999996,127.04510769999999,49.809,0.00019600000000000002,0.0,0.0,0.0,0.00019600000000000002,0.0,0.0,0.0,0.00032399999999999996,2
1733129527427237009,27749,1733129527374501036,gps,2,0,37.5552366,127.04510769999999,49.82,0.00019600000000000002,0.0,0.0,0.0,0.00019600000000000002,0.0,0.0,0.0,0.00032399999999999996,2
1733129527541642559,27750,1733129527499501038,gps,2,0,37.5552367,127.0451078,49.822,0.00019600000000000002,0.0,0.0,0.0,0.00019600000000000002,0.0,0.0,0.0,0.00032399999999999996,2
1733129527664589426,27751,1733129527624501039,gps,2,0,37.5552367,127.0451076,49.791000000000004,0.00019600000000000002,0.0,0.0,0.0,0.00019600000000000002,0.0,0.0,0.0,0.000361,2
1733129527789310756,27752,1733129527749501040,gps,2,0,37.5552367,127.0451076,49.794000000000004,0.00019600000000000002,0.0,0.0,0.0,0.00019600000000000002,0.0,0.0,0.0,0.000361,2
1733129527910884762,27753,1733129527874501041,gps,2,0,37.5552365,127.0451076,49.798,0.00019600000000000002,0.0,0.0,0.0,0.00019600000000000002,0.0,0.0,0.0,0.000361,2
1733129528044463670,27754,1733129527999501043,gps,2,0,37.5552367,127.04510769999999,49.811,0.00019600000000000002,0.0,0.0,0.0,0.00019600000000000002,0.0,0.0,0.0,0.000361,2
1733129528165592481,27755,1733129528124501043,gps,2,0,37.5552367,127.0451078,49.822,0.00019600000000000002,0.0,0.0,0.0,0.00019600000000000002,0.0,0.0,0.0,0.000361,2
1733129528290978646,27756,1733129528249501044,gps,2,0,37.555236799999996,127.0451078,49.822,0.00019600000000000002,0.0,0.0,0.0,0.00019600000000000002,0.0,0.0,0.0,0.00044100000000000004,2
1733129528415053614,27757,1733129528374501046,gps,2,0,37.5552367,127.04510769999999,49.791000000000004,0.00019600000000000002,0.0,0.0,0.0,0.00019600000000000002,0.0,0.0,0.0,0.000361,2
1733129528539592601,27758,1733129528499501047,gps,2,0,37.5552367,127.0451076,49.777,0.00019600000000000002,0.0,0.0,0.0,0.00019600000000000002,0.0,0.0,0.0,0.00032399999999999996,2
1733129528664510471,27759,1733129528624501048,gps,2,0,37.5552367,127.04510769999999,49.77,0.00019600000000000002,0.0,0.0,0.0,0.00019600000000000002,0.0,0.0,0.0,0.00032399999999999996,2
1733129528785844895,27760,1733129528749501049,gps,2,0,37.5552367,127.0451076,49.762,0.00019600000000000002,0.0,0.0,0.0,0.00019600000000000002,0.0,0.0,0.0,0.00032399999999999996,2
1733129528914035238,27761,1733129528874501050,gps,2,0,37.5552366,127.0451075,49.759,0.00019600000000000002,0.0,0.0,0.0,0.00019600000000000002,0.0,0.0,0.0,0.00032399999999999996,2
1733129529044124349,27762,1733129528999501053,gps,2,0,37.5552367,127.0451075,49.769,0.00019600000000000002,0.0,0.0,0.0,0.00019600000000000002,0.0,0.0,0.0,0.00032399999999999996,2
1733129529164075107,27763,1733129529124501053,gps,2,0,37.555236799999996,127.0451076,49.769,0.00019600000000000002,0.0,0.0,0.0,0.00019600000000000002,0.0,0.0,0.0,0.00028900000000000003,2
1733129529295664328,27764,1733129529249501054,gps,2,0,37.5552367,127.0451076,49.775,0.00019600000000000002,0.0,0.0,0.0,0.00019600000000000002,0.0,0.0,0.0,0.00028900000000000003,2
1733129529424883931,27765,1733129529374501055,gps,2,0,37.5552367,127.04510769999999,49.779,0.00019600000000000002,0.0,0.0,0.0,0.00019600000000000002,0.0,0.0,0.0,0.000256,2
1733129529538006272,27766,1733129529499501056,gps,2,0,37.555236799999996,127.0451076,49.787,0.00019600000000000002,0.0,0.0,0.0,0.00019600000000000002,0.0,0.0,0.0,0.000256,2
1733129529660971410,27767,1733129529624501057,gps,2,0,37.5552367,127.04510769999999,49.788000000000004,0.00019600000000000002,0.0,0.0,0.0,0.00019600000000000002,0.0,0.0,0.0,0.000256,2
1733129529787805483,27768,1733129529749501058,gps,2,0,37.555236799999996,127.04510769999999,49.788000000000004,0.00019600000000000002,0.0,0.0,0.0,0.00019600000000000002,0.0,0.0,0.0,0.000256,2
1733129529910846501,27769,1733129529874501060,gps,2,0,37.5552367,127.0451076,49.79,0.00019600000000000002,0.0,0.0,0.0,0.00019600000000000002,0.0,0.0,0.0,0.000256,2
1733129530041135767,27770,1733129529999501062,gps,2,0,37.555236799999996,127.0451076,49.778,0.00019600000000000002,0.0,0.0,0.0,0.00019600000000000002,0.0,0.0,0.0,0.000256,2
1733129530164011134,27771,1733129530124501062,gps,2,0,37.5552367,127.0451076,49.776,0.00019600000000000002,0.0,0.0,0.0,0.00019600000000000002,0.0,0.0,0.0,0.000256,2
1733129530292031293,27772,1733129530249501063,gps,2,0,37.555236799999996,127.04510769999999,49.779,0.00019600000000000002,0.0,0.0,0.0,0.00019600000000000002,0.0,0.0,0.0,0.000256,2
1733129530413920329,27773,1733129530374501064,gps,2,0,37.5552367,127.0451076,49.783,0.00019600000000000002,0.0,0.0,0.0,0.00019600000000000002,0.0,0.0,0.0,0.000225,2
1733129530536025362,27774,1733129530499501065,gps,2,0,37.555236799999996,127.0451075,49.766,0.00019600000000000002,0.0,0.0,0.0,0.00019600000000000002,0.0,0.0,0.0,0.000225,2
1733129530663886980,27775,1733129530624501066,gps,2,0,37.555236799999996,127.0451076,49.772,0.00019600000000000002,0.0,0.0,0.0,0.00019600000000000002,0.0,0.0,0.0,0.000225,2
1733129530787643458,27776,1733129530749501068,gps,2,0,37.555236799999996,127.0451076,49.776,0.00019600000000000002,0.0,0.0,0.0,0.00019600000000000002,0.0,0.0,0.0,0.000225,2
1733129530910945455,27777,1733129530874501069,gps,2,0,37.555236799999996,127.0451076,49.77,0.00019600000000000002,0.0,0.0,0.0,0.00019600000000000002,0.0,0.0,0.0,0.000225,2
1733129531041589763,27778,1733129530999501071,gps,2,0,37.5552367,127.0451076,49.774,0.00019600000000000002,0.0,0.0,0.0,0.00019600000000000002,0.0,0.0,0.0,0.000225,2
1733129531164068940,27779,1733129531124501071,gps,2,0,37.5552367,127.04510769999999,49.773,0.00019600000000000002,0.0,0.0,0.0,0.00019600000000000002,0.0,0.0,0.0,0.000225,2
1733129531289053900,27780,1733129531249501072,gps,2,0,37.555236799999996,127.04510769999999,49.778,0.00019600000000000002,0.0,0.0,0.0,0.00019600000000000002,0.0,0.0,0.0,0.000225,2
1733129531431913720,27781,1733129531374501073,gps,2,0,37.5552367,127.0451076,49.779,0.00019600000000000002,0.0,0.0,0.0,0.00019600000000000002,0.0,0.0,0.0,0.000225,2
1733129531537431014,27782,1733129531499501074,gps,2,0,37.5552367,127.0451076,49.782000000000004,0.00019600000000000002,0.0,0.0,0.0,0.00019600000000000002,0.0,0.0,0.0,0.000225,2
1733129531662819722,27783,1733129531624501075,gps,2,0,37.5552367,127.04510769999999,49.783,0.00019600000000000002,0.0,0.0,0.0,0.00019600000000000002,0.0,0.0,0.0,0.000225,2
1733129531786926550,27784,1733129531749501077,gps,2,0,37.555236799999996,127.0451076,49.787,0.00019600000000000002,0.0,0.0,0.0,0.00019600000000000002,0.0,0.0,0.0,0.000225,2
1733129531911481813,27785,1733129531874501078,gps,2,0,37.555236799999996,127.0451076,49.771,0.00019600000000000002,0.0,0.0,0.0,0.00019600000000000002,0.0,0.0,0.0,0.000225,2
1733129532041137531,27786,1733129531999501080,gps,2,0,37.5552367,127.0451076,49.761,0.00019600000000000002,0.0,0.0,0.0,0.00019600000000000002,0.0,0.0,0.0,0.000225,2
1733129532163744067,27787,1733129532124501080,gps,2,0,37.555236799999996,127.0451076,49.771,0.00019600000000000002,0.0,0.0,0.0,0.00019600000000000002,0.0,0.0,0.0,0.000225,2
1733129532289448848,27788,1733129532249501081,gps,2,0,37.5552367,127.0451076,49.773,0.00019600000000000002,0.0,0.0,0.0,0.00019600000000000002,0.0,0.0,0.0,0.000225,2
1733129532418080871,27789,1733129532374501082,gps,2,0,37.555236799999996,127.0451076,49.773,0.00019600000000000002,0.0,0.0,0.0,0.00019600000000000002,0.0,0.0,0.0,0.000225,2
1733129532537749827,27790,1733129532499501083,gps,2,0,37.555236799999996,127.04510769999999,49.765,0.00019600000000000002,0.0,0.0,0.0,0.00019600000000000002,0.0,0.0,0.0,0.000225,2
1733129532663979352,27791,1733129532624501084,gps,2,0,37.5552367,127.045108,49.766,0.00019600000000000002,0.0,0.0,0.0,0.00019600000000000002,0.0,0.0,0.0,0.000225,2
1733129532787562992,27792,1733129532749501085,gps,2,0,37.5552366,127.04510819999999,49.763,0.00019600000000000002,0.0,0.0,0.0,0.00019600000000000002,0.0,0.0,0.0,0.000225,2
1733129532911194153,27793,1733129532874501086,gps,2,0,37.5552365,127.04510859999999,49.764,0.00019600000000000002,0.0,0.0,0.0,0.00019600000000000002,0.0,0.0,0.0,0.000225,2
1733129533042187486,27794,1733129532999501089,gps,2,0,37.5552364,127.04510889999999,49.775,0.00019600000000000002,0.0,0.0,0.0,0.00019600000000000002,0.0,0.0,0.0,0.000225,2
1733129533163621165,27795,1733129533124501089,gps,2,0,37.5552363,127.0451095,49.77,0.00019600000000000002,0.0,0.0,0.0,0.00019600000000000002,0.0,0.0,0.0,0.000225,2
1733129533286050983,27796,1733129533249501090,gps,2,0,37.555236,127.04511,49.788000000000004,0.00019600000000000002,0.0,0.0,0.0,0.00019600000000000002,0.0,0.0,0.0,0.000225,2
1733129533437052178,27797,1733129533374501091,gps,2,0,37.555236,127.04511079999999,49.822,0.00019600000000000002,0.0,0.0,0.0,0.00019600000000000002,0.0,0.0,0.0,0.00019600000000000002,2
1733129533539510756,27798,1733129533499501092,gps,2,0,37.5552357,127.04511149999999,49.837,0.00019600000000000002,0.0,0.0,0.0,0.00019600000000000002,0.0,0.0,0.0,0.000169,2
1733129533665753305,27799,1733129533624501093,gps,2,0,37.555235499999995,127.0451123,49.842,0.00019600000000000002,0.0,0.0,0.0,0.00019600000000000002,0.0,0.0,0.0,0.000169,2
1733129533789477241,27800,1733129533749501094,gps,2,0,37.5552353,127.045113,49.846000000000004,0.00019600000000000002,0.0,0.0,0.0,0.00019600000000000002,0.0,0.0,0.0,0.000169,2
1733129533913989007,27801,1733129533874501095,gps,2,0,37.555234999999996,127.04511389999999,49.852000000000004,0.00019600000000000002,0.0,0.0,0.0,0.00019600000000000002,0.0,0.0,0.0,0.000169,2
1733129534044109140,27802,1733129533999501097,gps,2,0,37.5552347,127.0451148,49.852000000000004,0.00019600000000000002,0.0,0.0,0.0,0.00019600000000000002,0.0,0.0,0.0,0.000169,2
1733129534162065705,27803,1733129534124501097,gps,2,0,37.5552345,127.04511559999999,49.837,0.00019600000000000002,0.0,0.0,0.0,0.00019600000000000002,0.0,0.0,0.0,0.000169,2
1733129534296129579,27804,1733129534249501098,gps,2,0,37.5552342,127.0451166,49.834,0.00019600000000000002,0.0,0.0,0.0,0.00019600000000000002,0.0,0.0,0.0,0.000169,2
1733129534414332277,27805,1733129534374501099,gps,2,0,37.5552339,127.04511769999999,49.836,0.00019600000000000002,0.0,0.0,0.0,0.00019600000000000002,0.0,0.0,0.0,0.000169,2
1733129534537090973,27806,1733129534499501100,gps,2,0,37.5552336,127.0451186,49.822,0.00019600000000000002,0.0,0.0,0.0,0.00019600000000000002,0.0,0.0,0.0,0.000256,2
1733129534663146843,27807,1733129534624501101,gps,2,0,37.555233099999995,127.0451195,49.807,0.00019600000000000002,0.0,0.0,0.0,0.00019600000000000002,0.0,0.0,0.0,0.00032399999999999996,2
1733129534787431282,27808,1733129534749501102,gps,2,0,37.5552329,127.04512059999999,49.804,0.00019600000000000002,0.0,0.0,0.0,0.00019600000000000002,0.0,0.0,0.0,0.000361,2
1733129534910802620,27809,1733129534874501104,gps,2,0,37.5552324,127.0451219,49.807,0.00019600000000000002,0.0,0.0,0.0,0.00019600000000000002,0.0,0.0,0.0,0.0004,2
1733129535037822887,27810,1733129534999501106,gps,2,0,37.5552322,127.04512299999999,49.818,0.00019600000000000002,0.0,0.0,0.0,0.00019600000000000002,0.0,0.0,0.0,0.000361,2
1733129535164729112,27811,1733129535124501106,gps,2,0,37.555231899999995,127.0451241,49.806000000000004,0.00019600000000000002,0.0,0.0,0.0,0.00019600000000000002,0.0,0.0,0.0,0.0004,2
1733129535296986236,27812,1733129535249501107,gps,2,0,37.5552314,127.0451255,49.821,0.00019600000000000002,0.0,0.0,0.0,0.00019600000000000002,0.0,0.0,0.0,0.0004,2
1733129535436586039,27813,1733129535374501108,gps,2,0,37.555231,127.0451269,49.859,0.00019600000000000002,0.0,0.0,0.0,0.00019600000000000002,0.0,0.0,0.0,0.00019600000000000002,2
1733129535540147765,27814,1733129535499501109,gps,2,0,37.5552306,127.04512829999999,49.858000000000004,0.00019600000000000002,0.0,0.0,0.0,0.00019600000000000002,0.0,0.0,0.0,0.000169,2
1733129535665951202,27815,1733129535624501110,gps,2,0,37.5552302,127.0451296,49.858000000000004,0.00019600000000000002,0.0,0.0,0.0,0.00019600000000000002,0.0,0.0,0.0,0.000169,2
1733129535791017638,27816,1733129535749501111,gps,2,0,37.5552298,127.04513089999999,49.867000000000004,0.00019600000000000002,0.0,0.0,0.0,0.00019600000000000002,0.0,0.0,0.0,0.000169,2
1733129535911890554,27817,1733129535874501112,gps,2,0,37.5552293,127.0451324,49.882,0.00019600000000000002,0.0,0.0,0.0,0.00019600000000000002,0.0,0.0,0.0,0.000169,2
1733129536041965326,27818,1733129535999501114,gps,2,0,37.555228899999996,127.0451339,49.872,0.00019600000000000002,0.0,0.0,0.0,0.00019600000000000002,0.0,0.0,0.0,0.000169,2
1733129536164412085,27819,1733129536124501114,gps,2,0,37.5552284,127.0451353,49.868,0.00019600000000000002,0.0,0.0,0.0,0.00019600000000000002,0.0,0.0,0.0,0.000225,2
1733129536290621104,27820,1733129536249501115,gps,2,0,37.5552281,127.0451365,49.848,0.00019600000000000002,0.0,0.0,0.0,0.00019600000000000002,0.0,0.0,0.0,0.000225,2
1733129536414623882,27821,1733129536374501116,gps,2,0,37.555227599999995,127.04513809999999,49.84,0.00019600000000000002,0.0,0.0,0.0,0.00019600000000000002,0.0,0.0,0.0,0.000225,2
1733129536538600278,27822,1733129536499501117,gps,2,0,37.555227099999996,127.0451396,49.841,0.00019600000000000002,0.0,0.0,0.0,0.00019600000000000002,0.0,0.0,0.0,0.000225,2
1733129536663003503,27823,1733129536624501118,gps,2,0,37.5552267,127.0451411,49.826,0.00019600000000000002,0.0,0.0,0.0,0.00019600000000000002,0.0,0.0,0.0,0.000225,2
1733129536787015759,27824,1733129536749501120,gps,2,0,37.5552263,127.04514259999999,49.822,0.00019600000000000002,0.0,0.0,0.0,0.00019600000000000002,0.0,0.0,0.0,0.00028900000000000003,2
1733129536910108109,27825,1733129536874501121,gps,2,0,37.5552257,127.04514409999999,49.813,0.00019600000000000002,0.0,0.0,0.0,0.00019600000000000002,0.0,0.0,0.0,0.00032399999999999996,2
1733129537040885342,27826,1733129536999501123,gps,2,0,37.5552253,127.04514569999999,49.82,0.00019600000000000002,0.0,0.0,0.0,0.00019600000000000002,0.0,0.0,0.0,0.000361,2
1733129537163896943,27827,1733129537124501123,gps,2,0,37.5552248,127.04514739999999,49.824,0.00019600000000000002,0.0,0.0,0.0,0.00019600000000000002,0.0,0.0,0.0,0.000361,2
1733129537289014516,27828,1733129537249501124,gps,2,0,37.5552244,127.0451489,49.815,0.00019600000000000002,0.0,0.0,0.0,0.00019600000000000002,0.0,0.0,0.0,0.000361,2
1733129537433970162,27829,1733129537374501125,gps,2,0,37.555223999999995,127.0451506,49.813,0.00019600000000000002,0.0,0.0,0.0,0.00019600000000000002,0.0,0.0,0.0,0.00032399999999999996,2
1733129537537289812,27830,1733129537499501126,gps,2,0,37.5552235,127.04515219999999,49.825,0.00019600000000000002,0.0,0.0,0.0,0.00019600000000000002,0.0,0.0,0.0,0.000361,2
1733129537661864432,27831,1733129537624501127,gps,2,0,37.555223,127.0451538,49.800000000000004,0.00019600000000000002,0.0,0.0,0.0,0.00019600000000000002,0.0,0.0,0.0,0.000361,2
1733129537783595332,27832,1733129537749501128,gps,2,0,37.5552226,127.04515549999999,49.797000000000004,0.00019600000000000002,0.0,0.0,0.0,0.00019600000000000002,0.0,0.0,0.0,0.000361,2
1733129537911192697,27833,1733129537874501129,gps,2,0,37.5552221,127.04515719999999,49.800000000000004,0.00019600000000000002,0.0,0.0,0.0,0.00019600000000000002,0.0,0.0,0.0,0.000361,2
1733129538041547221,27834,1733129537999501131,gps,2,0,37.555221599999996,127.04515909999999,49.817,0.00019600000000000002,0.0,0.0,0.0,0.00019600000000000002,0.0,0.0,0.0,0.000361,2
1733129538164164290,27835,1733129538124501131,gps,2,0,37.5552213,127.04516079999999,49.82,0.00019600000000000002,0.0,0.0,0.0,0.00019600000000000002,0.0,0.0,0.0,0.000361,2
1733129538290652234,27836,1733129538249501132,gps,2,0,37.5552208,127.0451626,49.832,0.00019600000000000002,0.0,0.0,0.0,0.00019600000000000002,0.0,0.0,0.0,0.000361,2
1733129538413873349,27837,1733129538374501133,gps,2,0,37.555220299999995,127.0451645,49.870000000000005,0.00019600000000000002,0.0,0.0,0.0,0.00019600000000000002,0.0,0.0,0.0,0.00019600000000000002,2
1733129538539599830,27838,1733129538499501134,gps,2,0,37.555219799999996,127.04516629999999,49.894,0.00019600000000000002,0.0,0.0,0.0,0.00019600000000000002,0.0,0.0,0.0,0.000169,2
1733129538662711104,27839,1733129538624501135,gps,2,0,37.5552194,127.0451681,49.897,0.00019600000000000002,0.0,0.0,0.0,0.00019600000000000002,0.0,0.0,0.0,0.000169,2
1733129538789030424,27840,1733129538749501137,gps,2,0,37.5552189,127.04516989999999,49.897,0.00019600000000000002,0.0,0.0,0.0,0.00019600000000000002,0.0,0.0,0.0,0.000169,2
1733129538910771638,27841,1733129538874501138,gps,2,0,37.555218499999995,127.04517159999999,49.879,0.00019600000000000002,0.0,0.0,0.0,0.00019600000000000002,0.0,0.0,0.0,0.000169,2
1733129539042029442,27842,1733129538999501140,gps,2,0,37.555217999999996,127.0451734,49.897,0.00019600000000000002,0.0,0.0,0.0,0.00019600000000000002,0.0,0.0,0.0,0.000169,2
1733129539163058288,27843,1733129539124501140,gps,2,0,37.5552177,127.04517519999999,49.895,0.00019600000000000002,0.0,0.0,0.0,0.00019600000000000002,0.0,0.0,0.0,0.00019600000000000002,2
1733129539296535458,27844,1733129539249501141,gps,2,0,37.5552172,127.045177,49.88,0.00019600000000000002,0.0,0.0,0.0,0.00019600000000000002,0.0,0.0,0.0,0.00019600000000000002,2
1733129539435914675,27845,1733129539374501142,gps,2,0,37.5552168,127.0451787,49.892,0.00019600000000000002,0.0,0.0,0.0,0.00019600000000000002,0.0,0.0,0.0,0.00019600000000000002,2
1733129539535888899,27846,1733129539499501143,gps,2,0,37.5552163,127.0451805,49.894,0.00019600000000000002,0.0,0.0,0.0,0.00019600000000000002,0.0,0.0,0.0,0.00019600000000000002,2
1733129539664344464,27847,1733129539624501144,gps,2,0,37.5552159,127.0451823,49.908,0.00019600000000000002,0.0,0.0,0.0,0.00019600000000000002,0.0,0.0,0.0,0.00019600000000000002,2
1733129539787468519,27848,1733129539749501145,gps,2,0,37.5552154,127.04518399999999,49.901,0.00019600000000000002,0.0,0.0,0.0,0.00019600000000000002,0.0,0.0,0.0,0.00019600000000000002,2
1733129539911716224,27849,1733129539874501146,gps,2,0,37.555214899999996,127.0451858,49.910000000000004,0.00019600000000000002,0.0,0.0,0.0,0.00019600000000000002,0.0,0.0,0.0,0.00019600000000000002,2
1733129540042919250,27850,1733129539999501148,gps,2,0,37.5552145,127.0451875,49.915,0.00019600000000000002,0.0,0.0,0.0,0.00019600000000000002,0.0,0.0,0.0,0.00019600000000000002,2
1733129540165466067,27851,1733129540124501148,gps,2,0,37.555214,127.0451894,49.914,0.00019600000000000002,0.0,0.0,0.0,0.00019600000000000002,0.0,0.0,0.0,0.00019600000000000002,2
1733129540291531009,27852,1733129540249501149,gps,2,0,37.5552135,127.04519099999999,49.901,0.00019600000000000002,0.0,0.0,0.0,0.00019600000000000002,0.0,0.0,0.0,0.00019600000000000002,2
1733129540413754313,27853,1733129540374501150,gps,2,0,37.555212999999995,127.0451928,49.901,0.00019600000000000002,0.0,0.0,0.0,0.00019600000000000002,0.0,0.0,0.0,0.00019600000000000002,2
1733129540540116879,27854,1733129540499501151,gps,2,0,37.5552126,127.04519459999999,49.911,0.00019600000000000002,0.0,0.0,0.0,0.00019600000000000002,0.0,0.0,0.0,0.00019600000000000002,2
1733129540664613883,27855,1733129540624501152,gps,2,0,37.555212,127.0451963,49.917,0.00019600000000000002,0.0,0.0,0.0,0.00019600000000000002,0.0,0.0,0.0,0.00019600000000000002,2
1733129540789085495,27856,1733129540749501154,gps,2,0,37.5552116,127.0451981,49.896,0.00019600000000000002,0.0,0.0,0.0,0.00019600000000000002,0.0,0.0,0.0,0.00019600000000000002,2
1733129540913917595,27857,1733129540874501155,gps,2,0,37.5552111,127.04519979999999,49.901,0.00019600000000000002,0.0,0.0,0.0,0.00019600000000000002,0.0,0.0,0.0,0.00019600000000000002,2
1733129541043649636,27858,1733129540999501157,gps,2,0,37.555210599999995,127.04520149999999,49.906,0.00019600000000000002,0.0,0.0,0.0,0.00019600000000000002,0.0,0.0,0.0,0.00019600000000000002,2
1733129541164872535,27859,1733129541124501157,gps,2,0,37.555209999999995,127.0452033,49.917,0.00019600000000000002,0.0,0.0,0.0,0.00019600000000000002,0.0,0.0,0.0,0.00019600000000000002,2
1733129541297194108,27860,1733129541249501158,gps,2,0,37.5552096,127.045205,49.904,0.00019600000000000002,0.0,0.0,0.0,0.00019600000000000002,0.0,0.0,0.0,0.000169,2
1733129541437546991,27861,1733129541374501159,gps,2,0,37.555209,127.0452067,49.907000000000004,0.00019600000000000002,0.0,0.0,0.0,0.00019600000000000002,0.0,0.0,0.0,0.000144,2
1733129541540822488,27862,1733129541499501160,gps,2,0,37.5552085,127.0452085,49.908,0.00019600000000000002,0.0,0.0,0.0,0.00019600000000000002,0.0,0.0,0.0,0.000144,2
1733129541666002573,27863,1733129541624501161,gps,2,0,37.555208,127.04521009999999,49.914,0.00019600000000000002,0.0,0.0,0.0,0.00019600000000000002,0.0,0.0,0.0,0.000144,2
1733129541789020078,27864,1733129541749501162,gps,2,0,37.5552073,127.0452119,49.915,0.00019600000000000002,0.0,0.0,0.0,0.00019600000000000002,0.0,0.0,0.0,0.000169,2
1733129541913117060,27865,1733129541874501163,gps,2,0,37.5552069,127.04521349999999,49.922000000000004,0.00019600000000000002,0.0,0.0,0.0,0.00019600000000000002,0.0,0.0,0.0,0.000169,2
1733129542044025987,27866,1733129541999501165,gps,2,0,37.555206399999996,127.04521539999999,49.921,0.00019600000000000002,0.0,0.0,0.0,0.00019600000000000002,0.0,0.0,0.0,0.000169,2
1733129542164619812,27867,1733129542124501165,gps,2,0,37.555205799999996,127.04521709999999,49.903,0.00019600000000000002,0.0,0.0,0.0,0.00019600000000000002,0.0,0.0,0.0,0.00019600000000000002,2
1733129542293005677,27868,1733129542249501167,gps,2,0,37.5552053,127.0452188,49.896,0.00019600000000000002,0.0,0.0,0.0,0.00019600000000000002,0.0,0.0,0.0,0.00019600000000000002,2
1733129542414899276,27869,1733129542374501168,gps,2,0,37.5552047,127.0452203,49.882,0.00019600000000000002,0.0,0.0,0.0,0.00019600000000000002,0.0,0.0,0.0,0.000169,2
1733129542540057020,27870,1733129542499501169,gps,2,0,37.5552042,127.04522209999999,49.889,0.00019600000000000002,0.0,0.0,0.0,0.00019600000000000002,0.0,0.0,0.0,0.000169,2
1733129542663788971,27871,1733129542624501170,gps,2,0,37.5552037,127.0452239,49.886,0.00019600000000000002,0.0,0.0,0.0,0.00019600000000000002,0.0,0.0,0.0,0.000169,2
1733129542788559472,27872,1733129542749501171,gps,2,0,37.5552031,127.0452256,49.885,0.00019600000000000002,0.0,0.0,0.0,0.00019600000000000002,0.0,0.0,0.0,0.000169,2
1733129542911063112,27873,1733129542874501172,gps,2,0,37.5552026,127.04522739999999,49.893,0.00019600000000000002,0.0,0.0,0.0,0.00019600000000000002,0.0,0.0,0.0,0.000169,2
1733129543042708314,27874,1733129542999501174,gps,2,0,37.5552022,127.0452292,49.895,0.00019600000000000002,0.0,0.0,0.0,0.00019600000000000002,0.0,0.0,0.0,0.000169,2
1733129543162904369,27875,1733129543124501174,gps,2,0,37.5552016,127.0452308,49.894,0.00019600000000000002,0.0,0.0,0.0,0.00019600000000000002,0.0,0.0,0.0,0.000169,2
1733129543291125170,27876,1733129543249501175,gps,2,0,37.5552011,127.04523259999999,49.898,0.00019600000000000002,0.0,0.0,0.0,0.00019600000000000002,0.0,0.0,0.0,0.000169,2
1733129543440392104,27877,1733129543374501176,gps,2,0,37.5552006,127.04523429999999,49.884,0.00019600000000000002,0.0,0.0,0.0,0.00019600000000000002,0.0,0.0,0.0,0.000144,2
1733129543539678519,27878,1733129543499501177,gps,2,0,37.5552001,127.0452361,49.881,0.00019600000000000002,0.0,0.0,0.0,0.00019600000000000002,0.0,0.0,0.0,0.000144,2
1733129543665214963,27879,1733129543624501178,gps,2,0,37.5551996,127.0452378,49.884,0.00019600000000000002,0.0,0.0,0.0,0.00019600000000000002,0.0,0.0,0.0,0.000144,2
1733129543788988073,27880,1733129543749501180,gps,2,0,37.555199099999996,127.0452394,49.883,0.00019600000000000002,0.0,0.0,0.0,0.00019600000000000002,0.0,0.0,0.0,0.000144,2
1733129543914212377,27881,1733129543874501181,gps,2,0,37.5551987,127.0452413,49.878,0.00019600000000000002,0.0,0.0,0.0,0.00019600000000000002,0.0,0.0,0.0,0.000144,2
1733129544040641518,27882,1733129543999501183,gps,2,0,37.5551982,127.0452431,49.884,0.00019600000000000002,0.0,0.0,0.0,0.00019600000000000002,0.0,0.0,0.0,0.000144,2
1733129544165758836,27883,1733129544124501183,gps,2,0,37.5551977,127.04524479999999,49.889,0.00019600000000000002,0.0,0.0,0.0,0.00019600000000000002,0.0,0.0,0.0,0.000144,2
1733129544297628582,27884,1733129544249501184,gps,2,0,37.555197299999996,127.0452466,49.888,0.00019600000000000002,0.0,0.0,0.0,0.00019600000000000002,0.0,0.0,0.0,0.000144,2
1733129544415346579,27885,1733129544374501185,gps,2,0,37.5551968,127.0452483,49.893,0.00019600000000000002,0.0,0.0,0.0,0.00019600000000000002,0.0,0.0,0.0,0.00012099999999999999,2
1733129544540075342,27886,1733129544499501186,gps,2,0,37.5551963,127.04525009999999,49.896,0.00019600000000000002,0.0,0.0,0.0,0.00019600000000000002,0.0,0.0,0.0,0.00012099999999999999,2
1733129544665884427,27887,1733129544624501187,gps,2,0,37.5551958,127.0452519,49.892,0.00019600000000000002,0.0,0.0,0.0,0.00019600000000000002,0.0,0.0,0.0,0.00012099999999999999,2
1733129544790438258,27888,1733129544749501188,gps,2,0,37.555195399999995,127.04525369999999,49.9,0.00019600000000000002,0.0,0.0,0.0,0.00019600000000000002,0.0,0.0,0.0,0.00012099999999999999,2
1733129544915143402,27889,1733129544874501189,gps,2,0,37.555195,127.0452555,49.897,0.00019600000000000002,0.0,0.0,0.0,0.00019600000000000002,0.0,0.0,0.0,0.00012099999999999999,2
1733129545044936925,27890,1733129544999501192,gps,2,0,37.5551946,127.0452572,49.896,0.00019600000000000002,0.0,0.0,0.0,0.00019600000000000002,0.0,0.0,0.0,0.00012099999999999999,2
1733129545167062316,27891,1733129545124501192,gps,2,0,37.555194,127.0452589,49.903,0.00019600000000000002,0.0,0.0,0.0,0.00019600000000000002,0.0,0.0,0.0,0.00012099999999999999,2
1733129545294152698,27892,1733129545249501193,gps,2,0,37.5551937,127.0452608,49.898,0.00019600000000000002,0.0,0.0,0.0,0.00019600000000000002,0.0,0.0,0.0,0.00012099999999999999,2
1733129545443925222,27893,1733129545374501194,gps,2,0,37.5551933,127.0452626,49.887,0.00019600000000000002,0.0,0.0,0.0,0.00019600000000000002,0.0,0.0,0.0,0.00012099999999999999,2
1733129545542908883,27894,1733129545499501195,gps,2,0,37.5551929,127.0452643,49.889,0.00019600000000000002,0.0,0.0,0.0,0.00019600000000000002,0.0,0.0,0.0,0.00012099999999999999,2
1733129545666714103,27895,1733129545624501196,gps,2,0,37.555192399999996,127.04526609999999,49.881,0.00019600000000000002,0.0,0.0,0.0,0.00019600000000000002,0.0,0.0,0.0,0.00012099999999999999,2
1733129545790144644,27896,1733129545749501197,gps,2,0,37.5551919,127.04526779999999,49.888,0.00019600000000000002,0.0,0.0,0.0,0.00019600000000000002,0.0,0.0,0.0,0.00012099999999999999,2
1733129545912949862,27897,1733129545874501199,gps,2,0,37.5551915,127.0452696,49.882,0.00019600000000000002,0.0,0.0,0.0,0.00019600000000000002,0.0,0.0,0.0,0.00012099999999999999,2
1733129546044945293,27898,1733129545999501201,gps,2,0,37.555191,127.0452713,49.886,0.00019600000000000002,0.0,0.0,0.0,0.00019600000000000002,0.0,0.0,0.0,0.00012099999999999999,2
1733129546166111549,27899,1733129546124501201,gps,2,0,37.5551907,127.0452732,49.895,0.00019600000000000002,0.0,0.0,0.0,0.00019600000000000002,0.0,0.0,0.0,0.00012099999999999999,2
1733129546293157596,27900,1733129546249501202,gps,2,0,37.5551902,127.04527499999999,49.906,0.00019600000000000002,0.0,0.0,0.0,0.00019600000000000002,0.0,0.0,0.0,0.00012099999999999999,2
1733129546417693182,27901,1733129546374501203,gps,2,0,37.5551898,127.04527669999999,49.891,0.00019600000000000002,0.0,0.0,0.0,0.00019600000000000002,0.0,0.0,0.0,0.00012099999999999999,2
1733129546541516972,27902,1733129546499501204,gps,2,0,37.555189299999995,127.0452785,49.886,0.00019600000000000002,0.0,0.0,0.0,0.00019600000000000002,0.0,0.0,0.0,0.00012099999999999999,2
1733129546665886078,27903,1733129546624501206,gps,2,0,37.5551889,127.04528029999999,49.886,0.00019600000000000002,0.0,0.0,0.0,0.00019600000000000002,0.0,0.0,0.0,0.00012099999999999999,2
1733129546786220334,27904,1733129546749501207,gps,2,0,37.5551884,127.045282,49.891,0.00019600000000000002,0.0,0.0,0.0,0.00019600000000000002,0.0,0.0,0.0,0.00012099999999999999,2
1733129546915928254,27905,1733129546874501208,gps,2,0,37.555188,127.04528379999999,49.893,0.00019600000000000002,0.0,0.0,0.0,0.00019600000000000002,0.0,0.0,0.0,0.00012099999999999999,2
1733129547045089300,27906,1733129546999501210,gps,2,0,37.555187499999995,127.0452856,49.89,0.00019600000000000002,0.0,0.0,0.0,0.00019600000000000002,0.0,0.0,0.0,0.00012099999999999999,2
1733129547166048752,27907,1733129547124501211,gps,2,0,37.555187,127.0452873,49.886,0.00019600000000000002,0.0,0.0,0.0,0.00019600000000000002,0.0,0.0,0.0,0.00012099999999999999,2
1733129547291095342,27908,1733129547249501212,gps,2,0,37.5551865,127.045289,49.901,0.00019600000000000002,0.0,0.0,0.0,0.00019600000000000002,0.0,0.0,0.0,0.00012099999999999999,2
1733129547434949767,27909,1733129547374501213,gps,2,0,37.5551862,127.04529079999999,49.898,0.00019600000000000002,0.0,0.0,0.0,0.00019600000000000002,0.0,0.0,0.0,0.00012099999999999999,2
1733129547542049504,27910,1733129547499501214,gps,2,0,37.5551855,127.04529249999999,49.904,0.00019600000000000002,0.0,0.0,0.0,0.00019600000000000002,0.0,0.0,0.0,0.00012099999999999999,2
1733129547664122390,27911,1733129547624501215,gps,2,0,37.555185099999996,127.0452943,49.9,0.00019600000000000002,0.0,0.0,0.0,0.00019600000000000002,0.0,0.0,0.0,0.00012099999999999999,2
1733129547793558667,27912,1733129547749501217,gps,2,0,37.5551846,127.04529609999999,49.902,0.00019600000000000002,0.0,0.0,0.0,0.00019600000000000002,0.0,0.0,0.0,0.00012099999999999999,2
1733129547916045360,27913,1733129547874501218,gps,2,0,37.5551841,127.0452978,49.888,0.00019600000000000002,0.0,0.0,0.0,0.00019600000000000002,0.0,0.0,0.0,0.00012099999999999999,2
1733129548046233397,27914,1733129547999501220,gps,2,0,37.5551835,127.04529939999999,49.892,0.00019600000000000002,0.0,0.0,0.0,0.00019600000000000002,0.0,0.0,0.0,0.00012099999999999999,2
1733129548167178673,27915,1733129548124501220,gps,2,0,37.555183,127.0453012,49.894,0.00019600000000000002,0.0,0.0,0.0,0.00019600000000000002,0.0,0.0,0.0,0.00012099999999999999,2
1733129548299768857,27916,1733129548249501221,gps,2,0,37.5551824,127.0453029,49.896,0.00019600000000000002,0.0,0.0,0.0,0.00019600000000000002,0.0,0.0,0.0,0.00012099999999999999,2
1733129548419194488,27917,1733129548374501223,gps,2,0,37.5551819,127.04530469999999,49.891,0.00019600000000000002,0.0,0.0,0.0,0.00019600000000000002,0.0,0.0,0.0,0.00012099999999999999,2
1733129548540898613,27918,1733129548499501224,gps,2,0,37.555181399999995,127.0453064,49.886,0.00019600000000000002,0.0,0.0,0.0,0.00019600000000000002,0.0,0.0,0.0,0.00012099999999999999,2
1733129548668892881,27919,1733129548624501225,gps,2,0,37.555180799999995,127.0453081,49.892,0.00019600000000000002,0.0,0.0,0.0,0.00019600000000000002,0.0,0.0,0.0,0.0001,2
1733129548792217883,27920,1733129548749501226,gps,2,0,37.555180299999996,127.04530989999999,49.887,0.00019600000000000002,0.0,0.0,0.0,0.00019600000000000002,0.0,0.0,0.0,0.00012099999999999999,2
1733129548916945026,27921,1733129548874501228,gps,2,0,37.5551798,127.04531159999999,49.889,0.00019600000000000002,0.0,0.0,0.0,0.00019600000000000002,0.0,0.0,0.0,0.00012099999999999999,2
1733129549047699838,27922,1733129548999501230,gps,2,0,37.5551793,127.04531329999999,49.89,0.00019600000000000002,0.0,0.0,0.0,0.00019600000000000002,0.0,0.0,0.0,0.0001,2
1733129549169225386,27923,1733129549124501230,gps,2,0,37.5551787,127.0453151,49.885,0.00019600000000000002,0.0,0.0,0.0,0.00019600000000000002,0.0,0.0,0.0,0.0001,2
1733129549295614586,27924,1733129549249501231,gps,2,0,37.5551782,127.0453168,49.893,0.00019600000000000002,0.0,0.0,0.0,0.00019600000000000002,0.0,0.0,0.0,0.0001,2
1733129549445120800,27925,1733129549374501233,gps,2,0,37.5551776,127.0453185,49.89,0.00019600000000000002,0.0,0.0,0.0,0.00019600000000000002,0.0,0.0,0.0,0.0001,2
1733129549542167909,27926,1733129549499501234,gps,2,0,37.555177,127.04532019999999,49.884,0.00019600000000000002,0.0,0.0,0.0,0.00019600000000000002,0.0,0.0,0.0,0.0001,2
1733129549666772255,27927,1733129549624501235,gps,2,0,37.5551765,127.045322,49.878,0.00019600000000000002,0.0,0.0,0.0,0.00019600000000000002,0.0,0.0,0.0,0.0001,2
1733129549790670061,27928,1733129549749501236,gps,2,0,37.5551759,127.0453237,49.885,0.00019600000000000002,0.0,0.0,0.0,0.00019600000000000002,0.0,0.0,0.0,0.0001,2
1733129549915731733,27929,1733129549874501238,gps,2,0,37.5551755,127.0453254,49.887,0.00019600000000000002,0.0,0.0,0.0,0.00019600000000000002,0.0,0.0,0.0,0.0001,2
1733129550045745481,27930,1733129549999501240,gps,2,0,37.555174799999996,127.0453271,49.874,0.00019600000000000002,0.0,0.0,0.0,0.00019600000000000002,0.0,0.0,0.0,0.0001,2
1733129550168139151,27931,1733129550124501240,gps,2,0,37.555174199999996,127.0453288,49.882,0.00019600000000000002,0.0,0.0,0.0,0.00019600000000000002,0.0,0.0,0.0,0.0001,2
1733129550293267278,27932,1733129550249501241,gps,2,0,37.5551738,127.0453306,49.875,0.00019600000000000002,0.0,0.0,0.0,0.00019600000000000002,0.0,0.0,0.0,0.0001,2
1733129550416696475,27933,1733129550374501243,gps,2,0,37.5551733,127.0453323,49.879,0.00019600000000000002,0.0,0.0,0.0,0.00019600000000000002,0.0,0.0,0.0,0.0001,2
1733129550543888792,27934,1733129550499501244,gps,2,0,37.5551728,127.0453342,49.885,0.00019600000000000002,0.0,0.0,0.0,0.00019600000000000002,0.0,0.0,0.0,0.0001,2
1733129550669148889,27935,1733129550624501245,gps,2,0,37.555172299999995,127.0453359,49.883,0.00019600000000000002,0.0,0.0,0.0,0.00019600000000000002,0.0,0.0,0.0,0.0001,2
1733129550793868815,27936,1733129550749501246,gps,2,0,37.555171699999995,127.0453376,49.875,0.00019600000000000002,0.0,0.0,0.0,0.00019600000000000002,0.0,0.0,0.0,0.0001,2
1733129550917530576,27937,1733129550874501248,gps,2,0,37.5551713,127.0453393,49.871,0.00019600000000000002,0.0,0.0,0.0,0.00019600000000000002,0.0,0.0,0.0,0.0001,2
1733129551047124171,27938,1733129550999501250,gps,2,0,37.5551708,127.045341,49.873,0.00019600000000000002,0.0,0.0,0.0,0.00019600000000000002,0.0,0.0,0.0,0.0001,2
1733129551169534865,27939,1733129551124501250,gps,2,0,37.5551704,127.0453428,49.875,0.00019600000000000002,0.0,0.0,0.0,0.00019600000000000002,0.0,0.0,0.0,0.0001,2
1733129551298968136,27940,1733129551249501251,gps,2,0,37.555169899999996,127.04534459999999,49.877,0.00019600000000000002,0.0,0.0,0.0,0.00019600000000000002,0.0,0.0,0.0,0.0001,2
1733129551448055809,27941,1733129551374501253,gps,2,0,37.5551694,127.0453464,49.88,0.00019600000000000002,0.0,0.0,0.0,0.00019600000000000002,0.0,0.0,0.0,0.0001,2
1733129551546606335,27942,1733129551499501254,gps,2,0,37.555169,127.0453481,49.878,0.00019600000000000002,0.0,0.0,0.0,0.00019600000000000002,0.0,0.0,0.0,0.0001,2
1733129551670004269,27943,1733129551624501255,gps,2,0,37.5551685,127.04534989999999,49.872,0.00019600000000000002,0.0,0.0,0.0,0.00019600000000000002,0.0,0.0,0.0,0.0001,2
1733129551794864443,27944,1733129551749501257,gps,2,0,37.555168099999996,127.0453517,49.869,0.00019600000000000002,0.0,0.0,0.0,0.00019600000000000002,0.0,0.0,0.0,0.0001,2
1733129551918169619,27945,1733129551874501258,gps,2,0,37.5551676,127.0453534,49.870000000000005,0.00019600000000000002,0.0,0.0,0.0,0.00019600000000000002,0.0,0.0,0.0,0.0001,2
1733129552048965771,27946,1733129551999501260,gps,2,0,37.5551672,127.04535519999999,49.876,0.00019600000000000002,0.0,0.0,0.0,0.00019600000000000002,0.0,0.0,0.0,0.0001,2
1733129552166760314,27947,1733129552124501261,gps,2,0,37.555166899999996,127.045357,49.873,0.00019600000000000002,0.0,0.0,0.0,0.00019600000000000002,0.0,0.0,0.0,0.0001,2
1733129552297220227,27948,1733129552249501262,gps,2,0,37.5551665,127.04535879999999,49.871,0.00019600000000000002,0.0,0.0,0.0,0.00019600000000000002,0.0,0.0,0.0,0.0001,2
1733129552420088955,27949,1733129552374501263,gps,2,0,37.5551661,127.0453605,49.879,0.00019600000000000002,0.0,0.0,0.0,0.00019600000000000002,0.0,0.0,0.0,0.0001,2
1733129552544223476,27950,1733129552499501265,gps,2,0,37.555165599999995,127.04536239999999,49.882,0.00019600000000000002,0.0,0.0,0.0,0.00019600000000000002,0.0,0.0,0.0,0.0001,2
1733129552669169493,27951,1733129552624501266,gps,2,0,37.5551652,127.0453641,49.886,0.00019600000000000002,0.0,0.0,0.0,0.00019600000000000002,0.0,0.0,0.0,0.0001,2
1733129552794718006,27952,1733129552749501267,gps,2,0,37.5551648,127.0453659,49.88,0.00019600000000000002,0.0,0.0,0.0,0.00019600000000000002,0.0,0.0,0.0,0.0001,2
1733129552918754233,27953,1733129552874501269,gps,2,0,37.555164399999995,127.04536759999999,49.881,0.00019600000000000002,0.0,0.0,0.0,0.00019600000000000002,0.0,0.0,0.0,0.0001,2
1733129553044551933,27954,1733129552999501271,gps,2,0,37.5551639,127.04536949999999,49.874,0.00019600000000000002,0.0,0.0,0.0,0.00019600000000000002,0.0,0.0,0.0,0.0001,2
1733129553171036208,27955,1733129553124501271,gps,2,0,37.5551634,127.0453713,49.882,0.00019600000000000002,0.0,0.0,0.0,0.00019600000000000002,0.0,0.0,0.0,0.0001,2
1733129553296889395,27956,1733129553249501273,gps,2,0,37.555163,127.045373,49.886,0.00019600000000000002,0.0,0.0,0.0,0.00019600000000000002,0.0,0.0,0.0,0.0001,2
1733129553446594264,27957,1733129553374501274,gps,2,0,37.555162599999996,127.04537479999999,49.889,0.00019600000000000002,0.0,0.0,0.0,0.00019600000000000002,0.0,0.0,0.0,0.0001,2
1733129553543969579,27958,1733129553499501275,gps,2,0,37.5551622,127.0453766,49.872,0.00019600000000000002,0.0,0.0,0.0,0.00019600000000000002,0.0,0.0,0.0,0.0001,2
1733129553669696387,27959,1733129553624501277,gps,2,0,37.5551617,127.04537839999999,49.868,0.00019600000000000002,0.0,0.0,0.0,0.00019600000000000002,0.0,0.0,0.0,0.0001,2
1733129553794599244,27960,1733129553749501278,gps,2,0,37.5551612,127.04538009999999,49.866,0.00019600000000000002,0.0,0.0,0.0,0.00019600000000000002,0.0,0.0,0.0,0.0001,2
1733129553916393462,27961,1733129553874501280,gps,2,0,37.555160799999996,127.0453819,49.868,0.00019600000000000002,0.0,0.0,0.0,0.00019600000000000002,0.0,0.0,0.0,0.0001,2
1733129554047467084,27962,1733129553999501282,gps,2,0,37.5551603,127.04538369999999,49.883,0.00019600000000000002,0.0,0.0,0.0,0.00019600000000000002,0.0,0.0,0.0,0.0001,2
1733129554168912533,27963,1733129554124501282,gps,2,0,37.5551597,127.0453854,49.887,0.00019600000000000002,0.0,0.0,0.0,0.00019600000000000002,0.0,0.0,0.0,0.0001,2
1733129554295887426,27964,1733129554249501284,gps,2,0,37.5551593,127.0453871,49.882,0.00019600000000000002,0.0,0.0,0.0,0.00019600000000000002,0.0,0.0,0.0,0.0001,2
1733129554420484591,27965,1733129554374501285,gps,2,0,37.555158899999995,127.04538889999999,49.872,0.00019600000000000002,0.0,0.0,0.0,0.00019600000000000002,0.0,0.0,0.0,0.0001,2
1733129554544822768,27966,1733129554499501286,gps,2,0,37.555158299999995,127.04539059999999,49.876,0.00019600000000000002,0.0,0.0,0.0,0.00019600000000000002,0.0,0.0,0.0,0.0001,2
1733129554668511067,27967,1733129554624501288,gps,2,0,37.555157799999996,127.04539229999999,49.878,0.00019600000000000002,0.0,0.0,0.0,0.00019600000000000002,0.0,0.0,0.0,0.0001,2
1733129554792721700,27968,1733129554749501289,gps,2,0,37.5551572,127.04539399999999,49.870000000000005,0.00019600000000000002,0.0,0.0,0.0,0.00019600000000000002,0.0,0.0,0.0,0.0001,2
1733129554916180604,27969,1733129554874501291,gps,2,0,37.5551567,127.0453958,49.878,0.00019600000000000002,0.0,0.0,0.0,0.00019600000000000002,0.0,0.0,0.0,0.0001,2
1733129555046596051,27970,1733129554999501293,gps,2,0,37.5551561,127.0453976,49.877,0.00019600000000000002,0.0,0.0,0.0,0.00019600000000000002,0.0,0.0,0.0,0.0001,2
1733129555168651917,27971,1733129555124501293,gps,2,0,37.5551556,127.0453993,49.872,0.00019600000000000002,0.0,0.0,0.0,0.00019600000000000002,0.0,0.0,0.0,0.0001,2
1733129555296544758,27972,1733129555249501295,gps,2,0,37.5551551,127.045401,49.88,0.00019600000000000002,0.0,0.0,0.0,0.00019600000000000002,0.0,0.0,0.0,0.0001,2
1733129555432060285,27973,1733129555374501296,gps,2,0,37.5551545,127.04540279999999,49.879,0.00019600000000000002,0.0,0.0,0.0,0.00019600000000000002,0.0,0.0,0.0,0.0001,2
1733129555542823718,27974,1733129555499501298,gps,2,0,37.555154,127.04540449999999,49.887,0.00019600000000000002,0.0,0.0,0.0,0.00019600000000000002,0.0,0.0,0.0,0.0001,2
1733129555668187122,27975,1733129555624501299,gps,2,0,37.5551534,127.0454063,49.884,0.00019600000000000002,0.0,0.0,0.0,0.00019600000000000002,0.0,0.0,0.0,0.0001,2
1733129555789252364,27976,1733129555749501300,gps,2,0,37.555152799999995,127.0454079,49.874,0.00019600000000000002,0.0,0.0,0.0,0.00019600000000000002,0.0,0.0,0.0,0.0001,2
1733129555917878886,27977,1733129555874501302,gps,2,0,37.5551524,127.0454096,49.870000000000005,0.00019600000000000002,0.0,0.0,0.0,0.00019600000000000002,0.0,0.0,0.0,0.0001,2
1733129556047153599,27978,1733129555999501304,gps,2,0,37.5551518,127.04541139999999,49.873,0.00019600000000000002,0.0,0.0,0.0,0.00019600000000000002,0.0,0.0,0.0,0.0001,2
1733129556167960125,27979,1733129556124501305,gps,2,0,37.5551512,127.04541309999999,49.870000000000005,0.00019600000000000002,0.0,0.0,0.0,0.00019600000000000002,0.0,0.0,0.0,0.0001,2
1733129556293799718,27980,1733129556249501306,gps,2,0,37.5551507,127.04541479999999,49.874,0.00019600000000000002,0.0,0.0,0.0,0.00019600000000000002,0.0,0.0,0.0,0.0001,2
1733129556418075117,27981,1733129556374501308,gps,2,0,37.5551501,127.04541649999999,49.879,0.00019600000000000002,0.0,0.0,0.0,0.00019600000000000002,0.0,0.0,0.0,0.0001,2
1733129556543727273,27982,1733129556499501309,gps,2,0,37.5551496,127.0454183,49.882,0.00019600000000000002,0.0,0.0,0.0,0.00019600000000000002,0.0,0.0,0.0,0.0001,2
1733129556665012247,27983,1733129556624501310,gps,2,0,37.555149,127.04542,49.88,0.00019600000000000002,0.0,0.0,0.0,0.00019600000000000002,0.0,0.0,0.0,0.0001,2
1733129556794300352,27984,1733129556749501312,gps,2,0,37.555148599999995,127.0454218,49.894,0.00019600000000000002,0.0,0.0,0.0,0.00019600000000000002,0.0,0.0,0.0,0.0001,2
1733129556917133482,27985,1733129556874501313,gps,2,0,37.5551481,127.0454235,49.889,0.00019600000000000002,0.0,0.0,0.0,0.00019600000000000002,0.0,0.0,0.0,0.0001,2
1733129557047637516,27986,1733129556999501316,gps,2,0,37.5551476,127.0454254,49.884,0.00019600000000000002,0.0,0.0,0.0,0.00019600000000000002,0.0,0.0,0.0,0.0001,2
1733129557168554724,27987,1733129557124501316,gps,2,0,37.5551471,127.04542719999999,49.878,0.00019600000000000002,0.0,0.0,0.0,0.00019600000000000002,0.0,0.0,0.0,0.0001,2
1733129557296300912,27988,1733129557249501318,gps,2,0,37.5551467,127.04542889999999,49.862,0.00019600000000000002,0.0,0.0,0.0,0.00019600000000000002,0.0,0.0,0.0,0.0001,2
1733129557434089426,27989,1733129557374501319,gps,2,0,37.5551463,127.0454305,49.857,0.00019600000000000002,0.0,0.0,0.0,0.00019600000000000002,0.0,0.0,0.0,0.0001,2
1733129557540955402,27990,1733129557499501321,gps,2,0,37.5551459,127.04543229999999,49.852000000000004,0.00019600000000000002,0.0,0.0,0.0,0.00019600000000000002,0.0,0.0,0.0,0.0001,2
1733129557668864839,27991,1733129557624501322,gps,2,0,37.5551455,127.045434,49.86,0.00019600000000000002,0.0,0.0,0.0,0.00019600000000000002,0.0,0.0,0.0,0.0001,2
1733129557792034113,27992,1733129557749501323,gps,2,0,37.5551451,127.04543579999999,49.862,0.00019600000000000002,0.0,0.0,0.0,0.00019600000000000002,0.0,0.0,0.0,0.0001,2
1733129557916718260,27993,1733129557874501325,gps,2,0,37.5551447,127.0454372,49.869,0.00019600000000000002,0.0,0.0,0.0,0.00019600000000000002,0.0,0.0,0.0,0.0001,2
1733129558046941616,27994,1733129557999501327,gps,2,0,37.555144399999996,127.04543899999999,49.872,0.00019600000000000002,0.0,0.0,0.0,0.00019600000000000002,0.0,0.0,0.0,0.0001,2
1733129558168657438,27995,1733129558124501328,gps,2,0,37.555144,127.04544089999999,49.887,0.00019600000000000002,0.0,0.0,0.0,0.00019600000000000002,0.0,0.0,0.0,0.0001,2
1733129558295896206,27996,1733129558249501329,gps,2,0,37.5551434,127.0454426,49.887,0.00019600000000000002,0.0,0.0,0.0,0.00019600000000000002,0.0,0.0,0.0,0.00012099999999999999,2
1733129558416809106,27997,1733129558374501331,gps,2,0,37.5551429,127.0454444,49.877,0.00019600000000000002,0.0,0.0,0.0,0.00019600000000000002,0.0,0.0,0.0,0.00012099999999999999,2
1733129558544278291,27998,1733129558499501332,gps,2,0,37.5551424,127.0454462,49.896,0.00019600000000000002,0.0,0.0,0.0,0.00019600000000000002,0.0,0.0,0.0,0.00012099999999999999,2
1733129558669697203,27999,1733129558624501334,gps,2,0,37.555141899999995,127.0454479,49.893,0.00019600000000000002,0.0,0.0,0.0,0.00019600000000000002,0.0,0.0,0.0,0.00012099999999999999,2
1733129558795138043,28000,1733129558749501335,gps,2,0,37.5551414,127.04544969999999,49.895,0.00019600000000000002,0.0,0.0,0.0,0.00019600000000000002,0.0,0.0,0.0,0.0001,2
1733129558918209210,28001,1733129558874501337,gps,2,0,37.555141,127.0454515,49.898,0.00019600000000000002,0.0,0.0,0.0,0.00019600000000000002,0.0,0.0,0.0,0.0001,2
1733129559049309504,28002,1733129558999501339,gps,2,0,37.5551404,127.04545309999999,49.899,0.00019600000000000002,0.0,0.0,0.0,0.00019600000000000002,0.0,0.0,0.0,0.0001,2
1733129559169947065,28003,1733129559124501340,gps,2,0,37.5551399,127.0454549,49.901,0.00019600000000000002,0.0,0.0,0.0,0.00019600000000000002,0.0,0.0,0.0,0.00012099999999999999,2
1733129559295259257,28004,1733129559249501341,gps,2,0,37.5551394,127.04545669999999,49.904,0.00019600000000000002,0.0,0.0,0.0,0.00019600000000000002,0.0,0.0,0.0,0.0001,2
1733129559444108945,28005,1733129559374501343,gps,2,0,37.5551388,127.0454584,49.909,0.00019600000000000002,0.0,0.0,0.0,0.00019600000000000002,0.0,0.0,0.0,0.00012099999999999999,2
1733129559544905889,28006,1733129559499501344,gps,2,0,37.5551382,127.0454602,49.902,0.00019600000000000002,0.0,0.0,0.0,0.00019600000000000002,0.0,0.0,0.0,0.0001,2
1733129559669814375,28007,1733129559624501346,gps,2,0,37.5551378,127.04546189999999,49.9,0.00019600000000000002,0.0,0.0,0.0,0.00019600000000000002,0.0,0.0,0.0,0.00012099999999999999,2
1733129559795999746,28008,1733129559749501347,gps,2,0,37.5551373,127.0454637,49.889,0.00019600000000000002,0.0,0.0,0.0,0.00019600000000000002,0.0,0.0,0.0,0.000144,2
1733129559919802832,28009,1733129559874501349,gps,2,0,37.5551368,127.04546549999999,49.882,0.00019600000000000002,0.0,0.0,0.0,0.00019600000000000002,0.0,0.0,0.0,0.000144,2
1733129560048277662,28010,1733129559999501351,gps,2,0,37.5551363,127.04546719999999,49.88,0.00019600000000000002,0.0,0.0,0.0,0.00019600000000000002,0.0,0.0,0.0,0.000144,2
1733129560169178943,28011,1733129560124501352,gps,2,0,37.5551357,127.04546889999999,49.884,0.00019600000000000002,0.0,0.0,0.0,0.00019600000000000002,0.0,0.0,0.0,0.00012099999999999999,2
1733129560292192814,28012,1733129560249501353,gps,2,0,37.5551351,127.04547059999999,49.895,0.00019600000000000002,0.0,0.0,0.0,0.00019600000000000002,0.0,0.0,0.0,0.00012099999999999999,2
1733129560421013775,28013,1733129560374501355,gps,2,0,37.555134699999996,127.0454724,49.879,0.00019600000000000002,0.0,0.0,0.0,0.00019600000000000002,0.0,0.0,0.0,0.00012099999999999999,2
1733129560546277907,28014,1733129560499501356,gps,2,0,37.5551342,127.045474,49.88,0.00019600000000000002,0.0,0.0,0.0,0.00019600000000000002,0.0,0.0,0.0,0.000144,2
1733129560669916982,28015,1733129560624501358,gps,2,0,37.5551337,127.0454759,49.88,0.00019600000000000002,0.0,0.0,0.0,0.00019600000000000002,0.0,0.0,0.0,0.00012099999999999999,2
1733129560795458466,28016,1733129560749501359,gps,2,0,37.5551331,127.0454776,49.885,0.00019600000000000002,0.0,0.0,0.0,0.00019600000000000002,0.0,0.0,0.0,0.00012099999999999999,2
1733129560918089838,28017,1733129560874501361,gps,2,0,37.5551327,127.0454793,49.88,0.00019600000000000002,0.0,0.0,0.0,0.00019600000000000002,0.0,0.0,0.0,0.000144,2
1733129561048533622,28018,1733129560999501363,gps,2,0,37.555132199999996,127.04548109999999,49.881,0.00019600000000000002,0.0,0.0,0.0,0.00019600000000000002,0.0,0.0,0.0,0.000144,2
1733129561166517408,28019,1733129561124501364,gps,2,0,37.555131599999996,127.04548279999999,49.88,0.00019600000000000002,0.0,0.0,0.0,0.00019600000000000002,0.0,0.0,0.0,0.00012099999999999999,2
1733129561298296657,28020,1733129561249501365,gps,2,0,37.5551312,127.0454845,49.871,0.00019600000000000002,0.0,0.0,0.0,0.00019600000000000002,0.0,0.0,0.0,0.00012099999999999999,2
1733129561447105406,28021,1733129561374501367,gps,2,0,37.5551307,127.0454863,49.877,0.00019600000000000002,0.0,0.0,0.0,0.00019600000000000002,0.0,0.0,0.0,0.000144,2
1733129561544008001,28022,1733129561499501368,gps,2,0,37.5551303,127.0454881,49.888,0.00019600000000000002,0.0,0.0,0.0,0.00019600000000000002,0.0,0.0,0.0,0.00012099999999999999,2
1733129561669097759,28023,1733129561624501370,gps,2,0,37.555129699999995,127.0454898,49.889,0.00019600000000000002,0.0,0.0,0.0,0.00019600000000000002,0.0,0.0,0.0,0.000144,2
1733129561794680277,28024,1733129561749501372,gps,2,0,37.5551294,127.04549159999999,49.894,0.00019600000000000002,0.0,0.0,0.0,0.00019600000000000002,0.0,0.0,0.0,0.000144,2
1733129561917548677,28025,1733129561874501373,gps,2,0,37.5551287,127.0454934,49.89,0.00019600000000000002,0.0,0.0,0.0,0.00019600000000000002,0.0,0.0,0.0,0.000144,2
1733129562042941755,28026,1733129561999501376,gps,2,0,37.5551284,127.04549519999999,49.892,0.00019600000000000002,0.0,0.0,0.0,0.00019600000000000002,0.0,0.0,0.0,0.000144,2
1733129562169286361,28027,1733129562124501376,gps,2,0,37.555127899999995,127.045497,49.903,0.00019600000000000002,0.0,0.0,0.0,0.00019600000000000002,0.0,0.0,0.0,0.000144,2
1733129562295545532,28028,1733129562249501378,gps,2,0,37.555127399999996,127.0454987,49.895,0.00019600000000000002,0.0,0.0,0.0,0.00019600000000000002,0.0,0.0,0.0,0.000144,2
1733129562418649052,28029,1733129562374501379,gps,2,0,37.5551271,127.04550049999999,49.905,0.00019600000000000002,0.0,0.0,0.0,0.00019600000000000002,0.0,0.0,0.0,0.000144,2
1733129562544253310,28030,1733129562499501381,gps,2,0,37.5551266,127.04550219999999,49.902,0.00019600000000000002,0.0,0.0,0.0,0.00019600000000000002,0.0,0.0,0.0,0.000144,2
1733129562669733275,28031,1733129562624501383,gps,2,0,37.5551262,127.045504,49.893,0.00019600000000000002,0.0,0.0,0.0,0.00019600000000000002,0.0,0.0,0.0,0.000144,2
1733129562795010598,28032,1733129562749501384,gps,2,0,37.5551258,127.0455058,49.894,0.00019600000000000002,0.0,0.0,0.0,0.00019600000000000002,0.0,0.0,0.0,0.000144,2
1733129562916779093,28033,1733129562874501386,gps,2,0,37.5551252,127.0455076,49.889,0.00019600000000000002,0.0,0.0,0.0,0.00019600000000000002,0.0,0.0,0.0,0.000144,2
1733129563047727281,28034,1733129562999501388,gps,2,0,37.5551248,127.0455094,49.88,0.00019600000000000002,0.0,0.0,0.0,0.00019600000000000002,0.0,0.0,0.0,0.000169,2
1733129563168615607,28035,1733129563124501389,gps,2,0,37.5551244,127.0455111,49.88,0.00019600000000000002,0.0,0.0,0.0,0.00019600000000000002,0.0,0.0,0.0,0.000169,2
1733129563298154620,28036,1733129563249501391,gps,2,0,37.555124,127.0455128,49.894,0.00019600000000000002,0.0,0.0,0.0,0.00019600000000000002,0.0,0.0,0.0,0.000169,2
1733129563444555981,28037,1733129563374501392,gps,2,0,37.5551236,127.04551459999999,49.914,0.00019600000000000002,0.0,0.0,0.0,0.00019600000000000002,0.0,0.0,0.0,0.00019600000000000002,2
1733129563542385669,28038,1733129563499501394,gps,2,0,37.5551233,127.0455164,49.926,0.00019600000000000002,0.0,0.0,0.0,0.00019600000000000002,0.0,0.0,0.0,0.000225,2
1733129563667380123,28039,1733129563624501395,gps,2,0,37.5551229,127.04551819999999,49.918,0.00019600000000000002,0.0,0.0,0.0,0.00019600000000000002,0.0,0.0,0.0,0.000225,2
1733129563792041910,28040,1733129563749501397,gps,2,0,37.5551223,127.04551989999999,49.917,0.00019600000000000002,0.0,0.0,0.0,0.00019600000000000002,0.0,0.0,0.0,0.000225,2
1733129563915040119,28041,1733129563874501398,gps,2,0,37.555121899999996,127.04552179999999,49.916000000000004,0.00019600000000000002,0.0,0.0,0.0,0.00019600000000000002,0.0,0.0,0.0,0.000225,2
1733129564045762922,28042,1733129563999501401,gps,2,0,37.5551216,127.0455236,49.906,0.00019600000000000002,0.0,0.0,0.0,0.00019600000000000002,0.0,0.0,0.0,0.000225,2
1733129564167089814,28043,1733129564124501402,gps,2,0,37.5551208,127.0455252,49.882,0.00019600000000000002,0.0,0.0,0.0,0.00019600000000000002,0.0,0.0,0.0,0.00019600000000000002,2
1733129564295643293,28044,1733129564249501403,gps,2,0,37.5551205,127.0455271,49.887,0.00019600000000000002,0.0,0.0,0.0,0.00019600000000000002,0.0,0.0,0.0,0.000225,2
1733129564416077215,28045,1733129564374501405,gps,2,0,37.555119999999995,127.0455288,49.892,0.00019600000000000002,0.0,0.0,0.0,0.00019600000000000002,0.0,0.0,0.0,0.00019600000000000002,2
1733129564540837881,28046,1733129564499501406,gps,2,0,37.5551196,127.0455305,49.886,0.00019600000000000002,0.0,0.0,0.0,0.00019600000000000002,0.0,0.0,0.0,0.00019600000000000002,2
1733129564665891616,28047,1733129564624501408,gps,2,0,37.5551191,127.0455322,49.878,0.00019600000000000002,0.0,0.0,0.0,0.00019600000000000002,0.0,0.0,0.0,0.000169,2
1733129564787046511,28048,1733129564749501410,gps,2,0,37.5551186,127.0455341,49.882,0.00019600000000000002,0.0,0.0,0.0,0.00019600000000000002,0.0,0.0,0.0,0.00019600000000000002,2
1733129564915834066,28049,1733129564874501411,gps,2,0,37.5551181,127.04553589999999,49.883,0.00019600000000000002,0.0,0.0,0.0,0.00019600000000000002,0.0,0.0,0.0,0.00019600000000000002,2
1733129565045309185,28050,1733129564999501414,gps,2,0,37.5551175,127.0455375,49.879,0.00019600000000000002,0.0,0.0,0.0,0.00019600000000000002,0.0,0.0,0.0,0.00019600000000000002,2
1733129565168030062,28051,1733129565124501414,gps,2,0,37.5551172,127.04553929999999,49.891,0.00019600000000000002,0.0,0.0,0.0,0.00019600000000000002,0.0,0.0,0.0,0.00019600000000000002,2
1733129565293952537,28052,1733129565249501416,gps,2,0,37.5551166,127.0455411,49.88,0.00019600000000000002,0.0,0.0,0.0,0.00019600000000000002,0.0,0.0,0.0,0.000225,2
1733129565442998010,28053,1733129565374501418,gps,2,0,37.555116,127.04554279999999,49.889,0.00019600000000000002,0.0,0.0,0.0,0.00019600000000000002,0.0,0.0,0.0,0.000225,2
1733129565540933756,28054,1733129565499501419,gps,2,0,37.5551153,127.04554449999999,49.887,0.00019600000000000002,0.0,0.0,0.0,0.00019600000000000002,0.0,0.0,0.0,0.00019600000000000002,2
1733129565663716877,28055,1733129565624501421,gps,2,0,37.555115,127.04554619999999,49.887,0.00019600000000000002,0.0,0.0,0.0,0.00019600000000000002,0.0,0.0,0.0,0.000225,2
1733129565789895795,28056,1733129565749501423,gps,2,0,37.5551144,127.045548,49.904,0.00019600000000000002,0.0,0.0,0.0,0.00019600000000000002,0.0,0.0,0.0,0.000225,2
1733129565914637707,28057,1733129565874501424,gps,2,0,37.555113899999995,127.04554979999999,49.896,0.00019600000000000002,0.0,0.0,0.0,0.00019600000000000002,0.0,0.0,0.0,0.000225,2
1733129566043840985,28058,1733129565999501427,gps,2,0,37.555113399999996,127.0455514,49.923,0.00019600000000000002,0.0,0.0,0.0,0.00019600000000000002,0.0,0.0,0.0,0.000225,2
1733129566166127547,28059,1733129566124501427,gps,2,0,37.555112799999996,127.0455532,49.888,0.00019600000000000002,0.0,0.0,0.0,0.00019600000000000002,0.0,0.0,0.0,0.00019600000000000002,2
