%time,field.header.seq,field.header.stamp,field.header.frame_id,field.pose.position.x,field.pose.position.y,field.pose.position.z,field.pose.orientation.x,field.pose.orientation.y,field.pose.orientation.z,field.pose.orientation.w
1732085150587606984,2887,1732085150586909770,map,-2.5426847282830485,-4.277013439332441,1.2183904687127631,0.0,0.0,0.0,1.0
1732085150687285972,2888,1732085150686823844,map,-2.551003615187792,-4.269167599771528,1.2612407019257776,0.0,0.0,0.0,1.0
1732085150786743331,2889,1732085150786298513,map,-2.561280404402377,-4.259629757650842,1.2498294746157341,0.0,0.0,0.0,1.0
1732085150886462219,2890,1732085150886162519,map,-2.556113366052689,-4.267097031635172,1.2178692367273969,0.0,0.0,0.0,1.0
1732085150987214736,2891,1732085150986650228,map,-2.5566012963953275,-4.2648259075064034,1.1706812429994804,0.0,0.0,0.0,1.0
1732085151086202707,2892,1732085151085760116,map,-2.559969956636262,-4.261013595386067,1.1621724832779101,0.0,0.0,0.0,1.0
1732085151187165855,2893,1732085151186925888,map,-2.587148909661501,-4.237421128140799,1.1772718475875614,0.0,0.0,0.0,1.0
1732085151286775431,2894,1732085151286178827,map,-2.593201965586264,-4.240214748508109,1.2227177133275564,0.0,0.0,0.0,1.0
1732085151387560882,2895,1732085151387059688,map,-2.5994466321351855,-4.237866404019014,1.242973719528169,0.0,0.0,0.0,1.0
1732085151486494653,2896,1732085151486092329,map,-2.5825079233404025,-4.251812973073545,1.2517261677744411,0.0,0.0,0.0,1.0
1732085151587064243,2897,1732085151586625337,map,-2.575316233891645,-4.2623781998944255,1.2233978080054457,0.0,0.0,0.0,1.0
1732085151685939981,2898,1732085151685822010,map,-2.5878503149713463,-4.2462267840738415,1.1842257868535813,0.0,0.0,0.0,1.0
1732085151787619320,2899,1732085151787076711,map,-2.5938362440232066,-4.240365424076715,1.175432839417676,0.0,0.0,0.0,1.0
1732085151887669548,2900,1732085151887007474,map,-2.5795410855878673,-4.24435262684689,1.2203277802684636,0.0,0.0,0.0,1.0
1732085151987384639,2901,1732085151987085819,map,-2.5534314578446944,-4.266869521984725,1.2832968434191103,0.0,0.0,0.0,1.0
1732085152086851543,2902,1732085152086404561,map,-2.536655889841949,-4.277131364622477,1.324764181561336,0.0,0.0,0.0,1.0
1732085152185948494,2903,1732085152185560226,map,-2.5340372903429476,-4.280508189813547,1.304950889614292,0.0,0.0,0.0,1.0
1732085152286798774,2904,1732085152286170482,map,-2.5304123074010767,-4.27654282608243,1.2619417552654744,0.0,0.0,0.0,1.0
1732085152387981018,2905,1732085152387426137,map,-2.5192065062454088,-4.285141587059988,1.1948375289764044,0.0,0.0,0.0,1.0
1732085152486855624,2906,1732085152486280441,map,-2.51262702743214,-4.29771769088949,1.1768411076993361,0.0,0.0,0.0,1.0
1732085152586393410,2907,1732085152586223363,map,-2.5125597694383797,-4.309632486345123,1.1808900335759518,0.0,0.0,0.0,1.0
1732085152687018225,2908,1732085152686405181,map,-2.5317077481015366,-4.307088416011212,1.2126673439854188,0.0,0.0,0.0,1.0
1732085152786778797,2909,1732085152786494970,map,-2.5502175051826312,-4.2923469635184235,1.2351408971671498,0.0,0.0,0.0,1.0
1732085152887051162,2910,1732085152886632442,map,-2.5776898104931525,-4.267706380168693,1.2482507882999363,0.0,0.0,0.0,1.0
1732085153006929334,2911,1732085153006579637,map,-2.580919121877529,-4.264871474046224,1.2550545547337293,0.0,0.0,0.0,1.0
1732085153086974514,2912,1732085153086614847,map,-2.592882824901551,-4.249665074355597,1.1738818762863483,0.0,0.0,0.0,1.0
1732085153186695289,2913,1732085153186616420,map,-2.5798010758574916,-4.260658050077559,1.146870212037587,0.0,0.0,0.0,1.0
1732085153286352888,2914,1732085153286013841,map,-2.5624284165251265,-4.2837412101053145,1.155208507184858,0.0,0.0,0.0,1.0
1732085153386788613,2915,1732085153386302471,map,-2.565462833654822,-4.2738364932141355,1.2665537593420675,0.0,0.0,0.0,1.0
1732085153486029635,2916,1732085153485801219,map,-2.565807456551907,-4.270019378927627,1.3178055246987794,0.0,0.0,0.0,1.0
1732085153585963222,2917,1732085153585669994,map,-2.5792958783619624,-4.246317121777039,1.3468959383249972,0.0,0.0,0.0,1.0
1732085153686354844,2918,1732085153686197042,map,-2.5882234322125584,-4.232340707416584,1.3497230972280885,0.0,0.0,0.0,1.0
1732085153786565627,2919,1732085153786117315,map,-2.5929662073709476,-4.225649978872343,1.3445826917111816,0.0,0.0,0.0,1.0
1732085153887247294,2920,1732085153886718273,map,-2.587331701527924,-4.234314260947234,1.3444599439052767,0.0,0.0,0.0,1.0
1732085153986871595,2921,1732085153986287355,map,-2.592649967807875,-4.236901269849774,1.3278318673812877,0.0,0.0,0.0,1.0
1732085154086156082,2922,1732085154086060047,map,-2.5871659279691586,-4.246551356901006,1.3131829221261089,0.0,0.0,0.0,1.0
1732085154187392177,2923,1732085154187045574,map,-2.592529691318553,-4.243258945668151,1.3029485856688185,0.0,0.0,0.0,1.0
1732085154286388069,2924,1732085154285865068,map,-2.5855677903562158,-4.245581434830095,1.2945381846525075,0.0,0.0,0.0,1.0
1732085154386510621,2925,1732085154386195898,map,-2.583418714167689,-4.244082433030775,1.288962158936045,0.0,0.0,0.0,1.0
1732085154486756099,2926,1732085154486429929,map,-2.5652693616188724,-4.258827764369563,1.2720137878031306,0.0,0.0,0.0,1.0
1732085154587894206,2927,1732085154587157726,map,-2.5395293959502068,-4.285505320715366,1.2627928860297437,0.0,0.0,0.0,1.0
1732085154686352252,2928,1732085154686182260,map,-2.5200708940872123,-4.302946921063979,1.225441221240082,0.0,0.0,0.0,1.0
1732085154787760786,2929,1732085154787105798,map,-2.518692120500968,-4.303630768253053,1.1823281963038237,0.0,0.0,0.0,1.0
1732085154885809646,2930,1732085154885713100,map,-2.531246593157187,-4.2911966817396845,1.1364979555551005,0.0,0.0,0.0,1.0
1732085154986027100,2931,1732085154985551834,map,-2.5420157380979647,-4.284476537603902,1.146741216012536,0.0,0.0,0.0,1.0
1732085155086032636,2932,1732085155085607051,map,-2.5414187660358456,-4.288721526807091,1.1944049539419577,0.0,0.0,0.0,1.0
1732085155186328144,2933,1732085155185914516,map,-2.5277043534824375,-4.302042267827442,1.214130340767865,0.0,0.0,0.0,1.0
1732085155286642629,2934,1732085155286256313,map,-2.5222054017797735,-4.303262599946271,1.201685931402469,0.0,0.0,0.0,1.0
1732085155386150894,2935,1732085155385630607,map,-2.5273418665408003,-4.296605782267678,1.153745734740542,0.0,0.0,0.0,1.0
1732085155486721710,2936,1732085155486641407,map,-2.5512241066715524,-4.27618208690525,1.1616413648215793,0.0,0.0,0.0,1.0
1732085155586234305,2937,1732085155585785388,map,-2.5545105571472537,-4.2772944134700595,1.1614190458211306,0.0,0.0,0.0,1.0
1732085155687306581,2938,1732085155686744213,map,-2.5625194337749706,-4.2671398508622085,1.194943376056874,0.0,0.0,0.0,1.0
1732085155786287553,2939,1732085155786161184,map,-2.5632575599560057,-4.2608478691993055,1.2033727347774728,0.0,0.0,0.0,1.0
1732085155885965656,2940,1732085155885577201,map,-2.577495472479895,-4.245810020887004,1.2355728355244446,0.0,0.0,0.0,1.0
1732085155987673357,2941,1732085155987116575,map,-2.575311785545253,-4.250612981749373,1.2271647055242456,0.0,0.0,0.0,1.0
1732085156087123786,2942,1732085156086425065,map,-2.571007516891829,-4.2568952730919545,1.2209246678497625,0.0,0.0,0.0,1.0
1732085156188118215,2943,1732085156187516689,map,-2.55571222512191,-4.2664848544145455,1.170562922456512,0.0,0.0,0.0,1.0
1732085156285926455,2944,1732085156285491228,map,-2.5472875995543385,-4.271005531382072,1.1683236576253855,0.0,0.0,0.0,1.0
1732085156386386212,2945,1732085156386173486,map,-2.534847046733479,-4.284187762829516,1.133956467908565,0.0,0.0,0.0,1.0
1732085156485901192,2946,1732085156485374689,map,-2.542788297116878,-4.284515175534067,1.1524291160927347,0.0,0.0,0.0,1.0
1732085156586386439,2947,1732085156586151361,map,-2.553635901423574,-4.281251142353156,1.1436568782881789,0.0,0.0,0.0,1.0
1732085156686570568,2948,1732085156686244964,map,-2.5639689418907174,-4.266416096144588,1.1856507428634557,0.0,0.0,0.0,1.0
1732085156785938614,2949,1732085156785704374,map,-2.5572539678703343,-4.267487905971454,1.2104545022662676,0.0,0.0,0.0,1.0
1732085156886021821,2950,1732085156885898828,map,-2.551132939076285,-4.268526824018632,1.2406664484561745,0.0,0.0,0.0,1.0
1732085156986510425,2951,1732085156986212491,map,-2.545919760146558,-4.277487847230109,1.227602775620884,0.0,0.0,0.0,1.0
1732085157086170435,2952,1732085157085972785,map,-2.5303421673075484,-4.302268895255726,1.2231699866552965,0.0,0.0,0.0,1.0
1732085157187584019,2953,1732085157187159538,map,-2.5245802959791757,-4.3108357147474194,1.2229994195565446,0.0,0.0,0.0,1.0
1732085157285941424,2954,1732085157285546779,map,-2.523620718957223,-4.312679828317867,1.2178092165846883,0.0,0.0,0.0,1.0
1732085157386734120,2955,1732085157386256456,map,-2.544811996568766,-4.292205010688501,1.2115557001586736,0.0,0.0,0.0,1.0
1732085157486521687,2956,1732085157486276626,map,-2.5615626063955714,-4.285044441994013,1.1946586296205148,0.0,0.0,0.0,1.0
1732085157585769403,2957,1732085157585571527,map,-2.5733502127807757,-4.276123559738719,1.1979897891492608,0.0,0.0,0.0,1.0
1732085157685884046,2958,1732085157685770511,map,-2.5747674483410017,-4.27212490085651,1.2211265348830176,0.0,0.0,0.0,1.0
1732085157786319947,2959,1732085157785549402,map,-2.575501310137514,-4.258388374382919,1.252024981089475,0.0,0.0,0.0,1.0
1732085157886659188,2960,1732085157886230707,map,-2.576805046345036,-4.252138048406005,1.2529065457635344,0.0,0.0,0.0,1.0
1732085158005119708,2961,1732085158004671573,map,-2.5768049207213797,-4.252138227532958,1.2529066804481328,0.0,0.0,0.0,1.0
1732085158086276324,2962,1732085158085694551,map,-2.5523746796860673,-4.272802044365642,1.2264464146355427,0.0,0.0,0.0,1.0
1732085158186259944,2963,1732085158186053514,map,-2.5345871327443863,-4.29062636150207,1.2043939315292593,0.0,0.0,0.0,1.0
1732085158286168946,2964,1732085158286031246,map,-2.5168706109590757,-4.306520050246043,1.1817519059898245,0.0,0.0,0.0,1.0
1732085158386225272,2965,1732085158385928630,map,-2.5125494336396716,-4.309555961421233,1.1858967838812233,0.0,0.0,0.0,1.0
1732085158486473700,2966,1732085158486077547,map,-2.50975440646312,-4.2976796367508765,1.2197621193871362,0.0,0.0,0.0,1.0
1732085158586083977,2967,1732085158585446596,map,-2.5060934034636917,-4.297666334679543,1.2217837270965124,0.0,0.0,0.0,1.0
1732085158686412731,2968,1732085158686066150,map,-2.4759405478901693,-4.314304935653201,1.2222676610576828,0.0,0.0,0.0,1.0
1732085158786529191,2969,1732085158786264181,map,-2.4595652169857605,-4.3207685776456275,1.2107057592751338,0.0,0.0,0.0,1.0
1732085158886360070,2970,1732085158886166572,map,-2.4518990784060817,-4.315928817282509,1.1351052502358938,0.0,0.0,0.0,1.0
1732085158987128179,2971,1732085158986821174,map,-2.4623229102632593,-4.288279041468516,1.0610425421495564,0.0,0.0,0.0,1.0
1732085159093305637,2972,1732085159092940568,map,-2.445191308037558,-4.288279041468517,0.785021717606672,0.0,0.0,0.0,1.0
1732085159193620324,2973,1732085159193186998,map,-2.374970244210159,-4.288279041468524,0.8818135450110642,0.0,0.0,0.0,1.0
1732085160038719517,2974,1732085160038429260,map,-2.018490167669437,-4.347455578165576,1.4958637007645272,0.0,0.0,0.0,1.0
1732085160081696465,2975,1732085160081169366,map,-1.8131636399894544,-4.240866648439117,1.1327911903189518,0.0,0.0,0.0,1.0
1732085160182525712,2976,1732085160181880950,map,-1.7678396074570086,-4.2154673672848295,1.1782662524503082,0.0,0.0,0.0,1.0
1732085160281980644,2977,1732085160281628847,map,-1.70700109136136,-4.20739456847997,1.2252290242426451,0.0,0.0,0.0,1.0
1732085160380766406,2978,1732085160380599498,map,-1.6381500278935872,-4.204827388918396,1.27973201376679,0.0,0.0,0.0,1.0
1732085160480665468,2979,1732085160480123996,map,-1.549563763373687,-4.222035222360159,1.3047328012101054,0.0,0.0,0.0,1.0
1732085160581160081,2980,1732085160580755472,map,-1.4781593732134017,-4.218283480501442,1.3237215026388962,0.0,0.0,0.0,1.0
1732085160682423020,2981,1732085160681657314,map,-1.41357882004015,-4.212482405203221,1.3104301616879241,0.0,0.0,0.0,1.0
1732085160780718977,2982,1732085160780572175,map,-1.3378116971679026,-4.215244262544864,1.3049927193543973,0.0,0.0,0.0,1.0
1732085160881636231,2983,1732085160881146192,map,-1.25292741691852,-4.226647107921949,1.2958599361974898,0.0,0.0,0.0,1.0
1732085160980294384,2984,1732085160980083465,map,-1.132498891541167,-4.25431949725961,1.2853488437086311,0.0,0.0,0.0,1.0
1732085161081439950,2985,1732085161081192016,map,-1.0240789061281803,-4.270299279461797,1.267813284383105,0.0,0.0,0.0,1.0
1732085161181610148,2986,1732085161181447029,map,-0.8848802867987708,-4.296312702056745,1.2115522390677647,0.0,0.0,0.0,1.0
1732085161280485634,2987,1732085161280267000,map,-0.7677608793994565,-4.306892982072033,1.1673408618583225,0.0,0.0,0.0,1.0
1732085161383113577,2988,1732085161382003307,map,-0.6381597893050956,-4.320641799478241,1.1166267101007072,0.0,0.0,0.0,1.0
1732085161481479925,2989,1732085161481125116,map,-0.5424563233176906,-4.3195037459295005,1.1272417474006091,0.0,0.0,0.0,1.0
1732085161582728013,2990,1732085161581652641,map,-0.4510585633929482,-4.3141529614579905,1.132149485397851,0.0,0.0,0.0,1.0
1732085161681257733,2991,1732085161680827617,map,-0.38051064738670687,-4.296102546220438,1.1549760900403758,0.0,0.0,0.0,1.0
1732085161780484297,2992,1732085161780148983,map,-0.2968634267555238,-4.284947697524668,1.131673949333422,0.0,0.0,0.0,1.0
1732085161881476857,2993,1732085161881098985,map,-0.21590950068464315,-4.2768162012113535,1.1406485886419548,0.0,0.0,0.0,1.0
1732085161980263419,2994,1732085161980176687,map,-0.11661818980950962,-4.283087469459647,1.1519319175361777,0.0,0.0,0.0,1.0
1732085162081284559,2995,1732085162081198453,map,-0.03702607418165915,-4.281192854070251,1.2050040061413791,0.0,0.0,0.0,1.0
1732085162182554877,2996,1732085162182002067,map,0.04780386155552613,-4.282733066169883,1.2041219379067427,0.0,0.0,0.0,1.0
1732085162281421484,2997,1732085162281280279,map,0.1274904794376669,-4.280351542681408,1.180603997012919,0.0,0.0,0.0,1.0
1732085162381967799,2998,1732085162381573677,map,0.23986585528105256,-4.289162221940859,1.1150514110598782,0.0,0.0,0.0,1.0
1732085162481805898,2999,1732085162481330871,map,0.360896891455801,-4.296499060201095,1.0875750266375963,0.0,0.0,0.0,1.0
1732085162581449462,3000,1732085162580892324,map,0.4794319693824709,-4.298912203235503,1.0869069277941708,0.0,0.0,0.0,1.0
1732085162680841765,3001,1732085162680592536,map,0.5630504955850789,-4.286836663769989,1.1204001093725615,0.0,0.0,0.0,1.0
1732085162781196979,3002,1732085162781070709,map,0.5373718502490493,-4.262112767922086,1.1903565627771557,0.0,0.0,0.0,1.0
1732085162882138075,3003,1732085162881820201,map,0.5607081480610588,-4.2411429144589405,1.3475026043480458,0.0,0.0,0.0,1.0
1732085163006143231,3004,1732085163005731344,map,0.5748693804298015,-4.248805160376176,1.3515358538621576,0.0,0.0,0.0,1.0
1732085163081608781,3005,1732085163081438541,map,0.5554571212256822,-4.221364934765394,1.4358790809580475,0.0,0.0,0.0,1.0
1732085163181248636,3006,1732085163180721044,map,0.7114410949051169,-4.2493020859827,1.2004286018668,0.0,0.0,0.0,1.0
1732085163281172035,3007,1732085163280583858,map,0.9547115805287558,-4.266793120813249,1.1386036115223401,0.0,0.0,0.0,1.0
1732085163382367869,3008,1732085163381994724,map,1.2072867501158897,-4.281057956296043,1.0676658761614823,0.0,0.0,0.0,1.0
1732085163480695344,3009,1732085163480254411,map,1.359685865287192,-4.287265012361108,1.1377855566747905,0.0,0.0,0.0,1.0
1732085163581409121,3010,1732085163580841779,map,1.4778776644934615,-4.295975287151539,1.1140391911730996,0.0,0.0,0.0,1.0
1732085163680551246,3011,1732085163680258989,map,1.6177063179455744,-4.303920529820223,1.0935478474551679,0.0,0.0,0.0,1.0
1732085163780917036,3012,1732085163780598878,map,1.7527126640181174,-4.310578316565369,1.049527106538332,0.0,0.0,0.0,1.0
1732085163880740606,3013,1732085163880272865,map,1.8559623959350198,-4.3164429031724545,1.014415838418478,0.0,0.0,0.0,1.0
1732085163980726499,3014,1732085163980242967,map,1.9306492420143695,-4.322597848710894,1.0073683801494615,0.0,0.0,0.0,1.0
1732085164081402631,3015,1732085164081017971,map,2.0019434900194018,-4.327356985857265,1.0318606035104592,0.0,0.0,0.0,1.0
1732085164180800233,3016,1732085164180575132,map,2.116278268260354,-4.329251314349957,1.044913582531768,0.0,0.0,0.0,1.0
1732085164280962433,3017,1732085164280447244,map,2.1457007976647335,-4.323645036555057,1.0186461928600798,0.0,0.0,0.0,1.0
1732085164380385675,3018,1732085164379983901,map,2.1744094588073444,-4.314693915277603,1.0368412901986732,0.0,0.0,0.0,1.0
1732085164480841812,3019,1732085164480432033,map,2.187601199002661,-4.313672735648253,1.0144706682940172,0.0,0.0,0.0,1.0
1732085164581355653,3020,1732085164580925226,map,2.2157858510052235,-4.309080679733253,0.9802564259554442,0.0,0.0,0.0,1.0
1732085164681933329,3021,1732085164681659698,map,1.8383677971867831,-4.247014602781401,0.9281744427440747,0.0,0.0,0.0,1.0
1732085164781913938,3022,1732085164781651020,map,2.513194181204723,-4.320633663710485,0.948545220081199,0.0,0.0,0.0,1.0
1732085164881358774,3023,1732085164881105899,map,2.783213221929014,-4.324267187384674,0.9968813017223457,0.0,0.0,0.0,1.0
1732085164983149456,3024,1732085164982558727,map,3.070842070013509,-4.311714359954473,0.9992649798323832,0.0,0.0,0.0,1.0
1732085165081936939,3025,1732085165081397294,map,3.1645008950833913,-4.309318523949597,1.0570780378024243,0.0,0.0,0.0,1.0
1732085165182396482,3026,1732085165181826114,map,3.298246490761347,-4.297278528431025,1.0783527558721018,0.0,0.0,0.0,1.0
1732085165282166592,3027,1732085165281741380,map,3.433726501841371,-4.29070574194769,1.079639917056013,0.0,0.0,0.0,1.0
1732085165380736574,3028,1732085165380346775,map,3.5727959787322936,-4.279360390303515,1.069783718833275,0.0,0.0,0.0,1.0
1732085165480648041,3029,1732085165480409622,map,3.648027889732902,-4.285705285089228,1.0896740164576475,0.0,0.0,0.0,1.0
1732085165580780484,3030,1732085165580621719,map,3.7354816838894536,-4.277499375475207,1.1011457301189582,0.0,0.0,0.0,1.0
1732085165680600184,3031,1732085165680198431,map,3.79151038400702,-4.285442749299333,1.0997016903341028,0.0,0.0,0.0,1.0
1732085165780664312,3032,1732085165780550479,map,3.9056700390252357,-4.2714875101609415,1.078524845678527,0.0,0.0,0.0,1.0
1732085165880718785,3033,1732085165880481958,map,3.97873659767692,-4.282980590160138,1.040457039203345,0.0,0.0,0.0,1.0
1732085165982660026,3034,1732085165982009887,map,4.123318496678077,-4.254233822828865,0.9926925535367515,0.0,0.0,0.0,1.0
1732085166081678385,3035,1732085166081468343,map,4.235761784206779,-4.237178425528107,0.9621299977538155,0.0,0.0,0.0,1.0
1732085166180990894,3036,1732085166180779218,map,4.4137146871690955,-4.1847416505928265,0.9608648793535839,0.0,0.0,0.0,1.0
1732085166280336149,3037,1732085166280113935,map,4.5685043209984295,-4.154595833978075,0.953915780359075,0.0,0.0,0.0,1.0
1732085166381875041,3038,1732085166381364583,map,4.76036451528319,-4.101091674712601,0.9192874922809382,0.0,0.0,0.0,1.0
1732085166480979487,3039,1732085166480623245,map,4.910193933305364,-4.067297610555765,0.8593106836402221,0.0,0.0,0.0,1.0
1732085166581100820,3040,1732085166580664396,map,5.032472968041402,-4.0417292761422505,0.8362503652888256,0.0,0.0,0.0,1.0
1732085166680678739,3041,1732085166680266857,map,5.107395961638202,-4.0563276267054675,0.8709843151061324,0.0,0.0,0.0,1.0
1732085166781867792,3042,1732085166781218290,map,5.15318304599713,-4.096957452249231,0.9125256689879129,0.0,0.0,0.0,1.0
1732085166880886958,3043,1732085166880695343,map,5.236157937792233,-4.1141869942985805,0.9446244639359046,0.0,0.0,0.0,1.0
1732085166983693531,3044,1732085166983295917,map,5.369743807999291,-4.091456346627893,0.9214497287762089,0.0,0.0,0.0,1.0
1732085167080943464,3045,1732085167080544233,map,5.529623014268706,-4.043510995049867,0.9562533447807003,0.0,0.0,0.0,1.0
1732085167183799777,3046,1732085167183470249,map,5.484201946994947,-4.15640585622187,1.1909736999788183,0.0,0.0,0.0,1.0
1732085167281077309,3047,1732085167280707120,map,5.593190280554268,-4.157726263906355,1.209165699649217,0.0,0.0,0.0,1.0
1732085167381426986,3048,1732085167381042718,map,5.658923733924479,-4.202547416570235,1.2112095122523296,0.0,0.0,0.0,1.0
1732085167480587922,3049,1732085167480159282,map,5.809493247490282,-4.183956882357981,1.1067723627547927,0.0,0.0,0.0,1.0
1732085167581734950,3050,1732085167581387996,map,5.944670493963389,-4.171561569283374,1.0500601901509627,0.0,0.0,0.0,1.0
1732085167681359776,3051,1732085167680882692,map,6.057238298572026,-4.169886141409936,1.0175334008048467,0.0,0.0,0.0,1.0
1732085167781203981,3052,1732085167781034708,map,6.134307778340806,-4.203404397848141,1.053894309904799,0.0,0.0,0.0,1.0
1732085167882135369,3053,1732085167881564378,map,6.208486916996486,-4.251043127067946,1.0620055052757542,0.0,0.0,0.0,1.0
1732085168007293338,3054,1732085168006611347,map,6.4411466839074585,-4.020158599663043,0.7624726953690245,0.0,0.0,0.0,1.0
1732085168081458245,3055,1732085168081044197,map,6.419404096991067,-4.29337627088121,1.066886602920335,0.0,0.0,0.0,1.0
1732085168181939464,3056,1732085168181677579,map,6.5411920190343436,-4.284215994734159,1.1310271497313495,0.0,0.0,0.0,1.0
1732085168281262955,3057,1732085168280823707,map,6.647058863086494,-4.296689609711879,1.1934735860497616,0.0,0.0,0.0,1.0
1732085168383188279,3058,1732085168382832050,map,6.756093719447431,-4.314546437981251,1.231473193480047,0.0,0.0,0.0,1.0
1732085168480657612,3059,1732085168480463027,map,6.8681634848092905,-4.335696290663057,1.1844261686299447,0.0,0.0,0.0,1.0
1732085168581562447,3060,1732085168581079483,map,6.965755703852283,-4.359500460059883,1.1892314106794588,0.0,0.0,0.0,1.0
1732085168682033492,3061,1732085168681586027,map,6.789395813133872,-4.608905820616697,1.3131351256595327,0.0,0.0,0.0,1.0
1732085168782347643,3062,1732085168782075166,map,6.898937513424611,-4.582444239085866,1.1054526799437954,0.0,0.0,0.0,1.0
1732085168883282540,3063,1732085168882731914,map,6.7549375560243075,-4.786641599983677,1.1916133013819077,0.0,0.0,0.0,1.0
1732085168983707877,3064,1732085168983422517,map,6.634906522122582,-4.95711604474589,1.2632058502789631,0.0,0.0,0.0,1.0
1732085169085948474,3065,1732085169085820436,map,5.387575327778974,-5.419713526849727,4.1584921551536915,0.0,0.0,0.0,1.0
1732085169183155269,3066,1732085169182723522,map,6.863982274466911,-5.030722219580441,1.3665398966917712,0.0,0.0,0.0,1.0
1732085169283241489,3067,1732085169282715082,map,7.269873947473379,-4.857076176200666,1.3568099693773936,0.0,0.0,0.0,1.0
1732085169381823395,3068,1732085169381276607,map,7.7974318784984105,-4.492378155610317,1.384802615782368,0.0,0.0,0.0,1.0
1732085169482499972,3069,1732085169482181072,map,7.962206455679416,-4.427789309873711,1.4749098414612098,0.0,0.0,0.0,1.0
1732085169582850637,3070,1732085169582306623,map,8.160764877591577,-4.3152150200250565,1.519769036225797,0.0,0.0,0.0,1.0
1732085169681267457,3071,1732085169680963993,map,8.331690774998208,-4.23186341116929,1.4591955148514124,0.0,0.0,0.0,1.0
1732085169782353791,3072,1732085169782210111,map,8.460625189064585,-4.208793481200617,1.4386343797258598,0.0,0.0,0.0,1.0
1732085169880844939,3073,1732085169880651473,map,8.585959131141413,-4.175313852363011,1.4687951084587099,0.0,0.0,0.0,1.0
1732085169982360668,3074,1732085169981851577,map,8.72416387879364,-4.1245793176632315,1.5309193203843567,0.0,0.0,0.0,1.0
1732085170080978311,3075,1732085170080542325,map,8.638566042050297,-4.315995469555918,1.778339171720105,0.0,0.0,0.0,1.0
1732085170182241081,3076,1732085170181868314,map,8.398304812032752,-4.692803999172805,2.1128855543197935,0.0,0.0,0.0,1.0
1732085170282748015,3077,1732085170282159566,map,8.741605537957705,-4.399654889345588,1.6450602684369273,0.0,0.0,0.0,1.0
1732085170384717393,3078,1732085170384161949,map,8.288873367325312,-5.033402218440841,2.103942924041725,0.0,0.0,0.0,1.0
1732085170481990299,3079,1732085170481539249,map,8.598231801231211,-4.888336072508088,2.4804927032854818,0.0,0.0,0.0,1.0
1732085170582547534,3080,1732085170582120895,map,8.192452424678615,-5.350969628378193,2.9947240956811108,0.0,0.0,0.0,1.0
1732085170682000370,3081,1732085170681375980,map,8.07189315553897,-5.350969628136166,3.515766495717809,0.0,0.0,0.0,1.0
1732085171186614128,3082,1732085171186114311,map,8.77495716130361,-4.828898597583659,4.301846209267715,0.0,0.0,0.0,1.0
1732085171283120134,3083,1732085171282572984,map,9.54642591087564,-4.698449258531292,3.1307132922462655,0.0,0.0,0.0,1.0
1732085171382760908,3084,1732085171382462263,map,10.085262424199417,-4.556731540630599,1.9410070094155885,0.0,0.0,0.0,1.0
1732085171482861245,3085,1732085171482477426,map,10.116915576379458,-4.72963781481317,2.018080097070543,0.0,0.0,0.0,1.0
1732085171580411732,3086,1732085171580173015,map,10.203960317912824,-4.790453738643912,2.0842180880503665,0.0,0.0,0.0,1.0
1732085171682510402,3087,1732085171681972503,map,10.32507101134883,-4.791260244980839,2.1039991042104917,0.0,0.0,0.0,1.0
1732085171781195618,3088,1732085171780578851,map,10.470370752850855,-4.761398947062688,2.0573247986122754,0.0,0.0,0.0,1.0
1732085171880708710,3089,1732085171880415678,map,10.617318268060512,-4.725261621638459,1.9864933131081315,0.0,0.0,0.0,1.0
1732085171982029041,3090,1732085171981631278,map,10.720094605083162,-4.766940847030429,1.929537671856613,0.0,0.0,0.0,1.0
1732085172080707021,3091,1732085172080407381,map,10.805821212744046,-4.82367287558075,1.935589565544812,0.0,0.0,0.0,1.0
1732085172181221658,3092,1732085172180853366,map,10.903318343888317,-4.858993366327819,1.9642175946918594,0.0,0.0,0.0,1.0
1732085172281151019,3093,1732085172280608177,map,11.040978381568674,-4.821939769182034,1.9180217896397558,0.0,0.0,0.0,1.0
1732085172381154624,3094,1732085172380731344,map,11.189674430316273,-4.775243624282731,1.7614776156816714,0.0,0.0,0.0,1.0
1732085172480938140,3095,1732085172480661869,map,11.285138310236603,-4.82714204988378,1.6191861901929914,0.0,0.0,0.0,1.0
1732085172581689460,3096,1732085172581361293,map,11.381454310870936,-4.88837177325079,1.5493952400739488,0.0,0.0,0.0,1.0
1732085172680777512,3097,1732085172680400133,map,11.511835505642914,-4.889114157584878,1.5754193825949612,0.0,0.0,0.0,1.0
1732085172781533343,3098,1732085172780997991,map,11.711388452041092,-4.750369440153261,1.5901919215509122,0.0,0.0,0.0,1.0
1732085172880736896,3099,1732085172880590915,map,11.895735960916348,-4.623086428372071,1.6198788234825976,0.0,0.0,0.0,1.0
1732085173007835920,3100,1732085173007199764,map,11.676962002680458,-5.123922670016527,1.447987187039438,0.0,0.0,0.0,1.0
1732085173080926695,3101,1732085173080772876,map,12.115006810166228,-4.646169030500082,1.738866680504329,0.0,0.0,0.0,1.0
1732085173181291688,3102,1732085173181056022,map,12.163530420000518,-4.789067027328945,1.8020701791094775,0.0,0.0,0.0,1.0
1732085173281170914,3103,1732085173280707597,map,12.201607911055392,-4.962257950012812,1.8040175274648265,0.0,0.0,0.0,1.0
1732085173381794248,3104,1732085173381328582,map,12.267031096956783,-5.072328791396378,1.8467154572188988,0.0,0.0,0.0,1.0
1732085173480301922,3105,1732085173480170726,map,12.378576952780726,-5.089286870558937,1.8644572773100925,0.0,0.0,0.0,1.0
1732085173581382432,3106,1732085173580932617,map,12.54017949727495,-5.00684526181863,1.8750230270248671,0.0,0.0,0.0,1.0
1732085173680487569,3107,1732085173680396080,map,12.679757973753523,-4.9735429208593525,1.846849292224577,0.0,0.0,0.0,1.0
1732085173780963728,3108,1732085173780803918,map,12.826933559829934,-4.918070726175568,1.8600288774754508,0.0,0.0,0.0,1.0
1732085173881465858,3109,1732085173880861282,map,12.952151868769434,-4.896656445091237,1.928328211394239,0.0,0.0,0.0,1.0
1732085173981445694,3110,1732085173980980634,map,13.118346622808613,-4.786846436303252,1.974506124770298,0.0,0.0,0.0,1.0
1732085174081584087,3111,1732085174081084966,map,13.265347957059014,-4.7296024246171635,1.9266606007211884,0.0,0.0,0.0,1.0
1732085174180648676,3112,1732085174180335044,map,13.415062611391791,-4.678777555301168,1.7802447907871155,0.0,0.0,0.0,1.0
1732085174281669421,3113,1732085174281518936,map,13.500882510668983,-4.762933633912145,1.7004918308714592,0.0,0.0,0.0,1.0
1732085174380632479,3114,1732085174380380868,map,13.606588573970672,-4.782126009975467,1.7191982962034633,0.0,0.0,0.0,1.0
1732085174481531645,3115,1732085174480844497,map,13.722439418740835,-4.762372466626829,1.815375742176131,0.0,0.0,0.0,1.0
1732085174581069468,3116,1732085174580627202,map,13.885961389890356,-4.628704530379697,1.8656656277146102,0.0,0.0,0.0,1.0
1732085174681320857,3117,1732085174680750846,map,14.02383428377177,-4.560817553865158,1.885624541478419,0.0,0.0,0.0,1.0
1732085174781135119,3118,1732085174780711889,map,14.131020703361026,-4.571377690037447,1.9404597092870366,0.0,0.0,0.0,1.0
1732085174882794565,3119,1732085174882131814,map,14.214760934174285,-4.648717591963279,1.9502207155531222,0.0,0.0,0.0,1.0
1732085174980747299,3120,1732085174980621576,map,14.313934901879493,-4.7033135556666075,1.8967121424879387,0.0,0.0,0.0,1.0
1732085175080763192,3121,1732085175080471754,map,14.418648776756362,-4.739678712807646,1.7947792337235666,0.0,0.0,0.0,1.0
1732085175181164488,3122,1732085175181080341,map,14.068694425613383,-5.668070295570361,2.0272732426170177,0.0,0.0,0.0,1.0
1732085175281512761,3123,1732085175281200885,map,14.237267813343664,-5.580639296314728,1.993720224957956,0.0,0.0,0.0,1.0
1732085175382373715,3124,1732085175381780624,map,14.450018988692989,-5.397230067950472,2.027917358437506,0.0,0.0,0.0,1.0
1732085175483844299,3125,1732085175483165979,map,14.780180255390416,-4.936848214489128,2.0277461004470076,0.0,0.0,0.0,1.0
1732085175582609347,3126,1732085175582379579,map,15.04523098889596,-4.57078146519836,2.019988287571101,0.0,0.0,0.0,1.0
1732085175681571767,3127,1732085175681018829,map,15.237463492630745,-4.370137573025666,1.9616917136792829,0.0,0.0,0.0,1.0
1732085175781100752,3128,1732085175780607938,map,15.3325129235122,-4.441760840980415,1.91305923993676,0.0,0.0,0.0,1.0
1732085175882144020,3129,1732085175881776094,map,15.335501966270998,-4.761169384153231,1.3423441909220482,0.0,0.0,0.0,1.0
1732085175980325476,3130,1732085175980176448,map,15.499120375864726,-4.658818799596577,1.3041795775309188,0.0,0.0,0.0,1.0
1732085176082638442,3131,1732085176081845045,map,15.503313275510125,-4.813181607446325,1.5666332889734353,0.0,0.0,0.0,1.0
1732085176181594006,3132,1732085176181209564,map,15.848397999222232,-4.075622096482425,0.9420065041980968,0.0,0.0,0.0,1.0
1732085176282851992,3133,1732085176281727790,map,15.852144652703066,-4.295310494706529,1.1410329157759913,0.0,0.0,0.0,1.0
1732085176381660695,3134,1732085176381307125,map,15.641934032166093,-4.793777178421199,3.193745733312466,0.0,0.0,0.0,1.0
1732085176482561534,3135,1732085176481991529,map,15.647021149356847,-4.480354832866095,3.9643218444793416,0.0,0.0,0.0,1.0
1732085176582250708,3136,1732085176581590414,map,15.079837458786093,-5.392523486404245,5.124016344397382,0.0,0.0,0.0,1.0
1732085176682855736,3137,1732085176682305574,map,15.781883347798141,-5.065432029990671,3.3811593174979127,0.0,0.0,0.0,1.0
1732085176781636217,3138,1732085176781328201,map,16.170101846587915,-4.868707635402964,1.6315782033322948,0.0,0.0,0.0,1.0
1732085176881278009,3139,1732085176880829334,map,16.61246717993365,-4.1732395572822645,0.9189751735431253,0.0,0.0,0.0,1.0
1732085176980734968,3140,1732085176980531215,map,16.772351359145965,-4.2185626427028105,1.2708670228441825,0.0,0.0,0.0,1.0
1732085177081533833,3141,1732085177080786466,map,16.967802916333362,-4.050756574230725,1.7566950776311638,0.0,0.0,0.0,1.0
1732085177181555984,3142,1732085177181087255,map,17.04268874114558,-4.189774781520662,1.8895373481957753,0.0,0.0,0.0,1.0
1732085177281141700,3143,1732085177280980587,map,17.141177497757962,-4.248471503580063,1.9884211014554205,0.0,0.0,0.0,1.0
1732085177380522330,3144,1732085177380431890,map,17.24777022610332,-4.315275828539861,2.011538127256824,0.0,0.0,0.0,1.0
1732085177483798317,3145,1732085177481282711,map,17.374863879510862,-4.32019580507055,1.9490533294771917,0.0,0.0,0.0,1.0
1732085177581578848,3146,1732085177581245422,map,17.493089382409305,-4.356399118662067,1.778343851171429,0.0,0.0,0.0,1.0
1732085177680866067,3147,1732085177680737733,map,17.635680593356398,-4.264687292379084,1.6274010632972569,0.0,0.0,0.0,1.0
1732085177781185705,3148,1732085177781012535,map,17.793584412744313,-4.098770002325584,1.5111619461833976,0.0,0.0,0.0,1.0
1732085177882559408,3149,1732085177882162094,map,17.954084198444843,-3.9060167260070116,1.4882974082396858,0.0,0.0,0.0,1.0
1732085178006990178,3150,1732085178006681919,map,18.07367634005084,-3.4172512978657745,2.1453630881245993,0.0,0.0,0.0,1.0
1732085178082058001,3151,1732085178081945180,map,18.21376317969268,-3.850354347977171,1.4323629297419997,0.0,0.0,0.0,1.0
1732085178181359345,3152,1732085178180833578,map,18.289304302069947,-4.090764457098822,1.2616361470504815,0.0,0.0,0.0,1.0
1732085178282846538,3153,1732085178282158851,map,18.351612041291343,-4.317549403797684,1.2351175535537922,0.0,0.0,0.0,1.0
1732085178380990477,3154,1732085178380561828,map,18.428416211067557,-4.468295906041152,1.2062954427550767,0.0,0.0,0.0,1.0
1732085178481819130,3155,1732085178481424570,map,18.540581161681164,-4.462558030523294,1.3623769950839455,0.0,0.0,0.0,1.0
1732085178581093432,3156,1732085178580839872,map,18.656918480270704,-4.471400614581435,1.4480016830634144,0.0,0.0,0.0,1.0
1732085178681678533,3157,1732085178681478977,map,18.814466595339585,-4.345808596127155,1.7119068868427052,0.0,0.0,0.0,1.0
1732085178781343018,3158,1732085178780736923,map,18.941311133881364,-4.310869184650136,2.1362511909129913,0.0,0.0,0.0,1.0
1732085178881986896,3159,1732085178881679773,map,19.07470378725821,-4.237494910794268,2.4195592031860804,0.0,0.0,0.0,1.0
1732085178981371908,3160,1732085178980819940,map,19.20548668426715,-4.088946117161505,1.044307795785909,0.0,0.0,0.0,1.0
1732085179082641901,3161,1732085179082234859,map,19.363685710883694,-3.642510037754926,0.25199927580078263,0.0,0.0,0.0,1.0
1732085179180770651,3162,1732085179180566072,map,19.453345561889908,-3.8860759077811906,0.600566453440272,0.0,0.0,0.0,1.0
1732085179282805115,3163,1732085179282041549,map,19.552697170045015,-4.037317406720527,0.8131730109638935,0.0,0.0,0.0,1.0
1732085179381564794,3164,1732085179381320238,map,19.651844354909482,-4.178204466599773,1.2700297045440145,0.0,0.0,0.0,1.0
1732085179482095834,3165,1732085179481547117,map,19.743727059715393,-4.285423416319729,1.5613332915932798,0.0,0.0,0.0,1.0
1732085179580610493,3166,1732085179580169439,map,19.847631348117726,-4.326120052626646,1.5369555625764386,0.0,0.0,0.0,1.0
1732085179682959857,3167,1732085179682254791,map,19.987224232397022,-4.231561307734393,1.3274465732733003,0.0,0.0,0.0,1.0
1732085179781956489,3168,1732085179781850337,map,20.1421192643483,-4.063965493984147,1.1124113925234238,0.0,0.0,0.0,1.0
1732085179882782322,3169,1732085179882243394,map,20.306911463224044,-3.851241934833585,1.2253458010486566,0.0,0.0,0.0,1.0
1732085179983056573,3170,1732085179982955932,map,20.46001089834278,-3.67115949544198,1.4881181709912943,0.0,0.0,0.0,1.0
1732085180080887494,3171,1732085180080422878,map,20.578440870903375,-3.607388034805971,1.9059965188065906,0.0,0.0,0.0,1.0
1732085180181290251,3172,1732085180180737018,map,20.68418012610255,-3.577579687256799,2.222266751669708,0.0,0.0,0.0,1.0
1732085180282124139,3173,1732085180281607151,map,20.785584248805588,-3.571028090837559,2.4069822613513345,0.0,0.0,0.0,1.0
1732085180382660492,3174,1732085180382067680,map,20.902935392345174,-3.5138872657782936,2.487477781432774,0.0,0.0,0.0,1.0
1732085180481354130,3175,1732085180481037616,map,21.031573154192618,-3.430236857655054,2.502519713695484,0.0,0.0,0.0,1.0
1732085180582499842,3176,1732085180582128047,map,21.147765440996107,-3.4046215115390304,2.565211050171852,0.0,0.0,0.0,1.0
1732085180680587992,3177,1732085180680110454,map,21.24793963333823,-3.470691965103269,2.5976968259341557,0.0,0.0,0.0,1.0
1732085180781163383,3178,1732085180780694246,map,21.332208907430914,-3.631122159404496,2.6058419330087137,0.0,0.0,0.0,1.0
1732085180881100608,3179,1732085180880609989,map,21.4295267984332,-3.7457994270004735,2.529834997638525,0.0,0.0,0.0,1.0
1732085180981179432,3180,1732085180981059551,map,21.566222042996284,-3.6982016036949856,2.34047591724583,0.0,0.0,0.0,1.0
1732085181082567649,3181,1732085181081977844,map,21.446789625650602,-3.7909555622519737,3.938097620718264,0.0,0.0,0.0,1.0
1732085181182191621,3182,1732085181181796073,map,21.684589579516594,-2.726876649897413,4.1630708759214645,0.0,0.0,0.0,1.0
1732085181281604731,3183,1732085181281057119,map,21.381978235745365,-2.9312662971885586,5.867991831499145,0.0,0.0,0.0,1.0
1732085181382110666,3184,1732085181381689786,map,20.894238493670603,-3.1915725129088424,7.618575167837388,0.0,0.0,0.0,1.0
1732085181486725746,3185,1732085181486266374,map,20.257533758724893,-4.6038637928041135,8.794944428021504,0.0,0.0,0.0,1.0
1732085181583081226,3186,1732085181582468032,map,21.533369748404844,-4.746214724764932,5.358506998544398,0.0,0.0,0.0,1.0
1732085181687282124,3187,1732085181687183141,map,21.166165938796652,-5.442962964500744,6.262229214001362,0.0,0.0,0.0,1.0
1732085181785250331,3188,1732085181785141229,map,21.695280788563764,-6.526535316586616,1.8673645800983685,0.0,0.0,0.0,1.0
1732085181881388106,3189,1732085181881187438,map,22.047872441879758,-5.639019684613814,-0.37306962311584874,0.0,0.0,0.0,1.0
1732085181981261615,3190,1732085181980700731,map,21.970711206348117,-5.9560564149832675,-1.1989926235512636,0.0,0.0,0.0,1.0
1732085182585007852,3191,1732085182584625244,map,22.432313576106655,-5.37402303310521,-0.8598232816266641,0.0,0.0,0.0,1.0
1732085182682589047,3192,1732085182682126998,map,23.52938875302105,-3.997273200917793,2.2977063924964476,0.0,0.0,0.0,1.0
1732085182779725460,3193,1732085182779493570,map,23.57964826830793,-4.245819480096607,2.685260850930273,0.0,0.0,0.0,1.0
1732085182880386021,3194,1732085182880158424,map,23.692494564082512,-4.240255570651827,2.726848509670493,0.0,0.0,0.0,1.0
1732085183007422240,3195,1732085183007206201,map,23.91049574271538,-3.404228213550327,1.7805992165554234,0.0,0.0,0.0,1.0
1732085183080274309,3196,1732085183079998970,map,23.909835683833137,-4.275577486143038,2.766569268343165,0.0,0.0,0.0,1.0
1732085183181062089,3197,1732085183180551528,map,23.9989462729211,-4.360240554469232,2.903011751179337,0.0,0.0,0.0,1.0
1732085183279820090,3198,1732085183279593229,map,24.11299476317551,-4.406748156534453,2.8732178741411656,0.0,0.0,0.0,1.0
1732085183379756290,3199,1732085183379577875,map,24.217389757319552,-4.444111912430013,2.868071443656184,0.0,0.0,0.0,1.0
1732085183480456574,3200,1732085183480025291,map,24.349798971189255,-4.349878357174442,2.8050456661553596,0.0,0.0,0.0,1.0
1732085183582152049,3201,1732085183580493450,map,24.45089906322532,-4.378768852883374,2.825322047593838,0.0,0.0,0.0,1.0
1732085183680382397,3202,1732085183680029392,map,24.55430781772081,-4.42480734601397,2.833103394690433,0.0,0.0,0.0,1.0
1732085183780067694,3203,1732085183779667377,map,24.659386839083144,-4.530245885725318,2.720515849092456,0.0,0.0,0.0,1.0
1732085183880111656,3204,1732085183879860639,map,24.81440192218084,-4.411444612591461,2.5359656901219934,0.0,0.0,0.0,1.0
1732085183980318490,3205,1732085183980077028,map,24.97456312397956,-4.317715333998256,2.2792643118604943,0.0,0.0,0.0,1.0
1732085184080735699,3206,1732085184080492258,map,25.13423286164847,-4.17720919881499,2.0542056028504225,0.0,0.0,0.0,1.0
1732085184180812218,3207,1732085184180354356,map,25.254746577630666,-4.1539865556826685,1.9846976738068485,0.0,0.0,0.0,1.0
1732085184279791406,3208,1732085184279608726,map,25.37671247550896,-4.021878612996925,1.9602715317875128,0.0,0.0,0.0,1.0
1732085184380196692,3209,1732085184379747629,map,25.489077025840363,-3.917722269200962,1.9260968458291587,0.0,0.0,0.0,1.0
1732085184480615341,3210,1732085184480248212,map,25.60836081775263,-3.8361857748687456,1.7038317321583931,0.0,0.0,0.0,1.0
1732085184580112563,3211,1732085184579782962,map,25.612203565894063,-4.120871491206892,1.704834551562936,0.0,0.0,0.0,1.0
1732085184680163098,3212,1732085184679996490,map,25.618338380412787,-4.394171940758778,1.7904174577026661,0.0,0.0,0.0,1.0
1732085184789773470,3213,1732085184789290189,map,25.61833838041292,-4.394171940758807,-0.06580508373965653,0.0,0.0,0.0,1.0
1732085186262448210,3214,1732085186261548519,map,27.62328283096109,-3.022639336324928,0.7938276318028489,0.0,0.0,0.0,1.0
1732085186366863225,3215,1732085186366171360,map,27.50593325428753,-4.929196740889192,1.145182104623225,0.0,0.0,0.0,1.0
1732085186467365817,3216,1732085186466754913,map,27.655328011469418,-4.7605503674119385,1.1724329281634036,0.0,0.0,0.0,1.0
1732085186568656121,3217,1732085186567996740,map,27.622738103750677,-4.817999698233764,3.3068581199506406,0.0,0.0,0.0,1.0
1732085186667633546,3218,1732085186667096138,map,27.30512695313166,-6.047804537041529,4.668069689191009,0.0,0.0,0.0,1.0
1732085186767818360,3219,1732085186767647743,map,26.699563504927646,-7.723106996639289,6.119731609962719,0.0,0.0,0.0,1.0
1732085186871599097,3220,1732085186871055126,map,27.379544435038376,-6.931949705500528,4.303706081948337,0.0,0.0,0.0,1.0
1732085186968416160,3221,1732085186968143939,map,27.86298071315867,-6.154835825422532,2.8087820531141277,0.0,0.0,0.0,1.0
1732085187067952379,3222,1732085187067613124,map,28.289226022922495,-5.057297314119867,1.9204685647818316,0.0,0.0,0.0,1.0
1732085187167653880,3223,1732085187167423963,map,28.441493602841593,-4.791339785040567,2.381030444825088,0.0,0.0,0.0,1.0
1732085187267482285,3224,1732085187267290115,map,28.592255069090967,-4.501379608160357,2.7850543287696827,0.0,0.0,0.0,1.0
1732085187368098034,3225,1732085187367458820,map,28.701263505124718,-4.52919006507908,2.797563492029826,0.0,0.0,0.0,1.0
1732085187467489767,3226,1732085187466918706,map,28.811813238143028,-4.6376368604435765,2.6373313407309853,0.0,0.0,0.0,1.0
1732085187571414858,3227,1732085187570774078,map,28.544525247287783,-6.3439181060448195,2.4020450764034877,0.0,0.0,0.0,1.0
1732085187768468927,3228,1732085187767921447,map,27.82819489704923,-9.294869264494707,1.9015450983112117,0.0,0.0,0.0,1.0
1732085187867188653,3229,1732085187866852283,map,27.880400025383434,-9.421693520204261,0.2742763634181807,0.0,0.0,0.0,1.0
1732085188314125488,3230,1732085188313720941,map,28.64738170606703,-7.712561431747263,-1.0579210290480656,0.0,0.0,0.0,1.0
1732085188520505769,3231,1732085188520081520,map,30.157157454287486,-4.410617638100777,0.3366822847888509,0.0,0.0,0.0,1.0
1732085188619224005,3232,1732085188619135856,map,30.280576179960914,-4.318066719433009,0.08686083881101038,0.0,0.0,0.0,1.0
1732085188719806893,3233,1732085188719062805,map,30.411575528991804,-4.190974447623428,-0.01153949124320506,0.0,0.0,0.0,1.0
1732085188819014519,3234,1732085188818631649,map,30.522256573689134,-4.206034980718193,0.06159018765442689,0.0,0.0,0.0,1.0
1732085188919162167,3235,1732085188918822765,map,30.642096792062564,-4.160202033302088,0.18838519472717577,0.0,0.0,0.0,1.0
1732085189019518112,3236,1732085189019184827,map,30.768749228902,-4.059446143145289,0.17229422565433083,0.0,0.0,0.0,1.0
1732085189118889418,3237,1732085189118764400,map,30.898884774207858,-3.911779245444265,-0.06590847957801954,0.0,0.0,0.0,1.0
1732085189219021132,3238,1732085189218724012,map,31.007222069489178,-3.858974969121771,-0.3936399569152995,0.0,0.0,0.0,1.0
1732085189318838913,3239,1732085189318559408,map,31.099045880585557,-3.860791379872969,-0.7104364398169456,0.0,0.0,0.0,1.0
1732085189419400665,3240,1732085189418942451,map,31.210018588244537,-3.86766830271617,-0.6531474926163899,0.0,0.0,0.0,1.0
1732085189519178568,3241,1732085189518590927,map,31.342980993388043,-3.8117654546062267,-0.425879847247514,0.0,0.0,0.0,1.0
1732085189619240008,3242,1732085189619057655,map,31.478701965627984,-3.832681066021988,0.020482143403237934,0.0,0.0,0.0,1.0
1732085189719074326,3243,1732085189718565464,map,31.60713100861374,-3.8182351929245866,0.25055541456855224,0.0,0.0,0.0,1.0
1732085189819737391,3244,1732085189819511651,map,31.555944349420546,-4.881042139145852,1.4593870270083737,0.0,0.0,0.0,1.0
1732085189919673337,3245,1732085189918897867,map,31.665275547381864,-4.901292483915313,1.51308724733288,0.0,0.0,0.0,1.0
1732085190019322644,3246,1732085190019005775,map,31.777862623027765,-4.913478148846046,1.3670100577898328,0.0,0.0,0.0,1.0
1732085190119011106,3247,1732085190118693590,map,31.85602583175663,-5.127917045959595,1.3476203239220832,0.0,0.0,0.0,1.0
1732085190219057838,3248,1732085190218598365,map,31.921399971556795,-5.412416882316707,1.206582416102423,0.0,0.0,0.0,1.0
1732085190319550466,3249,1732085190319105863,map,31.760924767188534,-6.584804756780222,0.3018613395307939,0.0,0.0,0.0,1.0
1732085190419167567,3250,1732085190418888092,map,31.42792884075617,-7.883248482738772,-0.6309080218879025,0.0,0.0,0.0,1.0
1732085190519965625,3251,1732085190519798278,map,31.02063186527503,-9.151245647314246,-1.4489191622569804,0.0,0.0,0.0,1.0
1732085190619772909,3252,1732085190619389295,map,30.474050644352133,-10.571071366197462,-2.255151350780779,0.0,0.0,0.0,1.0
1732085192664633635,3253,1732085192664077997,map,33.8146563777336,3.9373614631957574,-2.2361784537311418,0.0,0.0,0.0,1.0
1732085193181238169,3254,1732085193180895090,map,34.97834509761132,-5.593711311932036,2.4913971007246456,0.0,0.0,0.0,1.0
1732085193281476699,3255,1732085193281218528,map,35.53973576409776,-5.801320506050433,1.7499507026334176,0.0,0.0,0.0,1.0
1732085193381752584,3256,1732085193381422519,map,35.67495080279591,-5.665073130177898,2.099438486218201,0.0,0.0,0.0,1.0
1732085193481477866,3257,1732085193481021881,map,35.79796033694571,-5.582137032264534,2.5115528917628396,0.0,0.0,0.0,1.0
1732085193581322607,3258,1732085193581100225,map,35.93794568745954,-5.433706691659009,2.5654798373268712,0.0,0.0,0.0,1.0
1732085193682964271,3259,1732085193682615518,map,36.06737681893054,-5.39093788609546,2.3582237145037324,0.0,0.0,0.0,1.0
1732085193782455996,3260,1732085193782116413,map,36.180004218021956,-5.412000020040258,2.13254456126562,0.0,0.0,0.0,1.0
1732085193881948149,3261,1732085193881875991,map,36.27991308737464,-5.481421745011363,2.0448115298450804,0.0,0.0,0.0,1.0
1732085193982435586,3262,1732085193981991052,map,36.39487425887042,-5.437962958242254,2.21663130065077,0.0,0.0,0.0,1.0
1732085194082494760,3263,1732085194082067489,map,36.5170680216421,-5.349477820310877,2.3854111428718725,0.0,0.0,0.0,1.0
1732085194182300185,3264,1732085194181686878,map,36.61926404807212,-5.366084833221231,2.6889627913344896,0.0,0.0,0.0,1.0
1732085194284915477,3265,1732085194283903598,map,36.747005375880654,-5.351625679500793,2.4596194899729173,0.0,0.0,0.0,1.0
1732085194383998679,3266,1732085194383642673,map,36.85573981066055,-5.512478553255976,2.0952235663226753,0.0,0.0,0.0,1.0
1732085194484403086,3267,1732085194484251022,map,36.985627294945544,-5.513542232941613,1.6882890615870967,0.0,0.0,0.0,1.0
1732085194583511489,3268,1732085194583230733,map,37.09387533131824,-5.549859635551443,1.8340139424058244,0.0,0.0,0.0,1.0
1732085194682219673,3269,1732085194681996107,map,37.235203371395485,-5.280495037184431,2.15162904555536,0.0,0.0,0.0,1.0
1732085194782178601,3270,1732085194781755924,map,37.36683221668066,-5.0439171917192205,2.3537451649724224,0.0,0.0,0.0,1.0
1732085194883017479,3271,1732085194882528543,map,37.50975092449625,-4.805578829299707,2.2398370287137928,0.0,0.0,0.0,1.0
1732085194982842699,3272,1732085194982141494,map,37.62117858918489,-4.8503688855183675,2.0706554286570036,0.0,0.0,0.0,1.0
1732085195082848905,3273,1732085195082641124,map,37.733327996418,-4.927321769279966,1.7960186004821557,0.0,0.0,0.0,1.0
1732085195182108621,3274,1732085195181800365,map,37.84890454645615,-4.953169369876244,1.6670040241595787,0.0,0.0,0.0,1.0
1732085195283420718,3275,1732085195283169746,map,37.99186061167728,-4.755559386006934,1.6712750874859803,0.0,0.0,0.0,1.0
1732085195383518841,3276,1732085195382542610,map,38.14373181935226,-4.485625954777049,1.8817460904759185,0.0,0.0,0.0,1.0
1732085195483088216,3277,1732085195482640981,map,38.33581471379955,-3.0205562273394846,3.2939171717998788,0.0,0.0,0.0,1.0
1732085195583342267,3278,1732085195582888603,map,38.36924869126613,-3.252847488425477,3.4372313818325377,0.0,0.0,0.0,1.0
1732085195682726637,3279,1732085195682281255,map,38.47811277148234,-3.6231019516812513,3.137494013050523,0.0,0.0,0.0,1.0
1732085195783610894,3280,1732085195783111333,map,38.55638379463132,-4.323091334935744,2.702338265039445,0.0,0.0,0.0,1.0
1732085195882971640,3281,1732085195882503509,map,38.62229644737531,-4.997392840759409,2.3645091194046466,0.0,0.0,0.0,1.0
1732085195984791839,3282,1732085195984569787,map,38.56759173156642,-5.866046134827222,1.9413307958526949,0.0,0.0,0.0,1.0
1732085196084636953,3283,1732085196084100961,map,38.847567558305684,-4.320245960777405,-0.42905066543101766,0.0,0.0,0.0,1.0
1732085196182778269,3284,1732085196182396411,map,38.864420931691036,-4.654193634250861,-0.5363411785034821,0.0,0.0,0.0,1.0
1732085196283133879,3285,1732085196282559156,map,38.90211112785965,-4.836048520867821,-0.47999157613731347,0.0,0.0,0.0,1.0
1732085197038919835,3286,1732085197038718938,map,39.35603228068861,-5.106347043181489,-0.08480494842380668,0.0,0.0,0.0,1.0
1732085197797291141,3287,1732085197797150373,map,40.733516067661704,-1.8843848092892748,2.5949593955136354,0.0,0.0,0.0,1.0
1732085198780183966,3288,1732085198779310703,map,41.87316646752271,1.6454149720669464,2.2375463376608216,0.0,0.0,0.0,1.0
1732085199195982534,3289,1732085199195738792,map,42.49443189278799,-5.090815912639202,3.2866267571824266,0.0,0.0,0.0,1.0
1732085199298700562,3290,1732085199298336267,map,42.626624643611024,-5.093021441315487,3.009145268736337,0.0,0.0,0.0,1.0
1732085199396188040,3291,1732085199395750045,map,42.76694654105205,-5.012087898782888,2.7372649799237116,0.0,0.0,0.0,1.0
1732085199496768804,3292,1732085199496247291,map,42.91577534421312,-4.796507473647242,2.6942950712284452,0.0,0.0,0.0,1.0
1732085199598873318,3293,1732085199598382949,map,43.052277998048346,-4.584530993338772,2.7127652278273535,0.0,0.0,0.0,1.0
1732085199696721285,3294,1732085199696068525,map,43.18532068175297,-4.403912281019885,2.608005948994166,0.0,0.0,0.0,1.0
1732085199795783790,3295,1732085199795402765,map,43.31044750518106,-4.239448743410922,2.6437760879333605,0.0,0.0,0.0,1.0
1732085199897086320,3296,1732085199896703481,map,43.404737751339624,-4.612879901476421,2.3112692066523244,0.0,0.0,0.0,1.0
1732085199997033597,3297,1732085199996392726,map,43.47138955264444,-5.134234504703876,2.2955833345945287,0.0,0.0,0.0,1.0
1732085200096585100,3298,1732085200096453666,map,43.54240441879301,-5.61677916862946,1.9175284138877042,0.0,0.0,0.0,1.0
1732085200195975547,3299,1732085200195608854,map,43.637016454940365,-5.7467131527808535,1.992814319118529,0.0,0.0,0.0,1.0
1732085200296429408,3300,1732085200295902252,map,43.73854757032702,-5.8469941261872025,1.814424488543015,0.0,0.0,0.0,1.0
1732085200396341145,3301,1732085200395988464,map,43.829212415088875,-6.0295685639593914,1.7956731564391015,0.0,0.0,0.0,1.0
1732085200495433072,3302,1732085200495160818,map,43.94984836210418,-6.028734776053465,1.6701341386896702,0.0,0.0,0.0,1.0
1732085200596482027,3303,1732085200596201419,map,44.08082513072103,-5.947335428262546,1.3871201605923955,0.0,0.0,0.0,1.0
1732085200696533315,3304,1732085200696269035,map,44.20973791937967,-5.863036319983477,1.1985492850844333,0.0,0.0,0.0,1.0
1732085200796049658,3305,1732085200795575618,map,44.3438060819273,-5.694029535335153,1.1513711091624754,0.0,0.0,0.0,1.0
1732085200897159364,3306,1732085200896935701,map,44.46031835689677,-5.67116917401026,1.3931807987003757,0.0,0.0,0.0,1.0
1732085200996761623,3307,1732085200996470689,map,44.57842849338597,-5.606495197138615,1.478169312378692,0.0,0.0,0.0,1.0
1732085201095926760,3308,1732085201095492124,map,44.66511668593581,-5.841442356618391,1.3769584792445162,0.0,0.0,0.0,1.0
1732085201197245507,3309,1732085201196911811,map,44.78785639744749,-5.788029146670207,0.8792166151593406,0.0,0.0,0.0,1.0
1732085201296305501,3310,1732085201296146392,map,44.91697599609796,-5.6825591814380045,0.5611867872206419,0.0,0.0,0.0,1.0
1732085201396861032,3311,1732085201396376609,map,45.084183192921216,-5.234217977979255,0.30413894313100914,0.0,0.0,0.0,1.0
1732085201496179532,3312,1732085201496059656,map,45.21975307149694,-5.129245948174456,0.6282084955561494,0.0,0.0,0.0,1.0
1732085201596978549,3313,1732085201596562147,map,45.34337441805406,-5.10598440597515,0.9343987072260489,0.0,0.0,0.0,1.0
1732085201696592457,3314,1732085201696120262,map,45.44488350963235,-5.230789484471022,1.379963185504552,0.0,0.0,0.0,1.0
1732085201796308785,3315,1732085201796119213,map,45.56469912879361,-5.121040937315747,1.6174789005005186,0.0,0.0,0.0,1.0
1732085201896803533,3316,1732085201896325349,map,45.68097950590284,-4.99636045816379,1.7246650810114992,0.0,0.0,0.0,1.0
1732085201997070426,3317,1732085201996655702,map,45.7105205528564,-5.167959143245727,1.8751876493406063,0.0,0.0,0.0,1.0
1732085202096943772,3318,1732085202096691131,map,45.809054290704175,-5.300168205037894,1.8459403385515587,0.0,0.0,0.0,1.0
1732085202197170869,3319,1732085202196609258,map,45.94672037702192,-5.2428828946966,1.6640899644892218,0.0,0.0,0.0,1.0
1732085202296602409,3320,1732085202296151876,map,46.09152051136149,-5.168273270847007,1.4397968570224078,0.0,0.0,0.0,1.0
1732085202396281166,3321,1732085202395977735,map,46.12770007640355,-5.360635319477321,1.6254006044613971,0.0,0.0,0.0,1.0
1732085203289247357,3322,1732085203289100170,map,44.813058803700095,-8.461803218216074,11.961079633083077,0.0,0.0,0.0,1.0
1732085203631513713,3323,1732085203630941390,map,47.56507059219565,-4.537614984485889,1.2547232285077703,0.0,0.0,0.0,1.0
1732085203830697360,3324,1732085203830325603,map,47.86104961635212,-3.9329441909943457,1.6631960650438342,0.0,0.0,0.0,1.0
1732085204314184043,3325,1732085204313510894,map,48.09719803094019,-3.8193113868872453,1.0702153861364998,0.0,0.0,0.0,1.0
1732085204423380600,3326,1732085204422726392,map,48.444338432149046,-5.065838066262709,4.101144366476822,0.0,0.0,0.0,1.0
1732085204523373443,3327,1732085204522670030,map,48.77282299659266,-3.7889389924537022,1.4215767810835376,0.0,0.0,0.0,1.0
1732085204619379410,3328,1732085204618693351,map,48.880059940484315,-3.868038912508659,1.1277755067054702,0.0,0.0,0.0,1.0
1732085204719581802,3329,1732085204719180107,map,48.93996132974387,-4.594034582270701,0.5888008076543358,0.0,0.0,0.0,1.0
1732085204819439817,3330,1732085204819279193,map,49.02379244083189,-4.873090991644585,-0.178182471963908,0.0,0.0,0.0,1.0
1732085204920140362,3331,1732085204919515132,map,49.10684270729906,-5.061459090934443,-0.5703486790194358,0.0,0.0,0.0,1.0
1732085205019694651,3332,1732085205019263029,map,49.254070890258895,-4.5226330341439835,-0.48152585345260446,0.0,0.0,0.0,1.0
1732085205121904105,3333,1732085205121234893,map,49.377019193196766,-3.1566058672868005,-1.3792468958396904,0.0,0.0,0.0,1.0
1732085205219401098,3334,1732085205219166517,map,49.46875915283724,-3.3250518977821186,-0.5985612324650312,0.0,0.0,0.0,1.0
1732085205319073613,3335,1732085205318651676,map,49.53072492452204,-3.601937655263276,0.21553230274597648,0.0,0.0,0.0,1.0
1732085205420081020,3336,1732085205419816017,map,49.540098398035305,-4.175800136071445,0.7162409900936912,0.0,0.0,0.0,1.0
1732085205519047680,3337,1732085205518645286,map,49.56188354389406,-4.350562261791757,0.9266369602770671,0.0,0.0,0.0,1.0
1732085205618870785,3338,1732085205618312120,map,49.584196688702356,-4.391036651815174,1.125499169094821,0.0,0.0,0.0,1.0
1732085205720400162,3339,1732085205720227479,map,49.62802050369475,-4.098781298977834,1.7067080653223028,0.0,0.0,0.0,1.0
1732085205820061067,3340,1732085205819522619,map,49.64488354372164,-3.992230701702686,2.1725609750477175,0.0,0.0,0.0,1.0
1732085205920275764,3341,1732085205919686079,map,49.66256370358003,-3.7850653431755013,2.5789057716103927,0.0,0.0,0.0,1.0
1732085206018618682,3342,1732085206018420696,map,49.67183807394111,-3.7106666732680504,2.549785105036194,0.0,0.0,0.0,1.0
1732085206118684009,3343,1732085206118288278,map,49.67736664666801,-3.61905018368048,2.509080502511697,0.0,0.0,0.0,1.0
1732085206218825234,3344,1732085206218699455,map,49.64566492634224,-3.939195448362232,2.4908522156181,0.0,0.0,0.0,1.0
1732085206319445150,3345,1732085206319074392,map,49.58624973024446,-4.526513567665458,2.525074519322821,0.0,0.0,0.0,1.0
1732085206419882761,3346,1732085206419352769,map,49.57232270950879,-4.688945237668418,2.3264631278283767,0.0,0.0,0.0,1.0
1732085206521521254,3347,1732085206521030426,map,49.4771439020566,-5.476536147060826,2.6600304393713374,0.0,0.0,0.0,1.0
1732085206619723466,3348,1732085206619641304,map,49.41979200868608,-5.915534582253315,2.72485193647404,0.0,0.0,0.0,1.0
1732085206719037784,3349,1732085206718475580,map,49.400764308338076,-6.079799887028782,2.418833933091229,0.0,0.0,0.0,1.0
1732085206819359194,3350,1732085206818858385,map,49.41851523278224,-5.961954691640853,1.7686358436266527,0.0,0.0,0.0,1.0
1732085206918361205,3351,1732085206918250799,map,49.4168199020734,-5.9504663119189205,1.40791585431781,0.0,0.0,0.0,1.0
1732085207018712117,3352,1732085207018294334,map,49.44301211454311,-5.735828163368227,1.3004190610760362,0.0,0.0,0.0,1.0
1732085207119102645,3353,1732085207118600606,map,49.50514275253308,-5.195370164564713,1.4983595169171906,0.0,0.0,0.0,1.0
1732085207219364162,3354,1732085207218883991,map,49.56373907432004,-4.589129748752764,1.7215940547599067,0.0,0.0,0.0,1.0
1732085207319313421,3355,1732085207318818807,map,49.592498781881986,-4.177293630375173,1.9876342589072438,0.0,0.0,0.0,1.0
1732085207419350343,3356,1732085207418783903,map,49.58591364186719,-4.1823005443303165,1.9444630568077255,0.0,0.0,0.0,1.0
1732085207519012581,3357,1732085207518604278,map,49.57441446211498,-4.313671836017482,1.7141415478559299,0.0,0.0,0.0,1.0
1732085207619666690,3358,1732085207619188070,map,49.564293953085865,-4.443807000978769,1.683934515889893,0.0,0.0,0.0,1.0
1732085207718962545,3359,1732085207718654870,map,49.56703361151758,-4.416704831404061,1.715961955984668,0.0,0.0,0.0,1.0
1732085207818288743,3360,1732085207818021774,map,49.56994445188029,-4.390495237069807,1.8145614551256164,0.0,0.0,0.0,1.0
1732085207919771070,3361,1732085207919207572,map,49.55435679907553,-4.5583036230381655,2.0209133772680126,0.0,0.0,0.0,1.0
1732085208018705270,3362,1732085208018312692,map,49.55298538945859,-4.5628419228716925,2.2875500346300823,0.0,0.0,0.0,1.0
1732085209488633074,3363,1732085209488178730,map,31.45678883813148,-26.70117773347885,27.53809131278997,0.0,0.0,0.0,1.0
1732085210998921839,3364,1732085210998265743,map,49.80420315582482,-3.2780274649211414,2.2581826068251734,0.0,0.0,0.0,1.0
1732085211099518357,3365,1732085211098824977,map,49.824554420543876,-2.9572842127071333,2.2092955069028557,0.0,0.0,0.0,1.0
1732085211197267403,3366,1732085211196864604,map,49.83253775557468,-2.8697825697867563,1.9717133299732839,0.0,0.0,0.0,1.0
1732085211298080567,3367,1732085211297609329,map,49.843766921615384,-2.6041386825174357,1.991078839720207,0.0,0.0,0.0,1.0
1732085211399349660,3368,1732085211398321390,map,49.85211022970482,-2.343066312228923,2.0802502892259898,0.0,0.0,0.0,1.0
1732085211498043012,3369,1732085211497610330,map,49.86771531066632,-2.0262632669739205,2.1026009769542044,0.0,0.0,0.0,1.0
1732085211598595689,3370,1732085211598283290,map,49.87554852337291,-2.0608261025411854,1.87445199705936,0.0,0.0,0.0,1.0
1732085211698191927,3371,1732085211697780370,map,49.87925278706662,-2.182650711993837,1.8155312658863023,0.0,0.0,0.0,1.0
1732085211797801375,3372,1732085211797280788,map,49.87068378504788,-2.3871549252924726,1.924556668070725,0.0,0.0,0.0,1.0
1732085211898650551,3373,1732085211898239135,map,49.882905811148675,-2.178547071351225,1.9465640928245949,0.0,0.0,0.0,1.0
1732085211997889142,3374,1732085211997404575,map,49.8923387682331,-1.8573625048148898,2.1000186179507985,0.0,0.0,0.0,1.0
1732085212098131272,3375,1732085212097715377,map,49.906524916100686,-1.5122433611390278,2.156589940060428,0.0,0.0,0.0,1.0
1732085212198342764,3376,1732085212198152542,map,49.90244247344559,-1.4050555462461405,2.560013401964683,0.0,0.0,0.0,1.0
1732085212298554193,3377,1732085212298308849,map,49.91319339286295,-1.599700810773822,2.3260741400407148,0.0,0.0,0.0,1.0
