%time,field.header.seq,field.header.stamp,field.header.frame_id,field.status.status,field.status.service,field.latitude,field.longitude,field.altitude,field.position_covariance0,field.position_covariance1,field.position_covariance2,field.position_covariance3,field.position_covariance4,field.position_covariance5,field.position_covariance6,field.position_covariance7,field.position_covariance8,field.position_covariance_type
1733053256812280134,36511,1733053256750406490,gps,2,0,37.555215,127.0451844,49.919000000000004,0.00019600000000000002,0.0,0.0,0.0,0.00019600000000000002,0.0,0.0,0.0,0.00028900000000000003,2
1733053256936745556,36512,1733053256875406488,gps,2,0,37.555215,127.0451844,49.914,0.00019600000000000002,0.0,0.0,0.0,0.00019600000000000002,0.0,0.0,0.0,0.00028900000000000003,2
1733053257066405701,36513,1733053257000406486,gps,2,0,37.5552151,127.0451844,49.907000000000004,0.00019600000000000002,0.0,0.0,0.0,0.00019600000000000002,0.0,0.0,0.0,0.000256,2
1733053257187060808,36514,1733053257125406484,gps,2,0,37.5552151,127.04518429999999,49.904,0.00019600000000000002,0.0,0.0,0.0,0.00019600000000000002,0.0,0.0,0.0,0.000256,2
1733053257312822701,36515,1733053257250406482,gps,2,0,37.555215,127.0451844,49.899,0.00019600000000000002,0.0,0.0,0.0,0.00019600000000000002,0.0,0.0,0.0,0.00028900000000000003,2
1733053257436438607,36516,1733053257375406481,gps,2,0,37.555215,127.0451844,49.899,0.00019600000000000002,0.0,0.0,0.0,0.00019600000000000002,0.0,0.0,0.0,0.00028900000000000003,2
1733053257557767785,36517,1733053257500406479,gps,2,0,37.5552151,127.0451844,49.908,0.00019600000000000002,0.0,0.0,0.0,0.00019600000000000002,0.0,0.0,0.0,0.00032399999999999996,2
1733053257686884019,36518,1733053257625406477,gps,2,0,37.5552151,127.04518449999999,49.914,0.00019600000000000002,0.0,0.0,0.0,0.00019600000000000002,0.0,0.0,0.0,0.00028900000000000003,2
1733053257813275566,36519,1733053257750406475,gps,2,0,37.5552151,127.04518429999999,49.929,0.00019600000000000002,0.0,0.0,0.0,0.00019600000000000002,0.0,0.0,0.0,0.00028900000000000003,2
1733053257936735667,36520,1733053257875406473,gps,2,0,37.5552151,127.0451844,49.925000000000004,0.00019600000000000002,0.0,0.0,0.0,0.00019600000000000002,0.0,0.0,0.0,0.000256,2
1733053258065894637,36521,1733053258000406471,gps,2,0,37.5552151,127.0451844,49.917,0.00019600000000000002,0.0,0.0,0.0,0.00019600000000000002,0.0,0.0,0.0,0.000256,2
1733053258186738207,36522,1733053258125406469,gps,2,0,37.5552151,127.0451844,49.917,0.00019600000000000002,0.0,0.0,0.0,0.00019600000000000002,0.0,0.0,0.0,0.000256,2
1733053258312598583,36523,1733053258250406467,gps,2,0,37.555215,127.0451844,49.915,0.00019600000000000002,0.0,0.0,0.0,0.00019600000000000002,0.0,0.0,0.0,0.000256,2
1733053258434388967,36524,1733053258375406465,gps,2,0,37.5552151,127.0451844,49.916000000000004,0.00019600000000000002,0.0,0.0,0.0,0.00019600000000000002,0.0,0.0,0.0,0.000256,2
1733053258562953605,36525,1733053258500406464,gps,2,0,37.555215,127.0451844,49.917,0.00019600000000000002,0.0,0.0,0.0,0.00019600000000000002,0.0,0.0,0.0,0.000256,2
1733053258688571502,36526,1733053258625406462,gps,2,0,37.5552151,127.0451844,49.921,0.00019600000000000002,0.0,0.0,0.0,0.00019600000000000002,0.0,0.0,0.0,0.000256,2
1733053258812092679,36527,1733053258750406460,gps,2,0,37.5552151,127.0451844,49.913000000000004,0.00019600000000000002,0.0,0.0,0.0,0.00019600000000000002,0.0,0.0,0.0,0.000256,2
1733053258936066761,36528,1733053258875406458,gps,2,0,37.5552151,127.0451844,49.915,0.00019600000000000002,0.0,0.0,0.0,0.00019600000000000002,0.0,0.0,0.0,0.000256,2
1733053259064303550,36529,1733053259000406456,gps,2,0,37.5552151,127.04518429999999,49.923,0.00019600000000000002,0.0,0.0,0.0,0.00019600000000000002,0.0,0.0,0.0,0.000256,2
1733053259186949390,36530,1733053259125406454,gps,2,0,37.5552152,127.0451844,49.914,0.00019600000000000002,0.0,0.0,0.0,0.00019600000000000002,0.0,0.0,0.0,0.000256,2
1733053259311179878,36531,1733053259250406452,gps,2,0,37.5552151,127.04518429999999,49.908,0.00019600000000000002,0.0,0.0,0.0,0.00019600000000000002,0.0,0.0,0.0,0.000256,2
1733053259438250684,36532,1733053259375406450,gps,2,0,37.5552151,127.0451844,49.921,0.00019600000000000002,0.0,0.0,0.0,0.00019600000000000002,0.0,0.0,0.0,0.000225,2
1733053259561767936,36533,1733053259500406448,gps,2,0,37.5552151,127.0451844,49.912,0.00019600000000000002,0.0,0.0,0.0,0.00019600000000000002,0.0,0.0,0.0,0.000225,2
1733053259687160024,36534,1733053259625406446,gps,2,0,37.5552151,127.04518429999999,49.912,0.00019600000000000002,0.0,0.0,0.0,0.00019600000000000002,0.0,0.0,0.0,0.000225,2
1733053259811715496,36535,1733053259750406445,gps,2,0,37.5552152,127.0451844,49.901,0.00019600000000000002,0.0,0.0,0.0,0.00019600000000000002,0.0,0.0,0.0,0.000225,2
1733053259936997089,36536,1733053259875406443,gps,2,0,37.5552152,127.04518429999999,49.907000000000004,0.00019600000000000002,0.0,0.0,0.0,0.00019600000000000002,0.0,0.0,0.0,0.000256,2
1733053260066374023,36537,1733053260000406441,gps,2,0,37.5552152,127.04518429999999,49.922000000000004,0.00019600000000000002,0.0,0.0,0.0,0.00019600000000000002,0.0,0.0,0.0,0.00032399999999999996,2
1733053260188232531,36538,1733053260125406439,gps,2,0,37.5552151,127.04518429999999,49.931000000000004,0.00019600000000000002,0.0,0.0,0.0,0.00019600000000000002,0.0,0.0,0.0,0.00028900000000000003,2
1733053260313971862,36539,1733053260250406437,gps,2,0,37.5552151,127.04518429999999,49.933,0.00019600000000000002,0.0,0.0,0.0,0.00019600000000000002,0.0,0.0,0.0,0.00028900000000000003,2
1733053260438350692,36540,1733053260375406435,gps,2,0,37.5552151,127.0451842,49.941,0.00019600000000000002,0.0,0.0,0.0,0.00019600000000000002,0.0,0.0,0.0,0.00028900000000000003,2
1733053260562109049,36541,1733053260500406433,gps,2,0,37.5552151,127.04518429999999,49.929,0.00019600000000000002,0.0,0.0,0.0,0.00019600000000000002,0.0,0.0,0.0,0.00028900000000000003,2
1733053260688185610,36542,1733053260625406431,gps,2,0,37.5552151,127.04518429999999,49.937,0.00019600000000000002,0.0,0.0,0.0,0.00019600000000000002,0.0,0.0,0.0,0.00028900000000000003,2
1733053260813838093,36543,1733053260750406429,gps,2,0,37.5552151,127.0451842,49.934,0.00019600000000000002,0.0,0.0,0.0,0.00019600000000000002,0.0,0.0,0.0,0.00028900000000000003,2
1733053260938705615,36544,1733053260875406427,gps,2,0,37.5552151,127.0451842,49.939,0.00019600000000000002,0.0,0.0,0.0,0.00019600000000000002,0.0,0.0,0.0,0.00028900000000000003,2
1733053261067468886,36545,1733053261000406425,gps,2,0,37.5552151,127.04518429999999,49.928000000000004,0.00019600000000000002,0.0,0.0,0.0,0.00019600000000000002,0.0,0.0,0.0,0.00028900000000000003,2
1733053261186753530,36546,1733053261125406423,gps,2,0,37.5552151,127.04518429999999,49.938,0.00019600000000000002,0.0,0.0,0.0,0.00019600000000000002,0.0,0.0,0.0,0.00032399999999999996,2
1733053261313921759,36547,1733053261250406422,gps,2,0,37.5552151,127.04518429999999,49.942,0.00019600000000000002,0.0,0.0,0.0,0.00019600000000000002,0.0,0.0,0.0,0.00032399999999999996,2
1733053261439242552,36548,1733053261375406420,gps,2,0,37.5552151,127.04518429999999,49.907000000000004,0.00019600000000000002,0.0,0.0,0.0,0.00019600000000000002,0.0,0.0,0.0,0.000256,2
1733053261564069174,36549,1733053261500406418,gps,2,0,37.5552152,127.04518429999999,49.898,0.00019600000000000002,0.0,0.0,0.0,0.00019600000000000002,0.0,0.0,0.0,0.00028900000000000003,2
1733053261689733045,36550,1733053261625406416,gps,2,0,37.5552151,127.0451844,49.926,0.000225,0.0,0.0,0.0,0.000225,0.0,0.0,0.0,0.00044100000000000004,2
1733053261812911182,36551,1733053261750406414,gps,2,0,37.5552152,127.0451844,49.94,0.000256,0.0,0.0,0.0,0.000256,0.0,0.0,0.0,0.0007840000000000001,2
1733053261936553393,36552,1733053261875406412,gps,2,0,37.5552152,127.04518429999999,49.946,0.000256,0.0,0.0,0.0,0.000256,0.0,0.0,0.0,0.0007840000000000001,2
1733053262063329278,36553,1733053262000406410,gps,2,0,37.5552152,127.04518429999999,49.934,0.000256,0.0,0.0,0.0,0.000256,0.0,0.0,0.0,0.0007289999999999999,2
1733053262188370710,36554,1733053262125406408,gps,2,0,37.5552151,127.04518429999999,49.932,0.000225,0.0,0.0,0.0,0.000225,0.0,0.0,0.0,0.0006250000000000001,2
1733053262320053319,36555,1733053262250406406,gps,2,0,37.5552151,127.04518429999999,49.946,0.00019600000000000002,0.0,0.0,0.0,0.00019600000000000002,0.0,0.0,0.0,0.000576,2
1733053262439848962,36556,1733053262375406404,gps,2,0,37.5552151,127.04518429999999,49.947,0.000225,0.0,0.0,0.0,0.000225,0.0,0.0,0.0,0.000576,2
1733053262563943895,36557,1733053262500406402,gps,2,0,37.5552151,127.04518429999999,49.96,0.00019600000000000002,0.0,0.0,0.0,0.00019600000000000002,0.0,0.0,0.0,0.00044100000000000004,2
1733053262689326238,36558,1733053262625406400,gps,2,0,37.5552151,127.04518429999999,49.953,0.000256,0.0,0.0,0.0,0.000256,0.0,0.0,0.0,0.000529,2
1733053262814260294,36559,1733053262750406398,gps,2,0,37.555215,127.04518429999999,49.955,0.000256,0.0,0.0,0.0,0.000256,0.0,0.0,0.0,0.000529,2
1733053262934199714,36560,1733053262875406396,gps,2,0,37.5552151,127.0451842,49.946,0.00028900000000000003,0.0,0.0,0.0,0.00028900000000000003,0.0,0.0,0.0,0.00048399999999999995,2
1733053263068257941,36561,1733053263000406394,gps,2,0,37.5552152,127.0451841,49.942,0.000256,0.0,0.0,0.0,0.000256,0.0,0.0,0.0,0.00044100000000000004,2
1733053263191006919,36562,1733053263125406392,gps,2,0,37.5552152,127.04518399999999,49.951,0.000256,0.0,0.0,0.0,0.000256,0.0,0.0,0.0,0.0004,2
1733053263315928163,36563,1733053263250406391,gps,2,0,37.5552152,127.04518399999999,49.952,0.000225,0.0,0.0,0.0,0.000225,0.0,0.0,0.0,0.0004,2
1733053263439759429,36564,1733053263375406389,gps,2,0,37.5552152,127.0451841,49.959,0.000256,0.0,0.0,0.0,0.000256,0.0,0.0,0.0,0.0004,2
1733053263563337728,36565,1733053263500406387,gps,2,0,37.5552152,127.0451841,49.956,0.000225,0.0,0.0,0.0,0.000225,0.0,0.0,0.0,0.000361,2
1733053263689752313,36566,1733053263625406385,gps,2,0,37.5552152,127.04518399999999,49.952,0.000225,0.0,0.0,0.0,0.000225,0.0,0.0,0.0,0.000361,2
1733053263813616831,36567,1733053263750406383,gps,2,0,37.5552151,127.0451841,49.963,0.00019600000000000002,0.0,0.0,0.0,0.00019600000000000002,0.0,0.0,0.0,0.000361,2
1733053263939946669,36568,1733053263875406381,gps,2,0,37.5552151,127.0451842,49.94,0.00019600000000000002,0.0,0.0,0.0,0.00019600000000000002,0.0,0.0,0.0,0.000361,2
1733053264069804170,36569,1733053264000406379,gps,2,0,37.5552151,127.0451842,49.945,0.00019600000000000002,0.0,0.0,0.0,0.00019600000000000002,0.0,0.0,0.0,0.000361,2
1733053264189262815,36570,1733053264125406377,gps,2,0,37.555215,127.0451842,49.947,0.00019600000000000002,0.0,0.0,0.0,0.00019600000000000002,0.0,0.0,0.0,0.000361,2
1733053264313625295,36571,1733053264250406375,gps,2,0,37.555215,127.0451842,49.942,0.00019600000000000002,0.0,0.0,0.0,0.00019600000000000002,0.0,0.0,0.0,0.000361,2
1733053264441470782,36572,1733053264375406373,gps,2,0,37.5552151,127.0451842,49.938,0.00019600000000000002,0.0,0.0,0.0,0.00019600000000000002,0.0,0.0,0.0,0.000361,2
1733053264566474022,36573,1733053264500406372,gps,2,0,37.5552151,127.0451841,49.966,0.00019600000000000002,0.0,0.0,0.0,0.00019600000000000002,0.0,0.0,0.0,0.00028900000000000003,2
1733053264692911487,36574,1733053264625406370,gps,2,0,37.5552151,127.0451841,49.981,0.00019600000000000002,0.0,0.0,0.0,0.00019600000000000002,0.0,0.0,0.0,0.00028900000000000003,2
1733053264815144315,36575,1733053264750406368,gps,2,0,37.555215,127.0451842,49.963,0.00019600000000000002,0.0,0.0,0.0,0.00019600000000000002,0.0,0.0,0.0,0.00028900000000000003,2
1733053264938932639,36576,1733053264875406366,gps,2,0,37.555215,127.04518429999999,49.976,0.00019600000000000002,0.0,0.0,0.0,0.00019600000000000002,0.0,0.0,0.0,0.00032399999999999996,2
1733053265068045615,36577,1733053265000406364,gps,2,0,37.555214899999996,127.04518449999999,49.974000000000004,0.00019600000000000002,0.0,0.0,0.0,0.00019600000000000002,0.0,0.0,0.0,0.00032399999999999996,2
1733053265192300974,36578,1733053265125406362,gps,2,0,37.555214899999996,127.04518499999999,49.953,0.00019600000000000002,0.0,0.0,0.0,0.00019600000000000002,0.0,0.0,0.0,0.000361,2
1733053265317218331,36579,1733053265250406360,gps,2,0,37.555214899999996,127.0451853,49.951,0.00019600000000000002,0.0,0.0,0.0,0.00019600000000000002,0.0,0.0,0.0,0.000361,2
1733053265443311000,36580,1733053265375406358,gps,2,0,37.5552147,127.04518569999999,49.946,0.00019600000000000002,0.0,0.0,0.0,0.00019600000000000002,0.0,0.0,0.0,0.000361,2
1733053265566388816,36581,1733053265500406357,gps,2,0,37.5552146,127.04518619999999,49.949,0.00019600000000000002,0.0,0.0,0.0,0.00019600000000000002,0.0,0.0,0.0,0.000361,2
1733053265687307559,36582,1733053265625406355,gps,2,0,37.5552145,127.04518669999999,49.95,0.000225,0.0,0.0,0.0,0.000225,0.0,0.0,0.0,0.000361,2
1733053265816179939,36583,1733053265750406353,gps,2,0,37.555214299999996,127.0451873,49.944,0.000225,0.0,0.0,0.0,0.000225,0.0,0.0,0.0,0.000361,2
1733053265939925656,36584,1733053265875406351,gps,2,0,37.5552142,127.045188,49.936,0.000225,0.0,0.0,0.0,0.000225,0.0,0.0,0.0,0.000361,2
1733053266069440848,36585,1733053266000406349,gps,2,0,37.5552141,127.04518859999999,49.931000000000004,0.00019600000000000002,0.0,0.0,0.0,0.00019600000000000002,0.0,0.0,0.0,0.000361,2
1733053266192012285,36586,1733053266125406347,gps,2,0,37.5552138,127.04518929999999,49.925000000000004,0.00019600000000000002,0.0,0.0,0.0,0.00019600000000000002,0.0,0.0,0.0,0.000361,2
1733053266316160494,36587,1733053266250406345,gps,2,0,37.555213599999995,127.0451901,49.923,0.00019600000000000002,0.0,0.0,0.0,0.00019600000000000002,0.0,0.0,0.0,0.000361,2
1733053266441282865,36588,1733053266375406343,gps,2,0,37.5552134,127.04519099999999,49.918,0.00019600000000000002,0.0,0.0,0.0,0.00019600000000000002,0.0,0.0,0.0,0.0004,2
1733053266561303154,36589,1733053266500406342,gps,2,0,37.555213099999996,127.04519189999999,49.923,0.00019600000000000002,0.0,0.0,0.0,0.00019600000000000002,0.0,0.0,0.0,0.00032399999999999996,2
1733053266691591923,36590,1733053266625406340,gps,2,0,37.5552129,127.0451928,49.931000000000004,0.00019600000000000002,0.0,0.0,0.0,0.00019600000000000002,0.0,0.0,0.0,0.00032399999999999996,2
1733053266817089571,36591,1733053266750406338,gps,2,0,37.5552126,127.04519379999999,49.935,0.00019600000000000002,0.0,0.0,0.0,0.00019600000000000002,0.0,0.0,0.0,0.00032399999999999996,2
1733053266941982022,36592,1733053266875406336,gps,2,0,37.5552123,127.04519479999999,49.92,0.00019600000000000002,0.0,0.0,0.0,0.00019600000000000002,0.0,0.0,0.0,0.00028900000000000003,2
1733053267069945052,36593,1733053267000406334,gps,2,0,37.5552121,127.0451959,49.931000000000004,0.00019600000000000002,0.0,0.0,0.0,0.00019600000000000002,0.0,0.0,0.0,0.00028900000000000003,2
1733053267190091937,36594,1733053267125406332,gps,2,0,37.5552117,127.0451969,49.925000000000004,0.00019600000000000002,0.0,0.0,0.0,0.00019600000000000002,0.0,0.0,0.0,0.00028900000000000003,2
1733053267316612614,36595,1733053267250406330,gps,2,0,37.5552115,127.045198,49.928000000000004,0.00019600000000000002,0.0,0.0,0.0,0.00019600000000000002,0.0,0.0,0.0,0.00032399999999999996,2
1733053267437186811,36596,1733053267375406328,gps,2,0,37.5552111,127.045199,49.934,0.00019600000000000002,0.0,0.0,0.0,0.00019600000000000002,0.0,0.0,0.0,0.00032399999999999996,2
1733053267566288570,36597,1733053267500406326,gps,2,0,37.5552108,127.04520009999999,49.955,0.00019600000000000002,0.0,0.0,0.0,0.00019600000000000002,0.0,0.0,0.0,0.00028900000000000003,2
1733053267691207267,36598,1733053267625406324,gps,2,0,37.5552104,127.04520129999999,49.953,0.00019600000000000002,0.0,0.0,0.0,0.00019600000000000002,0.0,0.0,0.0,0.00028900000000000003,2
1733053267814240008,36599,1733053267750406322,gps,2,0,37.5552101,127.0452024,49.96,0.00019600000000000002,0.0,0.0,0.0,0.00019600000000000002,0.0,0.0,0.0,0.00028900000000000003,2
1733053267940031165,36600,1733053267875406321,gps,2,0,37.5552097,127.04520369999999,49.963,0.00019600000000000002,0.0,0.0,0.0,0.00019600000000000002,0.0,0.0,0.0,0.00028900000000000003,2
1733053268069294753,36601,1733053268000406319,gps,2,0,37.555209399999995,127.04520489999999,49.96,0.00019600000000000002,0.0,0.0,0.0,0.00019600000000000002,0.0,0.0,0.0,0.00028900000000000003,2
1733053268191176088,36602,1733053268125406317,gps,2,0,37.555209,127.04520609999999,49.952,0.00019600000000000002,0.0,0.0,0.0,0.00019600000000000002,0.0,0.0,0.0,0.00028900000000000003,2
1733053268315901806,36603,1733053268250406315,gps,2,0,37.5552085,127.04520749999999,49.934,0.00019600000000000002,0.0,0.0,0.0,0.00019600000000000002,0.0,0.0,0.0,0.00028900000000000003,2
1733053268441048054,36604,1733053268375406313,gps,2,0,37.555208199999996,127.0452088,49.932,0.00019600000000000002,0.0,0.0,0.0,0.00019600000000000002,0.0,0.0,0.0,0.00028900000000000003,2
1733053268565288192,36605,1733053268500406311,gps,2,0,37.5552077,127.0452102,49.937,0.00019600000000000002,0.0,0.0,0.0,0.00019600000000000002,0.0,0.0,0.0,0.000256,2
1733053268691376555,36606,1733053268625406309,gps,2,0,37.5552073,127.04521159999999,49.942,0.00019600000000000002,0.0,0.0,0.0,0.00019600000000000002,0.0,0.0,0.0,0.000225,2
1733053268816168282,36607,1733053268750406307,gps,2,0,37.5552069,127.0452129,49.935,0.00019600000000000002,0.0,0.0,0.0,0.00019600000000000002,0.0,0.0,0.0,0.000225,2
1733053268940993330,36608,1733053268875406305,gps,2,0,37.5552065,127.0452143,49.939,0.00019600000000000002,0.0,0.0,0.0,0.00019600000000000002,0.0,0.0,0.0,0.000225,2
1733053269069690526,36609,1733053269000406304,gps,2,0,37.5552061,127.0452157,49.96,0.00019600000000000002,0.0,0.0,0.0,0.00019600000000000002,0.0,0.0,0.0,0.000225,2
1733053269191871363,36610,1733053269125406302,gps,2,0,37.5552056,127.0452172,49.981,0.00019600000000000002,0.0,0.0,0.0,0.00019600000000000002,0.0,0.0,0.0,0.000225,2
1733053269316135848,36611,1733053269250406300,gps,2,0,37.555205199999996,127.04521849999999,49.977000000000004,0.00019600000000000002,0.0,0.0,0.0,0.00019600000000000002,0.0,0.0,0.0,0.000225,2
1733053269442225687,36612,1733053269375406298,gps,2,0,37.5552047,127.0452201,49.964,0.00019600000000000002,0.0,0.0,0.0,0.00019600000000000002,0.0,0.0,0.0,0.000225,2
1733053269567750267,36613,1733053269500406296,gps,2,0,37.5552044,127.04522159999999,49.968,0.00019600000000000002,0.0,0.0,0.0,0.00019600000000000002,0.0,0.0,0.0,0.000169,2
1733053269694853423,36614,1733053269625406294,gps,2,0,37.555203999999996,127.0452231,49.977000000000004,0.00019600000000000002,0.0,0.0,0.0,0.00019600000000000002,0.0,0.0,0.0,0.000169,2
1733053269816349679,36615,1733053269750406292,gps,2,0,37.5552035,127.04522449999999,49.981,0.00019600000000000002,0.0,0.0,0.0,0.00019600000000000002,0.0,0.0,0.0,0.000144,2
1733053269941315026,36616,1733053269875406290,gps,2,0,37.5552031,127.0452261,49.974000000000004,0.00019600000000000002,0.0,0.0,0.0,0.00019600000000000002,0.0,0.0,0.0,0.000169,2
1733053270070912683,36617,1733053270000406288,gps,2,0,37.555202699999995,127.0452277,49.971000000000004,0.00019600000000000002,0.0,0.0,0.0,0.00019600000000000002,0.0,0.0,0.0,0.000169,2
1733053270189230255,36618,1733053270125406286,gps,2,0,37.5552023,127.0452292,49.988,0.00019600000000000002,0.0,0.0,0.0,0.00019600000000000002,0.0,0.0,0.0,0.000169,2
1733053270317114042,36619,1733053270250406284,gps,2,0,37.5552019,127.0452308,49.994,0.00019600000000000002,0.0,0.0,0.0,0.00019600000000000002,0.0,0.0,0.0,0.000169,2
1733053270443056801,36620,1733053270375406282,gps,2,0,37.5552014,127.0452323,49.987,0.00019600000000000002,0.0,0.0,0.0,0.00019600000000000002,0.0,0.0,0.0,0.000169,2
1733053270566790897,36621,1733053270500406280,gps,2,0,37.555201,127.045234,49.987,0.00019600000000000002,0.0,0.0,0.0,0.00019600000000000002,0.0,0.0,0.0,0.000169,2
1733053270692675756,36622,1733053270625406278,gps,2,0,37.5552006,127.0452356,49.993,0.00019600000000000002,0.0,0.0,0.0,0.00019600000000000002,0.0,0.0,0.0,0.000169,2
1733053270814842079,36623,1733053270750406277,gps,2,0,37.5552001,127.04523719999999,49.991,0.00019600000000000002,0.0,0.0,0.0,0.00019600000000000002,0.0,0.0,0.0,0.000169,2
1733053270939940363,36624,1733053270875406275,gps,2,0,37.5551998,127.04523879999999,49.988,0.00019600000000000002,0.0,0.0,0.0,0.00019600000000000002,0.0,0.0,0.0,0.000169,2
1733053271067519423,36625,1733053271000406273,gps,2,0,37.5551994,127.04524049999999,49.978,0.00019600000000000002,0.0,0.0,0.0,0.00019600000000000002,0.0,0.0,0.0,0.000169,2
1733053271195772461,36626,1733053271125406271,gps,2,0,37.5551988,127.04524219999999,49.972,0.00019600000000000002,0.0,0.0,0.0,0.00019600000000000002,0.0,0.0,0.0,0.00019600000000000002,2
1733053271318252267,36627,1733053271250406269,gps,2,0,37.555198499999996,127.0452438,49.97,0.00019600000000000002,0.0,0.0,0.0,0.00019600000000000002,0.0,0.0,0.0,0.00019600000000000002,2
1733053271443767154,36628,1733053271375406267,gps,2,0,37.555198,127.0452455,49.983000000000004,0.00019600000000000002,0.0,0.0,0.0,0.00019600000000000002,0.0,0.0,0.0,0.00019600000000000002,2
1733053271566756853,36629,1733053271500406265,gps,2,0,37.5551976,127.0452471,49.992000000000004,0.00019600000000000002,0.0,0.0,0.0,0.00019600000000000002,0.0,0.0,0.0,0.00019600000000000002,2
1733053271691424172,36630,1733053271625406263,gps,2,0,37.5551971,127.0452488,49.999,0.00019600000000000002,0.0,0.0,0.0,0.00019600000000000002,0.0,0.0,0.0,0.00019600000000000002,2
1733053271815192403,36631,1733053271750406261,gps,2,0,37.555196699999996,127.0452505,49.997,0.00019600000000000002,0.0,0.0,0.0,0.00019600000000000002,0.0,0.0,0.0,0.00019600000000000002,2
1733053271936230508,36632,1733053271875406259,gps,2,0,37.5551962,127.04525199999999,50.0,0.00019600000000000002,0.0,0.0,0.0,0.00019600000000000002,0.0,0.0,0.0,0.00019600000000000002,2
1733053272070955192,36633,1733053272000406258,gps,2,0,37.5551958,127.04525389999999,49.997,0.00019600000000000002,0.0,0.0,0.0,0.00019600000000000002,0.0,0.0,0.0,0.00019600000000000002,2
1733053272191077990,36634,1733053272125406256,gps,2,0,37.5551953,127.0452557,49.985,0.00019600000000000002,0.0,0.0,0.0,0.00019600000000000002,0.0,0.0,0.0,0.000225,2
1733053272322274045,36635,1733053272250406254,gps,2,0,37.555194799999995,127.0452574,49.980000000000004,0.00019600000000000002,0.0,0.0,0.0,0.00019600000000000002,0.0,0.0,0.0,0.00019600000000000002,2
1733053272440033616,36636,1733053272375406252,gps,2,0,37.5551945,127.04525899999999,49.975,0.00019600000000000002,0.0,0.0,0.0,0.00019600000000000002,0.0,0.0,0.0,0.00019600000000000002,2
1733053272563688285,36637,1733053272500406250,gps,2,0,37.555194,127.0452607,49.977000000000004,0.00019600000000000002,0.0,0.0,0.0,0.00019600000000000002,0.0,0.0,0.0,0.00019600000000000002,2
1733053272688768047,36638,1733053272625406248,gps,2,0,37.5551934,127.04526249999999,49.975,0.00019600000000000002,0.0,0.0,0.0,0.00019600000000000002,0.0,0.0,0.0,0.000169,2
1733053272812198590,36639,1733053272750406247,gps,2,0,37.555192999999996,127.0452643,49.971000000000004,0.00019600000000000002,0.0,0.0,0.0,0.00019600000000000002,0.0,0.0,0.0,0.000169,2
1733053272938153668,36640,1733053272875406245,gps,2,0,37.5551925,127.04526589999999,49.983000000000004,0.00019600000000000002,0.0,0.0,0.0,0.00019600000000000002,0.0,0.0,0.0,0.000169,2
1733053273066001048,36641,1733053273000406243,gps,2,0,37.555192,127.0452675,49.994,0.00019600000000000002,0.0,0.0,0.0,0.00019600000000000002,0.0,0.0,0.0,0.000169,2
1733053273187860628,36642,1733053273125406241,gps,2,0,37.5551915,127.0452693,49.99,0.00019600000000000002,0.0,0.0,0.0,0.00019600000000000002,0.0,0.0,0.0,0.000169,2
1733053273312869682,36643,1733053273250406239,gps,2,0,37.555191,127.0452711,49.984,0.00019600000000000002,0.0,0.0,0.0,0.00019600000000000002,0.0,0.0,0.0,0.000169,2
1733053273439291976,36644,1733053273375406237,gps,2,0,37.555190599999996,127.0452729,49.991,0.00019600000000000002,0.0,0.0,0.0,0.00019600000000000002,0.0,0.0,0.0,0.000169,2
1733053273562142992,36645,1733053273500406235,gps,2,0,37.555189999999996,127.0452746,49.967,0.00019600000000000002,0.0,0.0,0.0,0.00019600000000000002,0.0,0.0,0.0,0.000169,2
1733053273687846061,36646,1733053273625406234,gps,2,0,37.5551896,127.0452763,49.967,0.00019600000000000002,0.0,0.0,0.0,0.00019600000000000002,0.0,0.0,0.0,0.000169,2
1733053273812065115,36647,1733053273750406232,gps,2,0,37.5551891,127.04527809999999,49.975,0.00019600000000000002,0.0,0.0,0.0,0.00019600000000000002,0.0,0.0,0.0,0.000169,2
1733053273936617953,36648,1733053273875406230,gps,2,0,37.5551885,127.04527979999999,49.975,0.00019600000000000002,0.0,0.0,0.0,0.00019600000000000002,0.0,0.0,0.0,0.000169,2
1733053274065510451,36649,1733053274000406228,gps,2,0,37.555188,127.04528169999999,49.973,0.00019600000000000002,0.0,0.0,0.0,0.00019600000000000002,0.0,0.0,0.0,0.000169,2
1733053274187343762,36650,1733053274125406226,gps,2,0,37.5551874,127.04528339999999,49.966,0.00019600000000000002,0.0,0.0,0.0,0.00019600000000000002,0.0,0.0,0.0,0.000169,2
1733053274320227285,36651,1733053274250406224,gps,2,0,37.555187,127.04528499999999,49.969,0.00019600000000000002,0.0,0.0,0.0,0.00019600000000000002,0.0,0.0,0.0,0.00019600000000000002,2
1733053274438318883,36652,1733053274375406222,gps,2,0,37.5551866,127.0452868,49.982,0.00019600000000000002,0.0,0.0,0.0,0.00019600000000000002,0.0,0.0,0.0,0.00019600000000000002,2
1733053274562265994,36653,1733053274500406221,gps,2,0,37.5551861,127.0452885,49.974000000000004,0.00019600000000000002,0.0,0.0,0.0,0.00019600000000000002,0.0,0.0,0.0,0.00019600000000000002,2
1733053274684294359,36654,1733053274625406219,gps,2,0,37.5551855,127.04529009999999,49.972,0.00019600000000000002,0.0,0.0,0.0,0.00019600000000000002,0.0,0.0,0.0,0.00019600000000000002,2
1733053274811595816,36655,1733053274750406217,gps,2,0,37.555185099999996,127.04529199999999,49.965,0.00019600000000000002,0.0,0.0,0.0,0.00019600000000000002,0.0,0.0,0.0,0.00019600000000000002,2
1733053274936100395,36656,1733053274875406215,gps,2,0,37.5551846,127.04529369999999,49.978,0.00019600000000000002,0.0,0.0,0.0,0.00019600000000000002,0.0,0.0,0.0,0.00019600000000000002,2
1733053275066051768,36657,1733053275000406213,gps,2,0,37.5551842,127.0452954,49.989000000000004,0.00019600000000000002,0.0,0.0,0.0,0.00019600000000000002,0.0,0.0,0.0,0.00019600000000000002,2
1733053275189629467,36658,1733053275125406211,gps,2,0,37.5551836,127.0452972,49.981,0.00019600000000000002,0.0,0.0,0.0,0.00019600000000000002,0.0,0.0,0.0,0.000225,2
1733053275313108549,36659,1733053275250406210,gps,2,0,37.5551831,127.04529889999999,49.984,0.00019600000000000002,0.0,0.0,0.0,0.00019600000000000002,0.0,0.0,0.0,0.00019600000000000002,2
1733053275438295596,36660,1733053275375406208,gps,2,0,37.555182699999996,127.0453007,49.99,0.00019600000000000002,0.0,0.0,0.0,0.00019600000000000002,0.0,0.0,0.0,0.00019600000000000002,2
1733053275558277828,36661,1733053275500406206,gps,2,0,37.5551823,127.0453024,49.967,0.00019600000000000002,0.0,0.0,0.0,0.00019600000000000002,0.0,0.0,0.0,0.000225,2
1733053275687791973,36662,1733053275625406204,gps,2,0,37.5551817,127.04530419999999,49.974000000000004,0.00019600000000000002,0.0,0.0,0.0,0.00019600000000000002,0.0,0.0,0.0,0.000225,2
1733053275812923401,36663,1733053275750406202,gps,2,0,37.5551813,127.045306,49.962,0.00019600000000000002,0.0,0.0,0.0,0.00019600000000000002,0.0,0.0,0.0,0.000225,2
1733053275936835889,36664,1733053275875406200,gps,2,0,37.555180799999995,127.0453077,49.962,0.00019600000000000002,0.0,0.0,0.0,0.00019600000000000002,0.0,0.0,0.0,0.000225,2
1733053276065282143,36665,1733053276000406199,gps,2,0,37.555180299999996,127.0453094,49.962,0.00019600000000000002,0.0,0.0,0.0,0.00019600000000000002,0.0,0.0,0.0,0.000225,2
1733053276187337668,36666,1733053276125406197,gps,2,0,37.5551799,127.0453112,49.975,0.00019600000000000002,0.0,0.0,0.0,0.00019600000000000002,0.0,0.0,0.0,0.000225,2
1733053276318201509,36667,1733053276250406195,gps,2,0,37.5551794,127.0453129,49.975,0.00019600000000000002,0.0,0.0,0.0,0.00019600000000000002,0.0,0.0,0.0,0.000225,2
1733053276434375174,36668,1733053276375406193,gps,2,0,37.5551789,127.0453146,49.979,0.00019600000000000002,0.0,0.0,0.0,0.00019600000000000002,0.0,0.0,0.0,0.000225,2
1733053276562638374,36669,1733053276500406191,gps,2,0,37.5551785,127.04531639999999,49.972,0.00019600000000000002,0.0,0.0,0.0,0.00019600000000000002,0.0,0.0,0.0,0.000225,2
1733053276687624096,36670,1733053276625406190,gps,2,0,37.555178,127.04531809999999,49.97,0.00019600000000000002,0.0,0.0,0.0,0.00019600000000000002,0.0,0.0,0.0,0.000225,2
1733053276811573752,36671,1733053276750406188,gps,2,0,37.5551775,127.0453199,49.963,0.00019600000000000002,0.0,0.0,0.0,0.00019600000000000002,0.0,0.0,0.0,0.000225,2
1733053276935124751,36672,1733053276875406186,gps,2,0,37.555177,127.0453215,49.982,0.00019600000000000002,0.0,0.0,0.0,0.00019600000000000002,0.0,0.0,0.0,0.00019600000000000002,2
1733053277063361365,36673,1733053277000406184,gps,2,0,37.5551764,127.04532329999999,49.983000000000004,0.00019600000000000002,0.0,0.0,0.0,0.00019600000000000002,0.0,0.0,0.0,0.00019600000000000002,2
1733053277188082093,36674,1733053277125406182,gps,2,0,37.555175999999996,127.0453252,49.974000000000004,0.00019600000000000002,0.0,0.0,0.0,0.00019600000000000002,0.0,0.0,0.0,0.00019600000000000002,2
1733053277311793700,36675,1733053277250406181,gps,2,0,37.5551756,127.04532689999999,49.972,0.00019600000000000002,0.0,0.0,0.0,0.00019600000000000002,0.0,0.0,0.0,0.00019600000000000002,2
1733053277439146257,36676,1733053277375406179,gps,2,0,37.5551751,127.04532859999999,49.973,0.00019600000000000002,0.0,0.0,0.0,0.00019600000000000002,0.0,0.0,0.0,0.00019600000000000002,2
1733053277562446588,36677,1733053277500406177,gps,2,0,37.5551746,127.0453302,49.977000000000004,0.00019600000000000002,0.0,0.0,0.0,0.00019600000000000002,0.0,0.0,0.0,0.00019600000000000002,2
1733053277687340837,36678,1733053277625406175,gps,2,0,37.555174099999995,127.04533199999999,49.975,0.00019600000000000002,0.0,0.0,0.0,0.00019600000000000002,0.0,0.0,0.0,0.000225,2
1733053277811432793,36679,1733053277750406173,gps,2,0,37.555173599999996,127.0453338,49.97,0.00019600000000000002,0.0,0.0,0.0,0.00019600000000000002,0.0,0.0,0.0,0.000225,2
1733053277936075578,36680,1733053277875406172,gps,2,0,37.5551731,127.0453355,49.978,0.00019600000000000002,0.0,0.0,0.0,0.00019600000000000002,0.0,0.0,0.0,0.000225,2
1733053278069048992,36681,1733053278000406170,gps,2,0,37.5551727,127.0453373,49.965,0.00019600000000000002,0.0,0.0,0.0,0.00019600000000000002,0.0,0.0,0.0,0.00019600000000000002,2
1733053278189766840,36682,1733053278125406168,gps,2,0,37.5551722,127.045339,49.971000000000004,0.00019600000000000002,0.0,0.0,0.0,0.00019600000000000002,0.0,0.0,0.0,0.00019600000000000002,2
1733053278321209566,36683,1733053278250406166,gps,2,0,37.555171699999995,127.04534079999999,49.97,0.00019600000000000002,0.0,0.0,0.0,0.00019600000000000002,0.0,0.0,0.0,0.00019600000000000002,2
1733053278438989307,36684,1733053278375406164,gps,2,0,37.5551712,127.0453424,49.969,0.00019600000000000002,0.0,0.0,0.0,0.00019600000000000002,0.0,0.0,0.0,0.000225,2
1733053278563272027,36685,1733053278500406163,gps,2,0,37.5551707,127.0453441,49.991,0.00019600000000000002,0.0,0.0,0.0,0.00019600000000000002,0.0,0.0,0.0,0.000225,2
1733053278688310088,36686,1733053278625406161,gps,2,0,37.5551702,127.04534579999999,49.988,0.00019600000000000002,0.0,0.0,0.0,0.00019600000000000002,0.0,0.0,0.0,0.000225,2
1733053278814018310,36687,1733053278750406159,gps,2,0,37.5551697,127.0453477,49.980000000000004,0.00019600000000000002,0.0,0.0,0.0,0.00019600000000000002,0.0,0.0,0.0,0.000225,2
1733053278938300429,36688,1733053278875406157,gps,2,0,37.5551692,127.04534939999999,49.980000000000004,0.00019600000000000002,0.0,0.0,0.0,0.00019600000000000002,0.0,0.0,0.0,0.000225,2
1733053279067188828,36689,1733053279000406155,gps,2,0,37.555168699999996,127.045351,49.971000000000004,0.00019600000000000002,0.0,0.0,0.0,0.00019600000000000002,0.0,0.0,0.0,0.000225,2
1733053279185894736,36690,1733053279125406154,gps,2,0,37.5551682,127.0453529,49.97,0.00019600000000000002,0.0,0.0,0.0,0.00019600000000000002,0.0,0.0,0.0,0.000225,2
1733053279313627856,36691,1733053279250406152,gps,2,0,37.5551677,127.0453546,49.968,0.00019600000000000002,0.0,0.0,0.0,0.00019600000000000002,0.0,0.0,0.0,0.000225,2
1733053279440127272,36692,1733053279375406150,gps,2,0,37.5551672,127.0453563,49.980000000000004,0.00019600000000000002,0.0,0.0,0.0,0.00019600000000000002,0.0,0.0,0.0,0.000225,2
1733053279565114604,36693,1733053279500406148,gps,2,0,37.5551666,127.045358,49.974000000000004,0.00019600000000000002,0.0,0.0,0.0,0.00019600000000000002,0.0,0.0,0.0,0.00019600000000000002,2
1733053279690220770,36694,1733053279625406147,gps,2,0,37.555166199999995,127.0453598,49.967,0.00019600000000000002,0.0,0.0,0.0,0.00019600000000000002,0.0,0.0,0.0,0.00019600000000000002,2
1733053279812858623,36695,1733053279750406145,gps,2,0,37.5551658,127.0453615,49.967,0.00019600000000000002,0.0,0.0,0.0,0.00019600000000000002,0.0,0.0,0.0,0.000225,2
1733053279936860398,36696,1733053279875406143,gps,2,0,37.5551653,127.0453632,49.976,0.00019600000000000002,0.0,0.0,0.0,0.00019600000000000002,0.0,0.0,0.0,0.00019600000000000002,2
1733053280061891125,36697,1733053280000406141,gps,2,0,37.5551649,127.04536499999999,49.975,0.00019600000000000002,0.0,0.0,0.0,0.00019600000000000002,0.0,0.0,0.0,0.00019600000000000002,2
1733053280189048569,36698,1733053280125406139,gps,2,0,37.5551643,127.0453666,49.978,0.00019600000000000002,0.0,0.0,0.0,0.00019600000000000002,0.0,0.0,0.0,0.00019600000000000002,2
1733053280315044086,36699,1733053280250406138,gps,2,0,37.555163799999995,127.0453684,49.974000000000004,0.00019600000000000002,0.0,0.0,0.0,0.00019600000000000002,0.0,0.0,0.0,0.00019600000000000002,2
1733053280440571894,36700,1733053280375406136,gps,2,0,37.5551634,127.0453702,49.975,0.00019600000000000002,0.0,0.0,0.0,0.00019600000000000002,0.0,0.0,0.0,0.00019600000000000002,2
1733053280565214988,36701,1733053280500406134,gps,2,0,37.5551628,127.04537189999999,49.980000000000004,0.00019600000000000002,0.0,0.0,0.0,0.00019600000000000002,0.0,0.0,0.0,0.00019600000000000002,2
1733053280690016979,36702,1733053280625406132,gps,2,0,37.5551624,127.04537359999999,49.979,0.00019600000000000002,0.0,0.0,0.0,0.00019600000000000002,0.0,0.0,0.0,0.00019600000000000002,2
1733053280813155402,36703,1733053280750406131,gps,2,0,37.5551619,127.0453754,49.972,0.00019600000000000002,0.0,0.0,0.0,0.00019600000000000002,0.0,0.0,0.0,0.00019600000000000002,2
1733053280933738672,36704,1733053280875406129,gps,2,0,37.555161399999996,127.04537719999999,49.974000000000004,0.00019600000000000002,0.0,0.0,0.0,0.00019600000000000002,0.0,0.0,0.0,0.00019600000000000002,2
1733053281068045106,36705,1733053281000406127,gps,2,0,37.555161,127.04537889999999,49.972,0.00019600000000000002,0.0,0.0,0.0,0.00019600000000000002,0.0,0.0,0.0,0.00019600000000000002,2
1733053281188546178,36706,1733053281125406125,gps,2,0,37.5551605,127.0453807,49.952,0.00019600000000000002,0.0,0.0,0.0,0.00019600000000000002,0.0,0.0,0.0,0.00019600000000000002,2
1733053281313330888,36707,1733053281250406124,gps,2,0,37.555160099999995,127.0453824,49.973,0.00019600000000000002,0.0,0.0,0.0,0.00019600000000000002,0.0,0.0,0.0,0.00019600000000000002,2
1733053281438107309,36708,1733053281375406122,gps,2,0,37.5551597,127.0453842,49.977000000000004,0.00019600000000000002,0.0,0.0,0.0,0.00019600000000000002,0.0,0.0,0.0,0.000225,2
1733053281561880370,36709,1733053281500406120,gps,2,0,37.5551592,127.0453859,49.986000000000004,0.00019600000000000002,0.0,0.0,0.0,0.00019600000000000002,0.0,0.0,0.0,0.00019600000000000002,2
1733053281687860564,36710,1733053281625406118,gps,2,0,37.555158899999995,127.04538749999999,49.992000000000004,0.00019600000000000002,0.0,0.0,0.0,0.00019600000000000002,0.0,0.0,0.0,0.000225,2
1733053281810281454,36711,1733053281750406116,gps,2,0,37.555158399999996,127.04538919999999,49.998,0.00019600000000000002,0.0,0.0,0.0,0.00019600000000000002,0.0,0.0,0.0,0.00019600000000000002,2
1733053281936198698,36712,1733053281875406115,gps,2,0,37.5551579,127.04539109999999,49.986000000000004,0.00019600000000000002,0.0,0.0,0.0,0.00019600000000000002,0.0,0.0,0.0,0.00019600000000000002,2
1733053282065774782,36713,1733053282000406113,gps,2,0,37.5551574,127.04539279999999,49.986000000000004,0.00019600000000000002,0.0,0.0,0.0,0.00019600000000000002,0.0,0.0,0.0,0.00019600000000000002,2
1733053282185724624,36714,1733053282125406111,gps,2,0,37.555157,127.0453946,49.989000000000004,0.00019600000000000002,0.0,0.0,0.0,0.00019600000000000002,0.0,0.0,0.0,0.00019600000000000002,2
1733053282311156494,36715,1733053282250406109,gps,2,0,37.5551564,127.0453962,49.99,0.00019600000000000002,0.0,0.0,0.0,0.00019600000000000002,0.0,0.0,0.0,0.00019600000000000002,2
1733053282435766561,36716,1733053282375406108,gps,2,0,37.555156,127.0453981,49.996,0.00019600000000000002,0.0,0.0,0.0,0.00019600000000000002,0.0,0.0,0.0,0.00019600000000000002,2
1733053282560057492,36717,1733053282500406106,gps,2,0,37.5551555,127.0453998,49.978,0.00019600000000000002,0.0,0.0,0.0,0.00019600000000000002,0.0,0.0,0.0,0.00019600000000000002,2
1733053282686249942,36718,1733053282625406104,gps,2,0,37.555155,127.0454015,49.975,0.00019600000000000002,0.0,0.0,0.0,0.00019600000000000002,0.0,0.0,0.0,0.000225,2
1733053282809100265,36719,1733053282750406102,gps,2,0,37.5551545,127.0454032,49.984,0.00019600000000000002,0.0,0.0,0.0,0.00019600000000000002,0.0,0.0,0.0,0.000256,2
1733053282933776798,36720,1733053282875406101,gps,2,0,37.555154099999996,127.04540499999999,49.99,0.00019600000000000002,0.0,0.0,0.0,0.00019600000000000002,0.0,0.0,0.0,0.00028900000000000003,2
1733053283062039493,36721,1733053283000406099,gps,2,0,37.555153499999996,127.0454068,49.996,0.00019600000000000002,0.0,0.0,0.0,0.00019600000000000002,0.0,0.0,0.0,0.00028900000000000003,2
1733053283185627109,36722,1733053283125406097,gps,2,0,37.5551531,127.0454085,49.992000000000004,0.00019600000000000002,0.0,0.0,0.0,0.00019600000000000002,0.0,0.0,0.0,0.00028900000000000003,2
1733053283311083755,36723,1733053283250406095,gps,2,0,37.5551527,127.0454101,49.989000000000004,0.00019600000000000002,0.0,0.0,0.0,0.00019600000000000002,0.0,0.0,0.0,0.00032399999999999996,2
1733053283435927942,36724,1733053283375406093,gps,2,0,37.5551521,127.045412,49.977000000000004,0.00019600000000000002,0.0,0.0,0.0,0.00019600000000000002,0.0,0.0,0.0,0.00032399999999999996,2
1733053283559537862,36725,1733053283500406092,gps,2,0,37.555151599999995,127.0454137,49.975,0.00019600000000000002,0.0,0.0,0.0,0.00019600000000000002,0.0,0.0,0.0,0.00032399999999999996,2
1733053283682016064,36726,1733053283625406090,gps,2,0,37.555151099999996,127.0454154,49.985,0.00019600000000000002,0.0,0.0,0.0,0.00019600000000000002,0.0,0.0,0.0,0.00028900000000000003,2
1733053283810247905,36727,1733053283750406088,gps,2,0,37.5551507,127.04541719999999,49.996,0.00019600000000000002,0.0,0.0,0.0,0.00019600000000000002,0.0,0.0,0.0,0.00028900000000000003,2
1733053283933424480,36728,1733053283875406086,gps,2,0,37.5551502,127.04541889999999,49.996,0.00019600000000000002,0.0,0.0,0.0,0.00019600000000000002,0.0,0.0,0.0,0.00028900000000000003,2
1733053284063225515,36729,1733053284000406085,gps,2,0,37.5551497,127.04542049999999,49.998,0.00019600000000000002,0.0,0.0,0.0,0.00019600000000000002,0.0,0.0,0.0,0.00028900000000000003,2
1733053284186316123,36730,1733053284125406083,gps,2,0,37.555149199999995,127.0454223,50.003,0.00019600000000000002,0.0,0.0,0.0,0.00019600000000000002,0.0,0.0,0.0,0.00028900000000000003,2
1733053284311075739,36731,1733053284250406081,gps,2,0,37.5551487,127.0454242,50.005,0.00019600000000000002,0.0,0.0,0.0,0.00019600000000000002,0.0,0.0,0.0,0.00028900000000000003,2
1733053284435546541,36732,1733053284375406079,gps,2,0,37.5551483,127.0454259,49.976,0.00019600000000000002,0.0,0.0,0.0,0.00019600000000000002,0.0,0.0,0.0,0.00028900000000000003,2
1733053284556149124,36733,1733053284500406078,gps,2,0,37.5551478,127.045428,49.999,0.00019600000000000002,0.0,0.0,0.0,0.00019600000000000002,0.0,0.0,0.0,0.00032399999999999996,2
1733053284687459741,36734,1733053284625406076,gps,2,0,37.5551473,127.0454297,49.986000000000004,0.00019600000000000002,0.0,0.0,0.0,0.00019600000000000002,0.0,0.0,0.0,0.00032399999999999996,2
1733053284812488908,36735,1733053284750406074,gps,2,0,37.555147,127.045431,49.975,0.00019600000000000002,0.0,0.0,0.0,0.00019600000000000002,0.0,0.0,0.0,0.00032399999999999996,2
1733053284936450859,36736,1733053284875406072,gps,2,0,37.5551465,127.04543269999999,49.973,0.00019600000000000002,0.0,0.0,0.0,0.00019600000000000002,0.0,0.0,0.0,0.00032399999999999996,2
1733053285065914475,36737,1733053285000406071,gps,2,0,37.555146,127.0454346,49.97,0.00019600000000000002,0.0,0.0,0.0,0.00019600000000000002,0.0,0.0,0.0,0.00032399999999999996,2
1733053285185980677,36738,1733053285125406069,gps,2,0,37.555145599999996,127.04543609999999,49.978,0.00019600000000000002,0.0,0.0,0.0,0.00019600000000000002,0.0,0.0,0.0,0.00032399999999999996,2
1733053285311136462,36739,1733053285250406067,gps,2,0,37.5551452,127.04543779999999,49.988,0.00019600000000000002,0.0,0.0,0.0,0.00019600000000000002,0.0,0.0,0.0,0.00032399999999999996,2
1733053285432764022,36740,1733053285375406065,gps,2,0,37.5551448,127.04543919999999,50.003,0.00019600000000000002,0.0,0.0,0.0,0.00019600000000000002,0.0,0.0,0.0,0.00032399999999999996,2
1733053285561329097,36741,1733053285500406064,gps,2,0,37.555144299999995,127.04544109999999,49.99,0.00019600000000000002,0.0,0.0,0.0,0.00019600000000000002,0.0,0.0,0.0,0.000361,2
1733053285686678031,36742,1733053285625406062,gps,2,0,37.555143699999995,127.04544299999999,49.989000000000004,0.00019600000000000002,0.0,0.0,0.0,0.00019600000000000002,0.0,0.0,0.0,0.000361,2
1733053285810919358,36743,1733053285750406060,gps,2,0,37.555143199999996,127.0454446,49.992000000000004,0.00019600000000000002,0.0,0.0,0.0,0.00019600000000000002,0.0,0.0,0.0,0.000361,2
1733053285933610847,36744,1733053285875406058,gps,2,0,37.5551427,127.0454463,50.0,0.00019600000000000002,0.0,0.0,0.0,0.00019600000000000002,0.0,0.0,0.0,0.000361,2
1733053286063231442,36745,1733053286000406057,gps,2,0,37.5551422,127.04544809999999,50.005,0.00019600000000000002,0.0,0.0,0.0,0.00019600000000000002,0.0,0.0,0.0,0.000361,2
1733053286185718334,36746,1733053286125406055,gps,2,0,37.5551416,127.04544969999999,50.014,0.00019600000000000002,0.0,0.0,0.0,0.00019600000000000002,0.0,0.0,0.0,0.000361,2
1733053286311948597,36747,1733053286250406053,gps,2,0,37.5551411,127.04545139999999,50.008,0.00019600000000000002,0.0,0.0,0.0,0.00019600000000000002,0.0,0.0,0.0,0.000361,2
1733053286437424427,36748,1733053286375406051,gps,2,0,37.5551405,127.04545309999999,50.009,0.00019600000000000002,0.0,0.0,0.0,0.00019600000000000002,0.0,0.0,0.0,0.000361,2
1733053286561107462,36749,1733053286500406050,gps,2,0,37.55514,127.04545479999999,50.022,0.00019600000000000002,0.0,0.0,0.0,0.00019600000000000002,0.0,0.0,0.0,0.00032399999999999996,2
1733053286685933297,36750,1733053286625406048,gps,2,0,37.5551396,127.04545669999999,50.016,0.00019600000000000002,0.0,0.0,0.0,0.00019600000000000002,0.0,0.0,0.0,0.00032399999999999996,2
1733053286808891520,36751,1733053286750406046,gps,2,0,37.555139,127.0454584,50.014,0.00019600000000000002,0.0,0.0,0.0,0.00019600000000000002,0.0,0.0,0.0,0.00032399999999999996,2
1733053286934521200,36752,1733053286875406044,gps,2,0,37.5551385,127.0454599,50.012,0.00019600000000000002,0.0,0.0,0.0,0.00019600000000000002,0.0,0.0,0.0,0.000361,2
1733053287062053418,36753,1733053287000406043,gps,2,0,37.5551381,127.0454614,50.006,0.00019600000000000002,0.0,0.0,0.0,0.00019600000000000002,0.0,0.0,0.0,0.00032399999999999996,2
1733053287185063216,36754,1733053287125406041,gps,2,0,37.555137599999995,127.0454628,49.999,0.00019600000000000002,0.0,0.0,0.0,0.00019600000000000002,0.0,0.0,0.0,0.00032399999999999996,2
1733053287309917270,36755,1733053287250406039,gps,2,0,37.555137099999996,127.04546459999999,49.983000000000004,0.00019600000000000002,0.0,0.0,0.0,0.00019600000000000002,0.0,0.0,0.0,0.000361,2
1733053287434463416,36756,1733053287375406038,gps,2,0,37.5551367,127.0454661,49.999,0.00019600000000000002,0.0,0.0,0.0,0.00019600000000000002,0.0,0.0,0.0,0.00032399999999999996,2
1733053287558206961,36757,1733053287500406036,gps,2,0,37.5551361,127.04546769999999,50.014,0.00019600000000000002,0.0,0.0,0.0,0.00019600000000000002,0.0,0.0,0.0,0.00028900000000000003,2
1733053287685286324,36758,1733053287625406034,gps,2,0,37.5551357,127.0454693,50.01,0.00019600000000000002,0.0,0.0,0.0,0.00019600000000000002,0.0,0.0,0.0,0.00032399999999999996,2
1733053287809895948,36759,1733053287750406032,gps,2,0,37.5551351,127.04547079999999,50.006,0.00019600000000000002,0.0,0.0,0.0,0.00019600000000000002,0.0,0.0,0.0,0.00028900000000000003,2
1733053287934226404,36760,1733053287875406031,gps,2,0,37.555134699999996,127.0454724,50.013,0.00019600000000000002,0.0,0.0,0.0,0.00019600000000000002,0.0,0.0,0.0,0.00032399999999999996,2
1733053288063380261,36761,1733053288000406029,gps,2,0,37.5551342,127.045474,50.019,0.00019600000000000002,0.0,0.0,0.0,0.00019600000000000002,0.0,0.0,0.0,0.00032399999999999996,2
1733053288182211754,36762,1733053288125406027,gps,2,0,37.5551336,127.0454757,50.015,0.00019600000000000002,0.0,0.0,0.0,0.00019600000000000002,0.0,0.0,0.0,0.00028900000000000003,2
1733053288309845166,36763,1733053288250406026,gps,2,0,37.5551331,127.0454774,50.007,0.00019600000000000002,0.0,0.0,0.0,0.00019600000000000002,0.0,0.0,0.0,0.00028900000000000003,2
1733053288435433819,36764,1733053288375406024,gps,2,0,37.5551327,127.04547869999999,50.01,0.00019600000000000002,0.0,0.0,0.0,0.00019600000000000002,0.0,0.0,0.0,0.00028900000000000003,2
1733053288560140732,36765,1733053288500406022,gps,2,0,37.555132199999996,127.04547989999999,49.999,0.00019600000000000002,0.0,0.0,0.0,0.00019600000000000002,0.0,0.0,0.0,0.00028900000000000003,2
1733053288685875981,36766,1733053288625406020,gps,2,0,37.5551319,127.0454807,50.003,0.00019600000000000002,0.0,0.0,0.0,0.00019600000000000002,0.0,0.0,0.0,0.00028900000000000003,2
1733053288809809222,36767,1733053288750406019,gps,2,0,37.5551318,127.04548039999999,50.014,0.00019600000000000002,0.0,0.0,0.0,0.00019600000000000002,0.0,0.0,0.0,0.00028900000000000003,2
1733053288934321918,36768,1733053288875406017,gps,2,0,37.555132,127.0454802,50.03,0.00019600000000000002,0.0,0.0,0.0,0.00019600000000000002,0.0,0.0,0.0,0.00028900000000000003,2
1733053289061729628,36769,1733053289000406015,gps,2,0,37.5551318,127.0454803,50.025,0.00019600000000000002,0.0,0.0,0.0,0.00019600000000000002,0.0,0.0,0.0,0.00028900000000000003,2
1733053289188343176,36770,1733053289125406013,gps,2,0,37.5551318,127.04548039999999,50.012,0.00019600000000000002,0.0,0.0,0.0,0.00019600000000000002,0.0,0.0,0.0,0.00028900000000000003,2
1733053289313284833,36771,1733053289250406012,gps,2,0,37.5551317,127.04548109999999,50.02,0.00019600000000000002,0.0,0.0,0.0,0.00019600000000000002,0.0,0.0,0.0,0.00028900000000000003,2
1733053289438032436,36772,1733053289375406010,gps,2,0,37.5551315,127.0454821,49.996,0.000256,0.0,0.0,0.0,0.000256,0.0,0.0,0.0,0.000361,2
1733053289561153420,36773,1733053289500406008,gps,2,0,37.5551313,127.0454826,49.983000000000004,0.00019600000000000002,0.0,0.0,0.0,0.00019600000000000002,0.0,0.0,0.0,0.0004,2
1733053289686623818,36774,1733053289625406007,gps,2,0,37.5551311,127.0454831,49.981,0.000225,0.0,0.0,0.0,0.000225,0.0,0.0,0.0,0.00044100000000000004,2
1733053289809949004,36775,1733053289750406005,gps,2,0,37.555130999999996,127.0454839,49.972,0.000256,0.0,0.0,0.0,0.000256,0.0,0.0,0.0,0.00048399999999999995,2
1733053289932096452,36776,1733053289875406003,gps,2,0,37.5551311,127.04548439999999,49.975,0.000256,0.0,0.0,0.0,0.000256,0.0,0.0,0.0,0.00048399999999999995,2
1733053290065560411,36777,1733053290000406001,gps,2,0,37.5551309,127.04548469999999,49.999,0.000256,0.0,0.0,0.0,0.000256,0.0,0.0,0.0,0.00048399999999999995,2
1733053290188094967,36778,1733053290125406000,gps,2,0,37.5551308,127.04548489999999,50.008,0.000225,0.0,0.0,0.0,0.000225,0.0,0.0,0.0,0.00048399999999999995,2
1733053290313165941,36779,1733053290250405998,gps,2,0,37.5551309,127.04548519999999,50.009,0.000256,0.0,0.0,0.0,0.000256,0.0,0.0,0.0,0.00048399999999999995,2
1733053290437195386,36780,1733053290375405996,gps,2,0,37.5551307,127.0454851,50.029,0.000256,0.0,0.0,0.0,0.000256,0.0,0.0,0.0,0.00048399999999999995,2
1733053290562185395,36781,1733053290500405994,gps,2,0,37.5551305,127.0454853,50.012,0.000225,0.0,0.0,0.0,0.000225,0.0,0.0,0.0,0.00048399999999999995,2
1733053290688338909,36782,1733053290625405993,gps,2,0,37.5551302,127.0454851,50.016,0.000225,0.0,0.0,0.0,0.000225,0.0,0.0,0.0,0.000529,2
1733053290812545040,36783,1733053290750405991,gps,2,0,37.55513,127.04548489999999,50.001,0.000225,0.0,0.0,0.0,0.000225,0.0,0.0,0.0,0.000576,2
1733053290938470804,36784,1733053290875405989,gps,2,0,37.555129799999996,127.04548469999999,49.996,0.000225,0.0,0.0,0.0,0.000225,0.0,0.0,0.0,0.000576,2
1733053291067202020,36785,1733053291000405988,gps,2,0,37.5551293,127.0454843,50.007,0.000225,0.0,0.0,0.0,0.000225,0.0,0.0,0.0,0.000529,2
1733053291188915712,36786,1733053291125405986,gps,2,0,37.5551289,127.0454841,49.977000000000004,0.000225,0.0,0.0,0.0,0.000225,0.0,0.0,0.0,0.000576,2
1733053291313376741,36787,1733053291250405985,gps,2,0,37.5551283,127.0454838,49.971000000000004,0.00019600000000000002,0.0,0.0,0.0,0.00019600000000000002,0.0,0.0,0.0,0.000529,2
1733053291439441983,36788,1733053291375405983,gps,2,0,37.5551278,127.0454834,49.963,0.00019600000000000002,0.0,0.0,0.0,0.00019600000000000002,0.0,0.0,0.0,0.000529,2
1733053291563534266,36789,1733053291500405981,gps,2,0,37.555127399999996,127.0454829,49.947,0.00019600000000000002,0.0,0.0,0.0,0.00019600000000000002,0.0,0.0,0.0,0.000576,2
1733053291688990181,36790,1733053291625405979,gps,2,0,37.5551271,127.0454821,49.958,0.00019600000000000002,0.0,0.0,0.0,0.00019600000000000002,0.0,0.0,0.0,0.000576,2
1733053291813608985,36791,1733053291750405978,gps,2,0,37.555127,127.04548129999999,49.951,0.00019600000000000002,0.0,0.0,0.0,0.00019600000000000002,0.0,0.0,0.0,0.000576,2
1733053291938069283,36792,1733053291875405976,gps,2,0,37.5551268,127.04548039999999,49.942,0.00019600000000000002,0.0,0.0,0.0,0.00019600000000000002,0.0,0.0,0.0,0.000676,2
1733053292066681994,36793,1733053292000405974,gps,2,0,37.5551266,127.04547939999999,49.947,0.00019600000000000002,0.0,0.0,0.0,0.00019600000000000002,0.0,0.0,0.0,0.000676,2
1733053292188307381,36794,1733053292125405973,gps,2,0,37.5551263,127.0454786,49.935,0.00019600000000000002,0.0,0.0,0.0,0.00019600000000000002,0.0,0.0,0.0,0.000676,2
1733053292313852488,36795,1733053292250405971,gps,2,0,37.5551262,127.0454776,49.949,0.00019600000000000002,0.0,0.0,0.0,0.00019600000000000002,0.0,0.0,0.0,0.000676,2
1733053292439143284,36796,1733053292375405969,gps,2,0,37.555126,127.0454764,49.968,0.00019600000000000002,0.0,0.0,0.0,0.00019600000000000002,0.0,0.0,0.0,0.0006250000000000001,2
1733053292562849912,36797,1733053292500405968,gps,2,0,37.5551258,127.0454754,49.96,0.00019600000000000002,0.0,0.0,0.0,0.00019600000000000002,0.0,0.0,0.0,0.0006250000000000001,2
1733053292684312378,36798,1733053292625405966,gps,2,0,37.5551257,127.0454743,49.949,0.00019600000000000002,0.0,0.0,0.0,0.00019600000000000002,0.0,0.0,0.0,0.0006250000000000001,2
1733053292811317005,36799,1733053292750405964,gps,2,0,37.5551254,127.04547319999999,49.94,0.00019600000000000002,0.0,0.0,0.0,0.00019600000000000002,0.0,0.0,0.0,0.0006250000000000001,2
1733053292935435242,36800,1733053292875405962,gps,2,0,37.5551251,127.04547199999999,49.947,0.00019600000000000002,0.0,0.0,0.0,0.00019600000000000002,0.0,0.0,0.0,0.000576,2
1733053293065831839,36801,1733053293000405961,gps,2,0,37.555124899999996,127.04547079999999,49.934,0.00019600000000000002,0.0,0.0,0.0,0.00019600000000000002,0.0,0.0,0.0,0.000576,2
1733053293188981480,36802,1733053293125405959,gps,2,0,37.5551248,127.04546959999999,49.937,0.00019600000000000002,0.0,0.0,0.0,0.00019600000000000002,0.0,0.0,0.0,0.000576,2
1733053293313642763,36803,1733053293250405957,gps,2,0,37.5551246,127.04546839999999,49.94,0.00019600000000000002,0.0,0.0,0.0,0.00019600000000000002,0.0,0.0,0.0,0.000576,2
1733053293439007031,36804,1733053293375405956,gps,2,0,37.555124299999996,127.0454671,49.937,0.00019600000000000002,0.0,0.0,0.0,0.00019600000000000002,0.0,0.0,0.0,0.000576,2
1733053293559064892,36805,1733053293500405954,gps,2,0,37.5551241,127.0454656,49.959,0.00019600000000000002,0.0,0.0,0.0,0.00019600000000000002,0.0,0.0,0.0,0.000529,2
1733053293689340240,36806,1733053293625405952,gps,2,0,37.5551239,127.04546429999999,49.948,0.00019600000000000002,0.0,0.0,0.0,0.00019600000000000002,0.0,0.0,0.0,0.000529,2
1733053293814349440,36807,1733053293750405951,gps,2,0,37.555123699999996,127.04546289999999,49.936,0.00019600000000000002,0.0,0.0,0.0,0.00019600000000000002,0.0,0.0,0.0,0.000529,2
1733053293939989728,36808,1733053293875405949,gps,2,0,37.5551235,127.0454616,49.931000000000004,0.00019600000000000002,0.0,0.0,0.0,0.00019600000000000002,0.0,0.0,0.0,0.000529,2
1733053294067085651,36809,1733053294000405947,gps,2,0,37.5551233,127.0454602,49.929,0.00019600000000000002,0.0,0.0,0.0,0.00019600000000000002,0.0,0.0,0.0,0.000576,2
1733053294189745407,36810,1733053294125405946,gps,2,0,37.555123,127.04545859999999,49.944,0.00019600000000000002,0.0,0.0,0.0,0.00019600000000000002,0.0,0.0,0.0,0.000529,2
1733053294313634030,36811,1733053294250405944,gps,2,0,37.5551229,127.0454572,49.953,0.00019600000000000002,0.0,0.0,0.0,0.00019600000000000002,0.0,0.0,0.0,0.000576,2
1733053294435180188,36812,1733053294375405942,gps,2,0,37.5551227,127.04545569999999,49.934,0.00019600000000000002,0.0,0.0,0.0,0.00019600000000000002,0.0,0.0,0.0,0.000529,2
1733053294563974353,36813,1733053294500405941,gps,2,0,37.555122399999995,127.04545429999999,49.916000000000004,0.00019600000000000002,0.0,0.0,0.0,0.00019600000000000002,0.0,0.0,0.0,0.00048399999999999995,2
1733053294689047854,36814,1733053294625405939,gps,2,0,37.5551223,127.0454527,49.907000000000004,0.00019600000000000002,0.0,0.0,0.0,0.00019600000000000002,0.0,0.0,0.0,0.00048399999999999995,2
1733053294813670300,36815,1733053294750405937,gps,2,0,37.555122,127.0454511,49.916000000000004,0.00019600000000000002,0.0,0.0,0.0,0.00019600000000000002,0.0,0.0,0.0,0.00048399999999999995,2
1733053294937260489,36816,1733053294875405936,gps,2,0,37.555121799999995,127.04544969999999,49.9,0.00019600000000000002,0.0,0.0,0.0,0.00019600000000000002,0.0,0.0,0.0,0.000529,2
1733053295066899742,36817,1733053295000405934,gps,2,0,37.5551217,127.045448,49.899,0.00019600000000000002,0.0,0.0,0.0,0.00019600000000000002,0.0,0.0,0.0,0.000529,2
1733053295189893912,36818,1733053295125405932,gps,2,0,37.5551216,127.04544639999999,49.912,0.00019600000000000002,0.0,0.0,0.0,0.00019600000000000002,0.0,0.0,0.0,0.000529,2
1733053295313412400,36819,1733053295250405931,gps,2,0,37.5551214,127.0454448,49.9,0.00019600000000000002,0.0,0.0,0.0,0.00019600000000000002,0.0,0.0,0.0,0.000529,2
1733053295441401680,36820,1733053295375405929,gps,2,0,37.5551214,127.0454432,49.889,0.00019600000000000002,0.0,0.0,0.0,0.00019600000000000002,0.0,0.0,0.0,0.000529,2
1733053295564313927,36821,1733053295500405927,gps,2,0,37.555121199999995,127.04544159999999,49.905,0.00019600000000000002,0.0,0.0,0.0,0.00019600000000000002,0.0,0.0,0.0,0.000529,2
1733053295688905101,36822,1733053295625405925,gps,2,0,37.555121,127.04543989999999,49.909,0.00019600000000000002,0.0,0.0,0.0,0.00019600000000000002,0.0,0.0,0.0,0.000529,2
1733053295813311232,36823,1733053295750405924,gps,2,0,37.5551211,127.0454383,49.904,0.00019600000000000002,0.0,0.0,0.0,0.00019600000000000002,0.0,0.0,0.0,0.000529,2
1733053295936900673,36824,1733053295875405922,gps,2,0,37.555121,127.04543659999999,49.919000000000004,0.00019600000000000002,0.0,0.0,0.0,0.00019600000000000002,0.0,0.0,0.0,0.000576,2
1733053296066506871,36825,1733053296000405920,gps,2,0,37.555121,127.0454348,49.924,0.00019600000000000002,0.0,0.0,0.0,0.00019600000000000002,0.0,0.0,0.0,0.000576,2
1733053296188122236,36826,1733053296125405919,gps,2,0,37.5551211,127.04543299999999,49.94,0.00019600000000000002,0.0,0.0,0.0,0.00019600000000000002,0.0,0.0,0.0,0.000576,2
1733053296313295872,36827,1733053296250405917,gps,2,0,37.555121,127.04543149999999,49.944,0.00019600000000000002,0.0,0.0,0.0,0.00019600000000000002,0.0,0.0,0.0,0.000576,2
1733053296437860158,36828,1733053296375405915,gps,2,0,37.5551209,127.04542989999999,49.937,0.00019600000000000002,0.0,0.0,0.0,0.00019600000000000002,0.0,0.0,0.0,0.000576,2
1733053296563027894,36829,1733053296500405914,gps,2,0,37.5551211,127.0454281,49.945,0.00019600000000000002,0.0,0.0,0.0,0.00019600000000000002,0.0,0.0,0.0,0.00044100000000000004,2
1733053296688032879,36830,1733053296625405912,gps,2,0,37.555121199999995,127.04542629999999,49.946,0.00019600000000000002,0.0,0.0,0.0,0.00019600000000000002,0.0,0.0,0.0,0.0004,2
1733053296813397001,36831,1733053296750405910,gps,2,0,37.555121299999996,127.0454247,49.953,0.00019600000000000002,0.0,0.0,0.0,0.00019600000000000002,0.0,0.0,0.0,0.0004,2
1733053296938027445,36832,1733053296875405909,gps,2,0,37.5551214,127.0454231,49.96,0.00019600000000000002,0.0,0.0,0.0,0.00019600000000000002,0.0,0.0,0.0,0.0004,2
1733053297066374689,36833,1733053297000405907,gps,2,0,37.5551215,127.04542119999999,49.956,0.00019600000000000002,0.0,0.0,0.0,0.00019600000000000002,0.0,0.0,0.0,0.0004,2
1733053297186249808,36834,1733053297125405905,gps,2,0,37.5551216,127.0454195,49.958,0.00019600000000000002,0.0,0.0,0.0,0.00019600000000000002,0.0,0.0,0.0,0.00044100000000000004,2
1733053297313643307,36835,1733053297250405904,gps,2,0,37.5551216,127.04541769999999,49.956,0.00019600000000000002,0.0,0.0,0.0,0.00019600000000000002,0.0,0.0,0.0,0.00044100000000000004,2
1733053297439193191,36836,1733053297375405902,gps,2,0,37.5551217,127.04541599999999,49.942,0.00019600000000000002,0.0,0.0,0.0,0.00019600000000000002,0.0,0.0,0.0,0.0004,2
1733053297564328847,36837,1733053297500405900,gps,2,0,37.555121899999996,127.0454142,49.942,0.00019600000000000002,0.0,0.0,0.0,0.00019600000000000002,0.0,0.0,0.0,0.0004,2
1733053297691266340,36838,1733053297625405899,gps,2,0,37.555121899999996,127.0454123,49.933,0.00019600000000000002,0.0,0.0,0.0,0.00019600000000000002,0.0,0.0,0.0,0.000361,2
1733053297813339466,36839,1733053297750405897,gps,2,0,37.5551221,127.04541049999999,49.921,0.00019600000000000002,0.0,0.0,0.0,0.00019600000000000002,0.0,0.0,0.0,0.0004,2
1733053297938029218,36840,1733053297875405895,gps,2,0,37.5551223,127.0454087,49.928000000000004,0.00019600000000000002,0.0,0.0,0.0,0.00019600000000000002,0.0,0.0,0.0,0.0004,2
1733053298063632398,36841,1733053298000405894,gps,2,0,37.555122499999996,127.04540689999999,49.933,0.00019600000000000002,0.0,0.0,0.0,0.00019600000000000002,0.0,0.0,0.0,0.0004,2
1733053298190008123,36842,1733053298125405892,gps,2,0,37.5551227,127.04540519999999,49.928000000000004,0.00019600000000000002,0.0,0.0,0.0,0.00019600000000000002,0.0,0.0,0.0,0.0004,2
1733053298316258640,36843,1733053298250405890,gps,2,0,37.555123099999996,127.04540349999999,49.932,0.00019600000000000002,0.0,0.0,0.0,0.00019600000000000002,0.0,0.0,0.0,0.0004,2
1733053298441756644,36844,1733053298375405889,gps,2,0,37.5551234,127.04540189999999,49.928000000000004,0.00019600000000000002,0.0,0.0,0.0,0.00019600000000000002,0.0,0.0,0.0,0.0004,2
1733053298564318859,36845,1733053298500405887,gps,2,0,37.555123699999996,127.0454001,49.915,0.00019600000000000002,0.0,0.0,0.0,0.00019600000000000002,0.0,0.0,0.0,0.000361,2
1733053298689180499,36846,1733053298625405885,gps,2,0,37.5551242,127.0453984,49.934,0.00019600000000000002,0.0,0.0,0.0,0.00019600000000000002,0.0,0.0,0.0,0.00032399999999999996,2
1733053298812333804,36847,1733053298750405884,gps,2,0,37.5551246,127.04539659999999,49.943,0.00019600000000000002,0.0,0.0,0.0,0.00019600000000000002,0.0,0.0,0.0,0.0004,2
1733053298933843953,36848,1733053298875405882,gps,2,0,37.555125,127.04539489999999,49.922000000000004,0.00019600000000000002,0.0,0.0,0.0,0.00019600000000000002,0.0,0.0,0.0,0.00044100000000000004,2
1733053299067163939,36849,1733053299000405880,gps,2,0,37.5551254,127.04539299999999,49.932,0.00019600000000000002,0.0,0.0,0.0,0.00019600000000000002,0.0,0.0,0.0,0.00044100000000000004,2
