%time,field.stamp,field.id,field.x,field.y,field.z,field.distanceFromTag,field.rssi,field.rssi_fp
1730020288377668807,1730020288377360343,12,-2.58,-0.87,1.97,4.302620999999999,-78.68,-81.47
1730020288476429650,1730020288476089954,12,-2.58,-0.87,1.97,4.296367,-78.26,-80.55
1730020288578858078,1730020288578600168,12,-2.58,-0.87,1.97,4.315128333333333,-78.37,-80.57
1730020288677752096,1730020288677517890,12,-2.58,-0.87,1.97,4.308874666666667,-78.94,-80.93
1730020288779048669,1730020288778772592,12,-2.58,-0.87,1.97,4.315128666666666,-78.9,-80.58
1730020288878780111,1730020288878683328,12,-2.58,-0.87,1.97,4.308874666666666,-78.65,-80.92
1730020288979351762,1730020288979035139,12,-2.58,-0.87,1.97,4.302620666666667,-78.72,-80.84
1730020289078802485,1730020289078578710,12,-2.58,-0.87,1.97,4.321382,-78.66,-81.22
1730020289179026524,1730020289178833007,12,-2.58,-0.87,1.97,4.315128333333333,-78.84,-80.76
1730020289279204373,1730020289278996229,12,-2.58,-0.87,1.97,4.302620999999999,-78.31,-80.58
1730020289378770454,1730020289378538846,12,-2.58,-0.87,1.97,4.302620999999999,-78.79,-81.26
1730020289479330939,1730020289478896141,12,-2.58,-0.87,1.97,4.2963673333333325,-78.01,-80.53
1730020289578006650,1730020289577660322,12,-2.58,-0.87,1.97,4.302620999999999,-78.73,-80.54
1730020289678261188,1730020289677735328,12,-2.58,-0.87,1.97,4.290113333333333,-78.33,-80.87
1730020289778315598,1730020289777976274,12,-2.58,-0.87,1.97,4.290113333333333,-78.38,-80.86
1730020289877942502,1730020289877621173,12,-2.58,-0.87,1.97,4.302620999999999,-78.88,-81.05
1730020289976414813,1730020289976086616,12,-2.58,-0.87,1.97,4.327636333333333,-78.7,-81.25
1730020290078373616,1730020290076057195,12,-2.58,-0.87,1.97,4.33389,-78.76,-80.48
1730020290176568176,1730020290176095962,12,-2.58,-0.87,1.97,4.327636,-78.16,-80.49
1730020290277178424,1730020290276143550,12,-2.58,-0.87,1.97,4.290113,-78.29,-80.5
1730020290376444382,1730020290376080036,12,-2.58,-0.87,1.97,4.290113,-78.48,-80.92
1730020290480287305,1730020290479918241,12,-2.58,-0.87,1.97,4.271351666666667,-78.28,-80.8
1730020290580169842,1730020290579845905,12,-2.58,-0.87,1.97,4.283859333333333,-78.38,-80.91
1730020290680635689,1730020290680371522,12,-2.58,-0.87,1.97,4.290113,-78.61,-80.6
1730020290779294858,1730020290779055833,12,-2.58,-0.87,1.97,4.302620666666667,-79.74,-80.83
1730020290879942692,1730020290879771709,12,-2.58,-0.87,1.97,4.277605333333333,-78.46,-80.85
1730020290979943030,1730020290979710817,12,-2.58,-0.87,1.97,4.290113,-78.64,-81.08
1730020291079909464,1730020291079670429,12,-2.58,-0.87,1.97,4.308874333333333,-78.61,-81.1
1730020291179917752,1730020291179757833,12,-2.58,-0.87,1.97,4.327635999999999,-78.64,-81.01
1730020291276627903,1730020291276076078,12,-2.58,-0.87,1.97,4.327636,-78.94,-80.7
1730020291376608091,1730020291376078128,12,-2.58,-0.87,1.97,4.327636,-78.71,-80.87
1730020291476925178,1730020291476145267,12,-2.58,-0.87,1.97,4.315128333333333,-78.8,-80.98
1730020291577782257,1730020291577514410,12,-2.58,-0.87,1.97,4.290113333333333,-78.49,-80.51
1730020291678251265,1730020291677766799,12,-2.58,-0.87,1.97,4.271352,-78.73,-81.12
1730020291778307005,1730020291777766704,12,-2.58,-0.87,1.97,4.2838596666666655,-78.59,-80.37
1730020291878222825,1730020291877813339,12,-2.58,-0.87,1.97,4.277605666666666,-78.57,-80.82
1730020291977049945,1730020291976154565,12,-2.58,-0.87,1.97,4.271351999999999,-78.43,-81.05
1730020292078005546,1730020292077771186,12,-2.58,-0.87,1.97,4.296366999999999,-79.66,-81.05
1730020292179360696,1730020292179091453,12,-2.58,-0.87,1.97,4.308874666666667,-78.85,-81.0
1730020292278663101,1730020292278466463,12,-2.58,-0.87,1.97,4.296367,-78.78,-81.02
1730020292377897669,1730020292377508401,12,-2.58,-0.87,1.97,4.283859333333333,-79.4,-81.22
1730020292477723913,1730020292477403640,12,-2.58,-0.87,1.97,4.296367,-79.6,-80.75
1730020292577982834,1730020292577636003,12,-2.58,-0.87,1.97,4.315128333333333,-78.49,-80.81
1730020292677922901,1730020292677612781,12,-2.58,-0.87,1.97,4.308874666666667,-78.33,-80.55
1730020292780026300,1730020292779752731,12,-2.58,-0.87,1.97,4.308874666666667,-78.67,-80.84
1730020292879826669,1730020292879575490,12,-2.58,-0.87,1.97,4.321382333333333,-79.05,-81.08
1730020292979958363,1730020292979871273,12,-2.58,-0.87,1.97,4.371412666666667,-79.36,-80.8
1730020293079579839,1730020293079338550,12,-2.58,-0.87,1.97,4.408935333333333,-78.93,-80.4
1730020293179906217,1730020293179632663,12,-2.58,-0.87,1.97,4.433950666666667,-78.65,-80.7
1730020293279877862,1730020293279606342,12,-2.58,-0.87,1.97,4.452712333333333,-78.57,-81.06
1730020293379606211,1730020293379308938,12,-2.58,-0.87,1.97,4.490235333333334,-78.95,-81.38
1730020293480166073,1730020293479861497,12,-2.58,-0.87,1.97,4.546519333333333,-78.68,-80.88
1730020293579913740,1730020293579612493,12,-2.58,-0.87,1.97,4.584042,-78.81,-81.22
1730020293679998151,1730020293679910421,12,-2.58,-0.87,1.97,4.615311,-79.02,-80.9
1730020293779958273,1730020293779743909,12,-2.58,-0.87,1.97,4.659087666666667,-79.02,-80.57
1730020293879456123,1730020293879252195,12,-2.58,-0.87,1.97,4.702864333333333,-78.61,-80.5
1730020293979548641,1730020293979291677,12,-2.58,-0.87,1.97,4.7278796666666665,-78.78,-80.64
1730020294079854421,1730020294079570531,12,-2.58,-0.87,1.97,4.7403873333333335,-78.33,-80.43
1730020294176322028,1730020294176112413,12,-2.58,-0.87,1.97,0.5065586666666665,-79.55,-96.86
1730020294276425486,1730020294276087045,12,-2.58,-0.87,1.97,0.5503353333333335,-78.59,-80.81
1730020294376386388,1730020294376062631,12,-2.58,-0.87,1.97,0.5816043333333335,-78.21,-80.64
1730020294476399623,1730020294476065635,12,-2.58,-0.87,1.97,4.896732666666666,-78.55,-80.88
1730020294576500509,1730020294576084852,12,-2.58,-0.87,1.97,4.946763000000001,-78.77,-80.92
1730020294676736608,1730020294676159858,12,-2.58,-0.87,1.97,5.046824,-79.88,-80.56
1730020294776744720,1730020294776076555,12,-2.58,-0.87,1.97,5.146884666666666,-80.97,-81.33
1730020294876482532,1730020294876111507,12,-2.58,-0.87,1.97,5.278214666666667,-80.8,-83.55
1730020294979353823,1730020294979085206,12,-2.58,-0.87,1.97,5.384529333333333,-81.72,-81.66
1730020295079549325,1730020295079411506,12,-2.58,-0.87,1.97,5.43456,-80.52,-80.74
1730020295179680129,1730020295179314613,12,-2.58,-0.87,1.97,5.440813666666667,-80.27,-80.98
1730020295279942037,1730020295279546737,12,-2.58,-0.87,1.97,5.428306,-79.12,-80.42
1730020295380167673,1730020295379948377,12,-2.58,-0.87,1.97,5.447067333333333,-79.77,-81.08
1730020295476601836,1730020295476141214,12,-2.58,-0.87,1.97,5.478336666666666,-79.28,-81.07
1730020295576731784,1730020295576156616,12,-2.58,-0.87,1.97,5.540875,-79.07,-80.88
1730020295676456361,1730020295676089525,12,-2.58,-0.87,1.97,5.584651666666667,-78.51,-80.42
1730020295776524245,1730020295776084899,12,-2.58,-0.87,1.97,5.659697333333334,-79.49,-81.04
1730020295878213642,1730020295877735614,12,-2.58,-0.87,1.97,5.715981666666667,-78.5,-80.53
1730020295977951106,1730020295977591991,12,-2.58,-0.87,1.97,5.822296333333334,-79.53,-80.99
1730020296077938279,1730020296077637195,12,-2.58,-0.87,1.97,5.897341999999999,-79.07,-80.73
1730020296177832654,1730020296177528381,12,-2.58,-0.87,1.97,5.984895333333333,-79.07,-80.64
1730020296278001836,1730020296277751207,12,-2.58,-0.87,1.97,6.041179666666667,-78.9,-80.82
1730020296377683608,1730020296377432107,12,-2.58,-0.87,1.97,6.128733,-79.47,-81.22
1730020296476478463,1730020296476143360,12,-2.58,-0.87,1.97,6.216286333333334,-79.0,-80.88
1730020296576626576,1730020296576173067,12,-2.58,-0.87,1.97,6.297586,-79.47,-81.94
1730020296676549937,1730020296676133632,12,-2.58,-0.87,1.97,6.372631666666667,-79.3,-80.58
1730020296879101113,1730020296878877639,12,-2.58,-0.87,1.97,6.491454,-79.53,-80.77
1730020296978336189,1730020296977841138,12,-2.58,-0.87,1.97,6.616530333333333,-79.18,-80.93
1730020297079541849,1730020297079092979,12,-2.58,-0.87,1.97,6.747860333333333,-78.98,-80.85
1730020297179049558,1730020297178790569,12,-2.58,-0.87,1.97,6.8291596666666665,-79.07,-80.57
1730020297278687301,1730020297278583765,12,-2.58,-0.87,1.97,6.910459,-79.99,-81.02
1730020297377796881,1730020297377489328,12,-2.58,-0.87,1.97,6.9855046666666665,-79.46,-80.88
1730020297479489651,1730020297479322910,12,-2.58,-0.87,1.97,7.054296666666666,-78.61,-80.64
1730020297579915460,1730020297579674482,12,-2.58,-0.87,1.97,7.148104,-79.02,-80.52
1730020297679533577,1730020297679299354,12,-2.58,-0.87,1.97,7.223149666666667,-78.79,-80.52
1730020297779585739,1730020297779387712,12,-2.58,-0.87,1.97,7.329464333333334,-78.84,-80.49
1730020297879706447,1730020297879455804,12,-2.58,-0.87,1.97,7.423271333333333,-78.66,-81.22
1730020297979415735,1730020297979196786,12,-2.58,-0.87,1.97,7.529585999999999,-78.68,-80.63
1730020298079880484,1730020298079670429,12,-2.58,-0.87,1.97,7.629646999999999,-79.41,-80.77
1730020298179443289,1730020298179188966,12,-2.58,-0.87,1.97,7.729708,-78.71,-80.99
1730020298279954067,1730020298279649972,12,-2.58,-0.87,1.97,7.861038333333333,-79.76,-81.0
1730020298380774225,1730020298380483388,12,-2.58,-0.87,1.97,7.961099333333333,-79.29,-80.64
1730020298479917461,1730020298479729652,12,-2.58,-0.87,1.97,8.042398666666667,-79.43,-80.76
1730020298579667402,1730020298579454898,12,-2.58,-0.87,1.97,8.104936666666667,-79.21,-80.6
1730020298679495238,1730020298679357528,12,-2.58,-0.87,1.97,8.204997666666667,-79.93,-80.95
1730020298779665706,1730020298779576301,12,-2.58,-0.87,1.97,8.305059,-78.65,-80.91
1730020298879382386,1730020298879199981,12,-2.58,-0.87,1.97,8.392612333333334,-81.96,-82.43
1730020298979588779,1730020298979369878,12,-2.58,-0.87,1.97,8.461404333333334,-79.12,-80.53
1730020299079435948,1730020299079164505,12,-2.58,-0.87,1.97,8.561465,-79.55,-81.74
1730020299180269226,1730020299180027246,12,-2.58,-0.87,1.97,8.649018333333332,-79.27,-80.89
1730020299677836388,1730020299677393913,12,-2.58,-0.87,1.97,9.136815666666665,-80.06,-80.9
1730020299777924087,1730020299777589321,12,-2.58,-0.87,1.97,9.249384333333333,-79.73,-80.89
1730020299878845494,1730020299878630638,12,-2.58,-0.87,1.97,9.361953,-80.44,-81.12
1730020299977789410,1730020299977509737,12,-2.58,-0.87,1.97,9.45576,-80.57,-81.76
1730020300079027775,1730020300078795433,12,-2.58,-0.87,1.97,9.555820666666667,-79.79,-81.31
1730020300180048361,1730020300179863691,12,-2.58,-0.87,1.97,9.662135333333334,-80.07,-82.04
1730020300277091632,1730020300276097059,12,-2.58,-0.87,1.97,9.780958,-84.28,-85.73
1730020300380585716,1730020300380356788,12,-2.58,-0.87,1.97,9.887273,-79.93,-80.97
1730020300480540832,1730020300480324029,12,-2.58,-0.87,1.97,9.974826333333334,-79.95,-81.19
1730020300580324724,1730020300580058097,12,-2.58,-0.87,1.97,10.043618333333333,-79.96,-80.93
1730020300678909369,1730020300678610801,12,-2.58,-0.87,1.97,10.137425333333333,-79.75,-80.86
1730020300777925557,1730020300777554035,12,-2.58,-0.87,1.97,10.237486333333335,-79.52,-80.69
1730020300877689857,1730020300877591133,12,-2.58,-0.87,1.97,10.350054666666667,-80.1,-81.24
1730020300977878519,1730020300977541685,12,-2.58,-0.87,1.97,10.456369666666667,-79.6,-80.9
1730020301077769970,1730020301077439308,12,-2.58,-0.87,1.97,10.568938000000001,-80.13,-80.87
1730020301177973225,1730020301177677154,12,-2.58,-0.87,1.97,10.668999,-80.18,-80.9
1730020301278759670,1730020301278476476,12,-2.58,-0.87,1.97,10.775313666666667,-79.59,-80.73
1730020301376552579,1730020301376067638,12,-2.58,-0.87,1.97,10.869121,-80.01,-80.7
1730020301476810476,1730020301476109504,12,-2.58,-0.87,1.97,10.987943333333334,-79.77,-80.78
1730020301576787926,1730020301576106071,12,-2.58,-0.87,1.97,11.094257666666666,-81.54,-82.67
1730020301676825513,1730020301676109790,12,-2.58,-0.87,1.97,11.200572333333334,-80.25,-81.35
1730020301776916850,1730020301776123285,12,-2.58,-0.87,1.97,11.281871666666666,-80.07,-81.01
1730020301876708430,1730020301876074314,12,-2.58,-0.87,1.97,11.381933000000002,-80.22,-82.06
1730020301976385176,1730020301976074695,12,-2.58,-0.87,1.97,11.500755333333336,-81.35,-82.78
1730020302076588289,1730020302076096534,12,-2.58,-0.87,1.97,11.613324,-79.61,-81.12
1730020302176622560,1730020302176075696,12,-2.58,-0.87,1.97,11.713384666666668,-80.26,-81.49
1730020302276768742,1730020302276134490,12,-2.58,-0.87,1.97,11.807192,-79.63,-80.49
1730020302376729597,1730020302376071214,12,-2.58,-0.87,1.97,11.913507000000001,-79.72,-80.94
1730020302479210389,1730020302478911161,12,-2.58,-0.87,1.97,12.013568,-79.94,-80.96
1730020302579048482,1730020302578817367,12,-2.58,-0.87,1.97,12.113628666666665,-79.81,-80.44
1730020302678709553,1730020302678500175,12,-2.58,-0.87,1.97,12.201182000000001,-80.23,-80.61
1730020302779054345,1730020302778868675,12,-2.58,-0.87,1.97,12.413812,-79.88,-80.82
1730020302879184468,1730020302878905057,12,-2.58,-0.87,1.97,12.532634,-81.38,-81.6
1730020302979093339,1730020302978697538,12,-2.58,-0.87,1.97,12.638949000000002,-79.66,-81.34
1730020303076787024,1730020303076131820,12,-2.58,-0.87,1.97,12.732756,-81.19,-82.96
1730020303176596474,1730020303176129817,12,-2.58,-0.87,1.97,12.820309333333334,-80.64,-81.31
1730020303277601002,1730020303276152849,12,-2.58,-0.87,1.97,12.926623999999999,-82.0,-81.75
1730020303376600920,1730020303376104116,12,-2.58,-0.87,1.97,13.045446333333333,-81.12,-83.79
1730020303476660905,1730020303476093530,12,-2.58,-0.87,1.97,13.183030333333333,-84.41,-87.45
1730020303577091779,1730020303576121568,12,-2.58,-0.87,1.97,13.295598666666669,-81.14,-83.38
1730020303676749858,1730020303676128864,12,-2.58,-0.87,1.97,13.401913333333335,-80.89,-81.53
1730020303776462981,1730020303776112556,12,-2.58,-0.87,1.97,13.483213,-79.94,-81.2
1730020303876760315,1730020303876088142,12,-2.58,-0.87,1.97,13.614543,-80.37,-83.39
1730020303976517771,1730020303976086616,12,-2.58,-0.87,1.97,13.739619333333332,-81.01,-81.58
1730020304076659548,1730020304076087951,12,-2.58,-0.87,1.97,13.864695333333332,-80.53,-81.0
1730020304176529911,1730020304176086902,12,-2.58,-0.87,1.97,13.952248666666668,-80.33,-81.2
1730020304276827871,1730020304276134729,12,-2.58,-0.87,1.97,14.046055666666668,-80.39,-81.12
1730020304376509972,1730020304376091241,12,-2.58,-0.87,1.97,14.146116666666666,-80.49,-81.17
1730020304476553521,1730020304476100206,12,-2.58,-0.87,1.97,14.252431666666666,-80.48,-81.03
1730020304576669049,1730020304576146125,12,-2.58,-0.87,1.97,14.352492666666668,-80.3,-80.79
1730020304676541291,1730020304676098108,12,-2.58,-0.87,1.97,14.458807333333334,-80.22,-81.06
1730020304776558755,1730020304776110410,12,-2.58,-0.87,1.97,14.558868000000002,-80.8,-81.38
1730020304876456523,1730020304876107931,12,-2.58,-0.87,1.97,14.652675,-80.16,-80.9
1730020305078797649,1730020305078568220,12,-2.58,-0.87,1.97,14.784005,-81.14,-81.2
1730020305179262445,1730020305178855895,12,-2.58,-0.87,1.97,14.921588666666667,-80.26,-80.92
1730020305279057784,1730020305278829336,12,-2.58,-0.87,1.97,15.071680333333333,-81.0,-82.45
1730020305378979195,1730020305378727436,12,-2.58,-0.87,1.97,15.177995000000001,-80.69,-81.2
1730020305477593203,1730020305477482557,12,-2.58,-0.87,1.97,15.278056333333334,-81.63,-82.19
1730020305577886082,1730020305577651739,12,-2.58,-0.87,1.97,15.371863333333332,-81.25,-81.54
1730020305679957327,1730020305679680585,12,-2.58,-0.87,1.97,15.478178,-82.36,-83.93
1730020305780541448,1730020305780295848,12,-2.58,-0.87,1.97,15.603254333333332,-81.7,-84.49
1730020305976552642,1730020305976159334,12,-2.58,-0.87,1.97,15.747092,-81.67,-84.06
1730020306076747718,1730020306076285600,12,-2.58,-0.87,1.97,15.897183666666669,-81.9,-83.65
1730020306176739759,1730020306176253080,12,-2.58,-0.87,1.97,16.047274666666667,-81.51,-82.21
1730020306276565884,1730020306276112794,12,-2.58,-0.87,1.97,16.178604333333336,-81.94,-83.45
1730020306376573045,1730020306376112937,12,-2.58,-0.87,1.97,16.28491866666667,-81.22,-82.22
1730020306476736926,1730020306476197719,12,-2.58,-0.87,1.97,16.384979333333334,-81.46,-82.3
1730020306579827895,1730020306579607009,12,-2.58,-0.87,1.97,16.472533000000002,-80.97,-81.37
1730020306680104571,1730020306679747819,12,-2.58,-0.87,1.97,16.58510166666667,-81.02,-81.74
1730020306780492607,1730020306780181407,12,-2.58,-0.87,1.97,16.69767033333333,-80.71,-81.35
1730020306879817864,1730020306879706621,12,-2.58,-0.87,1.97,16.841508,-87.14,-86.93
1730020306980137290,1730020306979808092,12,-2.58,-0.87,1.97,16.935315,-80.78,-81.05
1730020307080432809,1730020307080193519,12,-2.58,-0.87,1.97,17.029122333333333,-81.13,-81.27
1730020307179706911,1730020307179411888,12,-2.58,-0.87,1.97,17.129182999999998,-80.77,-80.86
1730020307279858702,1730020307279573440,12,-2.58,-0.87,1.97,17.248005666666668,-80.64,-81.02
1730020307379960371,1730020307379735231,12,-2.58,-0.87,1.97,17.385589,-82.6,-82.2
1730020307480438737,1730020307480098247,12,-2.58,-0.87,1.97,17.473142,-80.51,-81.4
1730020307579978904,1730020307579794645,12,-2.58,-0.87,1.97,17.585710666666667,-80.38,-81.14
1730020307680036479,1730020307679819345,12,-2.58,-0.87,1.97,17.673264333333332,-80.89,-81.14
1730020307780850196,1730020307780579805,12,-2.58,-0.87,1.97,17.792087,-81.79,-81.47
1730020307880021556,1730020307879793643,12,-2.58,-0.87,1.97,17.885893666666664,-80.11,-80.84
1730020307980294879,1730020307980006933,12,-2.58,-0.87,1.97,17.979701000000002,-80.34,-80.83
1730020308081081476,1730020308080972194,12,-2.58,-0.87,1.97,18.086015333333332,-81.33,-81.39
1730020308179995084,1730020308179745674,12,-2.58,-0.87,1.97,18.211091666666665,-82.33,-82.44
1730020308279786085,1730020308279367685,12,-2.58,-0.87,1.97,18.329913666666666,-80.27,-81.61
1730020308380835245,1730020308380543947,12,-2.58,-0.87,1.97,18.429975333333335,-81.16,-81.29
1730020308480562515,1730020308480287551,12,-2.58,-0.87,1.97,18.536290333333334,-81.36,-81.71
1730020308580491239,1730020308579946279,12,-2.58,-0.87,1.97,18.655113,-81.77,-81.95
1730020308680047354,1730020308679971218,12,-2.58,-0.87,1.97,18.761427333333334,-80.91,-81.23
1730020308779574006,1730020308779198169,12,-2.58,-0.87,1.97,18.855234333333332,-80.88,-81.29
1730020308878792681,1730020308878477096,12,-2.58,-0.87,1.97,18.94278733333333,-82.15,-82.26
1730020308977936900,1730020308977587461,12,-2.58,-0.87,1.97,19.055355666666667,-82.14,-83.76
1730020309077787012,1730020309077398538,12,-2.58,-0.87,1.97,19.167924333333335,-82.61,-84.02
1730020309176656817,1730020309176108598,12,-2.58,-0.87,1.97,19.280493000000003,-85.23,-86.1
1730020309276859982,1730020309276126623,12,-2.58,-0.87,1.97,19.368046666666668,-83.73,-84.91
1730020309376505256,1730020309376074075,12,-2.58,-0.87,1.97,19.468107333333332,-83.61,-84.59
1730020309476978752,1730020309476128339,12,-2.58,-0.87,1.97,19.574422333333334,-83.74,-84.14
1730020309576719000,1730020309576335668,12,-2.58,-0.87,1.97,19.680736666666668,-84.82,-89.05
1730020309676702633,1730020309676162481,12,-2.58,-0.87,1.97,19.793305333333333,-85.39,-88.37
1730020309776725170,1730020309776085853,12,-2.58,-0.87,1.97,19.887112333333334,-87.09,-89.47
1730020309876577481,1730020309876077175,12,-2.58,-0.87,1.97,19.993427333333333,-86.1,-88.82
1730020309976531783,1730020309976077556,12,-2.58,-0.87,1.97,20.10599566666667,-85.74,-86.36
1730020310077399933,1730020310076176166,12,-2.58,-0.87,1.97,20.231072,-84.48,-84.73
1730020310177677996,1730020310176089286,12,-2.58,-0.87,1.97,20.362402,-83.81,-86.2
1730020310276795851,1730020310276103734,12,-2.58,-0.87,1.97,20.468716999999998,-84.37,-85.53
1730020310378270144,1730020310377965450,12,-2.58,-0.87,1.97,20.581285666666666,-83.44,-83.55
1730020310577012896,1730020310576085805,12,-2.58,-0.87,1.97,20.73137733333333,-83.54,-83.47
1730020310678256845,1730020310677767753,12,-2.58,-0.87,1.97,21.037813333333336,-82.53,-84.1
1730020310776595699,1730020310776096105,12,-2.58,-0.87,1.97,21.144127666666666,-82.55,-83.35
1730020310876558416,1730020310876131534,12,-2.58,-0.87,1.97,21.262950333333333,-81.93,-82.01
1730020310976853708,1730020310976076602,12,-2.58,-0.87,1.97,21.369265333333335,-81.79,-83.1
1730020311076411776,1730020311076089382,12,-2.58,-0.87,1.97,21.46932666666667,-82.25,-82.35
1730020311179317785,1730020311178787231,12,-2.58,-0.87,1.97,21.581895333333335,-81.67,-82.36
1730020311280952316,1730020311280729293,12,-2.58,-0.87,1.97,21.694464,-80.83,-81.34
1730020311380510748,1730020311380210638,12,-2.58,-0.87,1.97,21.819539666666667,-81.61,-81.44
1730020311479805055,1730020311479548692,12,-2.58,-0.87,1.97,21.919600333333335,-80.98,-82.03
1730020311579870937,1730020311579621315,12,-2.58,-0.87,1.97,22.019661,-80.84,-81.32
1730020311680410846,1730020311680101633,12,-2.58,-0.87,1.97,22.119722666666664,-81.8,-81.77
1730020311780232674,1730020311779903888,12,-2.58,-0.87,1.97,22.226037666666667,-80.82,-80.95
1730020311881161653,1730020311880815029,12,-2.58,-0.87,1.97,22.332352666666665,-81.61,-82.57
1730020311979469179,1730020311979336023,12,-2.58,-0.87,1.97,22.43241333333333,-80.62,-81.0
1730020312079531706,1730020312079350471,12,-2.58,-0.87,1.97,22.544982,-80.92,-80.99
1730020312179409480,1730020312179306268,12,-2.58,-0.87,1.97,22.651297,-80.67,-80.89
1730020312279830258,1730020312279589653,12,-2.58,-0.87,1.97,22.757612000000005,-81.75,-81.79
1730020312379350904,1730020312379181146,12,-2.58,-0.87,1.97,22.851419000000003,-80.73,-81.22
1730020312479458565,1730020312479208946,12,-2.58,-0.87,1.97,22.951479666666668,-81.63,-81.54
1730020312579403354,1730020312579216480,12,-2.58,-0.87,1.97,23.051540333333335,-80.73,-80.91
1730020312710864867,1730020312710616350,12,-2.58,-0.87,1.97,23.176616,-81.31,-81.23
1730020312780063830,1730020312779875516,12,-2.58,-0.87,1.97,23.282931,-81.0,-81.18
1730020312879667962,1730020312879447460,12,-2.58,-0.87,1.97,23.414261,-81.74,-82.01
1730020312979802529,1730020312979601860,12,-2.58,-0.87,1.97,23.514322333333336,-81.07,-81.28
1730020313079983142,1730020313079800844,12,-2.58,-0.87,1.97,23.65816,-87.09,-88.6
1730020313176660950,1730020313176117897,12,-2.58,-0.87,1.97,23.75822066666667,-82.26,-82.19
1730020313276629191,1730020313276196002,12,-2.58,-0.87,1.97,23.852027333333336,-81.41,-81.32
1730020313376664450,1730020313376169681,12,-2.58,-0.87,1.97,23.93332666666667,-82.12,-83.33
1730020313476475430,1730020313476128816,12,-2.58,-0.87,1.97,24.027134,-81.36,-81.39
1730020313576564388,1730020313576203107,12,-2.58,-0.87,1.97,24.13970333333333,-81.72,-81.55
1730020313676492572,1730020313676131010,12,-2.58,-0.87,1.97,24.23351,-81.61,-81.61
1730020313777039669,1730020313776309251,12,-2.58,-0.87,1.97,24.346078333333335,-82.15,-82.03
1730020313876687494,1730020313876195430,12,-2.58,-0.87,1.97,24.446139000000002,-82.1,-82.37
1730020313976530243,1730020313976189851,12,-2.58,-0.87,1.97,24.583723000000003,-85.29,-87.12
1730020314076679383,1730020314076200008,12,-2.58,-0.87,1.97,24.702546,-82.43,-82.12
1730020314176744064,1730020314176190376,12,-2.58,-0.87,1.97,24.833876,-83.32,-83.25
1730020314276891074,1730020314276159763,12,-2.58,-0.87,1.97,24.940191,-82.9,-82.61
1730020314376630068,1730020314376193761,12,-2.58,-0.87,1.97,25.033997999999997,-85.31,-86.34
1730020314476679029,1730020314476206541,12,-2.58,-0.87,1.97,25.109043666666665,-82.75,-84.79
1730020314578185695,1730020314577873468,12,-2.58,-0.87,1.97,25.171582,-83.42,-83.65
1730020314678072808,1730020314677754640,12,-2.58,-0.87,1.97,25.259135,-82.81,-84.56
1730020314777863754,1730020314777457237,12,-2.58,-0.87,1.97,25.35294233333333,-85.52,-87.19
1730020314878213414,1730020314877865791,12,-2.58,-0.87,1.97,25.396718333333336,-82.5,-82.33
1730020314977899036,1730020314977671146,12,-2.58,-0.87,1.97,25.415479666666666,-83.11,-82.79
1730020315078249221,1730020315077827692,12,-2.58,-0.87,1.97,25.421733333333332,-83.65,-84.71
1730020315176782090,1730020315176265954,12,-2.58,-0.87,1.97,25.446749,-84.53,-85.74
1730020315276477496,1730020315276108980,12,-2.58,-0.87,1.97,25.459256999999997,-84.79,-87.04
1730020315376895701,1730020315376281738,12,-2.58,-0.87,1.97,25.434241333333333,-84.84,-85.45
1730020315476626325,1730020315476206779,12,-2.58,-0.87,1.97,25.434241333333336,-84.07,-83.84
1730020315979911785,1730020315979809761,12,-2.58,-0.87,1.97,25.421734,-84.6,-84.84
1730020316579895047,1730020316579373598,12,-2.58,-0.87,1.97,25.390465000000003,-83.51,-84.72
1730020316680818874,1730020316680349349,12,-2.58,-0.87,1.97,25.384210666666664,-82.97,-83.05
1730020316776566292,1730020316776093959,12,-2.58,-0.87,1.97,25.359195,-84.09,-84.29
1730020316880932857,1730020316880630970,12,-2.58,-0.87,1.97,25.346687333333335,-83.59,-84.15
1730020316977706884,1730020316977375507,12,-2.58,-0.87,1.97,25.321672333333336,-83.49,-83.64
1730020317077865714,1730020317077523469,12,-2.58,-0.87,1.97,25.309164666666664,-83.01,-82.91
1730020317177651388,1730020317177451610,12,-2.58,-0.87,1.97,25.290403333333334,-83.9,-85.53
1730020317278049016,1730020317277784824,12,-2.58,-0.87,1.97,25.259134333333332,-82.59,-82.45
1730020317378615146,1730020317378304719,12,-2.58,-0.87,1.97,25.23411933333333,-82.84,-84.64
1730020317476457442,1730020317476084232,12,-2.58,-0.87,1.97,25.209103999999996,-82.79,-84.38
1730020317576789826,1730020317576090335,12,-2.58,-0.87,1.97,25.171581333333332,-83.82,-84.38
1730020317676525796,1730020317676061391,12,-2.58,-0.87,1.97,25.127804666666666,-82.22,-82.31
1730020317776900688,1730020317776070117,12,-2.58,-0.87,1.97,25.071520666666668,-82.44,-84.42
1730020317877227916,1730020317876106500,12,-2.58,-0.87,1.97,25.033997666666664,-81.94,-82.76
1730020317976871158,1730020317976125001,12,-2.58,-0.87,1.97,24.996475,-90.21,-90.31
1730020318077464849,1730020318076385021,12,-2.58,-0.87,1.97,24.940190333333334,-82.59,-82.61
1730020318176438839,1730020318176073789,12,-2.58,-0.87,1.97,24.883906333333332,-82.38,-82.17
1730020318276492418,1730020318276094913,12,-2.58,-0.87,1.97,24.815113999999998,-82.12,-82.0
1730020318376821915,1730020318376133441,12,-2.58,-0.87,1.97,24.75257666666667,-82.31,-82.27
1730020318477219123,1730020318476068973,12,-2.58,-0.87,1.97,24.702546333333334,-82.39,-82.31
1730020318576667828,1730020318576076030,12,-2.58,-0.87,1.97,24.64000866666667,-82.13,-81.93
1730020318676567962,1730020318676068305,12,-2.58,-0.87,1.97,24.577470333333338,-81.81,-81.63
1730020318776989988,1730020318776111602,12,-2.58,-0.87,1.97,24.458646666666667,-83.73,-85.31
1730020318876870616,1730020318876078367,12,-2.58,-0.87,1.97,24.402362,-82.53,-82.5
1730020318976465288,1730020318976078271,12,-2.58,-0.87,1.97,24.327317000000004,-81.63,-81.39
1730020319076452347,1730020319076103448,12,-2.58,-0.87,1.97,24.26477966666667,-81.92,-81.57
1730020319176696879,1730020319176167249,12,-2.58,-0.87,1.97,24.208495666666664,-83.95,-85.62
1730020319276410772,1730020319276085853,12,-2.58,-0.87,1.97,24.14595733333333,-81.52,-81.17
1730020319376754433,1730020319376103162,12,-2.58,-0.87,1.97,24.058403666666667,-82.41,-82.36
1730020319476478251,1730020319476115703,12,-2.58,-0.87,1.97,23.964596666666665,-81.89,-82.05
1730020319576699074,1730020319576084136,12,-2.58,-0.87,1.97,23.88329733333333,-81.98,-81.73
1730020319676569159,1730020319676131725,12,-2.58,-0.87,1.97,23.814505666666665,-81.28,-81.14
1730020319776491898,1730020319776087522,12,-2.58,-0.87,1.97,23.75196733333333,-81.04,-81.11
1730020319876618013,1730020319876133680,12,-2.58,-0.87,1.97,23.67066733333333,-80.9,-82.04
1730020319976545514,1730020319976071834,12,-2.58,-0.87,1.97,23.583113666666666,-80.96,-81.52
1730020320076420691,1730020320076086044,12,-2.58,-0.87,1.97,23.508067999999998,-81.01,-81.13
1730020320176632988,1730020320176089525,12,-2.58,-0.87,1.97,23.439275999999996,-80.98,-80.99
1730020320276483391,1730020320276122093,12,-2.58,-0.87,1.97,23.351722999999996,-80.96,-81.27
1730020320376479602,1730020320376113653,12,-2.58,-0.87,1.97,23.264170000000004,-81.83,-81.58
1730020320476488304,1730020320476125955,12,-2.58,-0.87,1.97,23.195378333333334,-81.37,-81.14
1730020320576633530,1730020320576165914,12,-2.58,-0.87,1.97,23.12658566666667,-81.83,-82.51
1730020320676440631,1730020320676098585,12,-2.58,-0.87,1.97,23.051539666666667,-81.7,-82.16
1730020320776654266,1730020320776114225,12,-2.58,-0.87,1.97,22.976494,-82.34,-81.83
1730020320876490963,1730020320876121997,12,-2.58,-0.87,1.97,22.901449,-80.79,-81.57
1730020320976531446,1730020320976148128,12,-2.58,-0.87,1.97,22.813895333333335,-81.42,-81.96
1730020321076462784,1730020321076118946,12,-2.58,-0.87,1.97,22.720088,-81.23,-81.39
1730020321176588899,1730020321176178455,12,-2.58,-0.87,1.97,22.638788333333334,-81.23,-81.06
1730020321278013162,1730020321277884960,12,-2.58,-0.87,1.97,22.551235333333334,-81.06,-81.93
1730020321378542960,1730020321378440618,12,-2.58,-0.87,1.97,22.457427999999997,-81.13,-81.1
1730020321478957938,1730020321478648662,12,-2.58,-0.87,1.97,22.382382333333336,-81.55,-81.66
1730020321577640956,1730020321577270984,12,-2.58,-0.87,1.97,22.319844,-81.99,-82.87
1730020321677787544,1730020321677492141,12,-2.58,-0.87,1.97,22.244798666666668,-81.8,-83.25
1730020321776373134,1730020321776134729,12,-2.58,-0.87,1.97,22.150991333333334,-81.78,-81.81
1730020321876481605,1730020321876113891,12,-2.58,-0.87,1.97,22.04467633333333,-81.59,-81.88
1730020321977953528,1730020321977839708,12,-2.58,-0.87,1.97,21.944615,-82.39,-82.18
1730020322078025254,1730020322077785015,12,-2.58,-0.87,1.97,21.84455433333333,-81.91,-82.11
1730020322178270251,1730020322177915573,12,-2.58,-0.87,1.97,21.77576266666667,-82.29,-83.04
1730020322277856096,1730020322277629613,12,-2.58,-0.87,1.97,21.69446333333333,-81.53,-81.5
1730020322376459500,1730020322376122951,12,-2.58,-0.87,1.97,21.613163666666665,-82.84,-83.28
1730020322476477880,1730020322476109981,12,-2.58,-0.87,1.97,21.506848666666667,-82.15,-82.26
1730020322576457942,1730020322576106548,12,-2.58,-0.87,1.97,21.413042,-83.03,-82.84
1730020322676480767,1730020322676106452,12,-2.58,-0.87,1.97,21.312981333333333,-82.2,-82.41
1730020322780362661,1730020322779937982,12,-2.58,-0.87,1.97,21.231682,-90.47,-91.05
1730020322879633571,1730020322879475116,12,-2.58,-0.87,1.97,21.137874666666665,-83.55,-87.04
1730020322979550788,1730020322979339361,12,-2.58,-0.87,1.97,21.037813333333332,-83.43,-84.27
1730020323079993263,1730020323079717397,12,-2.58,-0.87,1.97,20.931499,-83.82,-84.61
1730020323179526755,1730020323179339885,12,-2.58,-0.87,1.97,20.831437666666663,-84.23,-84.86
1730020323280080259,1730020323279743671,12,-2.58,-0.87,1.97,20.725123333333332,-84.79,-86.28
1730020323381106576,1730020323380078315,12,-2.58,-0.87,1.97,20.618808333333334,-84.7,-88.28
1730020323480127083,1730020323479865074,12,-2.58,-0.87,1.97,20.512494,-84.2,-87.13
1730020323580884862,1730020323580551385,12,-2.58,-0.87,1.97,20.418686666666662,-83.45,-85.26
1730020323680038002,1730020323679831504,12,-2.58,-0.87,1.97,20.312371666666667,-87.2,-87.55
1730020323779277976,1730020323778996229,12,-2.58,-0.87,1.97,20.218564333333333,-83.9,-85.3
1730020323879020002,1730020323878803968,12,-2.58,-0.87,1.97,20.13101066666667,-84.06,-86.44
1730020323978792665,1730020323978532075,12,-2.58,-0.87,1.97,20.04345766666667,-85.29,-86.45
1730020324078992793,1730020324078653335,12,-2.58,-0.87,1.97,19.962158333333335,-86.06,-86.43
1730020324179334198,1730020324178954839,12,-2.58,-0.87,1.97,19.874605333333335,-83.07,-85.33
1730020324279331821,1730020324279052734,12,-2.58,-0.87,1.97,19.799559333333335,-82.43,-85.82
1730020324379028664,1730020324378743410,12,-2.58,-0.87,1.97,19.71200566666667,-82.19,-83.09
1730020324478925163,1730020324478844642,12,-2.58,-0.87,1.97,19.636959666666666,-82.61,-83.04
1730020324579202877,1730020324578869581,12,-2.58,-0.87,1.97,19.54940666666667,-81.96,-83.12
1730020324679067328,1730020324678669214,12,-2.58,-0.87,1.97,19.449346000000002,-82.0,-82.11
1730020324779716665,1730020324779592275,12,-2.58,-0.87,1.97,19.349285333333334,-81.81,-81.86
1730020324878183241,1730020324877794027,12,-2.58,-0.87,1.97,19.255478333333333,-81.36,-81.52
1730020324977769856,1730020324977569818,12,-2.58,-0.87,1.97,19.167925333333333,-81.14,-81.64
1730020325078305605,1730020325077940225,12,-2.58,-0.87,1.97,19.067864333333333,-80.71,-81.53
1730020325178139456,1730020325177846193,12,-2.58,-0.87,1.97,18.974057000000002,-81.48,-81.69
1730020325278571094,1730020325278192758,12,-2.58,-0.87,1.97,18.880249666666668,-80.68,-81.17
1730020325378157116,1730020325377726793,12,-2.58,-0.87,1.97,18.792696333333332,-80.62,-80.86
1730020325508861030,1730020325508514881,12,-2.58,-0.87,1.97,18.711397,-81.21,-81.45
1730020325578492913,1730020325578187227,12,-2.58,-0.87,1.97,18.623843333333333,-80.45,-80.75
1730020325679046071,1730020325678597688,12,-2.58,-0.87,1.97,18.536289999999997,-80.51,-81.22
1730020325779078663,1730020325778221368,12,-2.58,-0.87,1.97,18.436228999999997,-80.15,-80.89
1730020325878447829,1730020325877798795,12,-2.58,-0.87,1.97,18.336168333333333,-79.81,-80.82
1730020325976800748,1730020325976133108,12,-2.58,-0.87,1.97,18.242361333333335,-79.63,-80.66
1730020326076807073,1730020326076129674,12,-2.58,-0.87,1.97,18.148554333333333,-79.72,-80.78
1730020326176889534,1730020326176135778,12,-2.58,-0.87,1.97,18.073508333333336,-80.39,-81.26
1730020326276839423,1730020326276084899,12,-2.58,-0.87,1.97,17.985954666666668,-80.19,-80.86
1730020326376995865,1730020326376115083,12,-2.58,-0.87,1.97,17.89214733333333,-80.07,-80.84
1730020326476668322,1730020326476101398,12,-2.58,-0.87,1.97,17.810848000000004,-82.15,-82.12
1730020326576720721,1730020326576080799,12,-2.58,-0.87,1.97,17.710787,-80.13,-80.91
1730020326676626705,1730020326676167964,12,-2.58,-0.87,1.97,17.616979666666666,-80.44,-81.33
1730020326776926927,1730020326776097059,12,-2.58,-0.87,1.97,17.498157333333335,-79.91,-80.79
1730020327176735826,1730020327176110506,12,-2.58,-0.87,1.97,17.154197999999997,-81.16,-83.03
1730020327276756365,1730020327276116847,12,-2.58,-0.87,1.97,17.07289833333333,-81.31,-83.69
1730020327376678300,1730020327376160144,12,-2.58,-0.87,1.97,16.99785333333333,-82.62,-85.15
1730020327476521092,1730020327476132392,12,-2.58,-0.87,1.97,16.91655366666667,-81.89,-82.19
1730020327576303019,1730020327576089143,12,-2.58,-0.87,1.97,16.860269666666667,-86.62,-86.79
1730020327680440791,1730020327680035114,12,-2.58,-0.87,1.97,16.79773133333333,-82.46,-82.64
1730020327780900654,1730020327780643939,12,-2.58,-0.87,1.97,16.697670666666667,-81.98,-82.75
1730020327880516387,1730020327880204200,12,-2.58,-0.87,1.97,16.59135566666667,-82.54,-83.95
1730020327980616532,1730020327980286121,12,-2.58,-0.87,1.97,16.497548333333334,-83.46,-85.41
1730020328079854218,1730020328079550266,12,-2.58,-0.87,1.97,16.422502333333334,-82.54,-85.09
1730020328179952065,1730020328179784774,12,-2.58,-0.87,1.97,16.353710666666668,-83.05,-84.84
1730020328280192712,1730020328279972076,12,-2.58,-0.87,1.97,16.278665,-83.52,-84.93
1730020328380297119,1730020328379876852,12,-2.58,-0.87,1.97,16.222380333333334,-82.94,-87.43
1730020328480082061,1730020328479832410,12,-2.58,-0.87,1.97,16.153588,-84.79,-87.71
1730020328580054673,1730020328579794406,12,-2.58,-0.87,1.97,16.084796333333333,-83.88,-86.2
1730020328679531927,1730020328679428339,12,-2.58,-0.87,1.97,16.016005,-84.53,-86.79
1730020328780275142,1730020328779997110,12,-2.58,-0.87,1.97,15.940959666666666,-85.54,-88.1
1730020328879850055,1730020328879552364,12,-2.58,-0.87,1.97,15.865913999999998,-86.36,-87.9
1730020328979908081,1730020328979468107,12,-2.58,-0.87,1.97,15.809629666666666,-84.1,-85.29
1730020329079900147,1730020329079611063,12,-2.58,-0.87,1.97,15.753345666666666,-85.2,-86.33
1730020329179919266,1730020329179645299,12,-2.58,-0.87,1.97,15.715822666666668,-86.97,-87.28
1730020329280707250,1730020329280483245,12,-2.58,-0.87,1.97,15.634523333333334,-83.29,-84.47
1730020329380355544,1730020329380052804,12,-2.58,-0.87,1.97,15.578239000000002,-82.51,-83.72
1730020329480102365,1730020329479859113,12,-2.58,-0.87,1.97,15.515701,-82.06,-82.47
1730020329579391926,1730020329579107522,12,-2.58,-0.87,1.97,15.459416666666668,-81.38,-82.16
1730020329679996813,1730020329679743051,12,-2.58,-0.87,1.97,15.396878333333333,-81.44,-82.85
1730020329780328847,1730020329780128002,12,-2.58,-0.87,1.97,15.334340333333335,-81.31,-81.17
1730020329879585103,1730020329879377365,12,-2.58,-0.87,1.97,15.253041000000001,-81.59,-81.56
1730020329979550211,1730020329979410171,12,-2.58,-0.87,1.97,15.184249333333334,-81.77,-81.58
1730020330079771648,1730020330079591989,12,-2.58,-0.87,1.97,15.090442000000001,-81.29,-81.25
1730020330179319050,1730020330179157972,12,-2.58,-0.87,1.97,15.027903666666667,-81.09,-81.23
1730020330280168592,1730020330279992103,12,-2.58,-0.87,1.97,14.952858,-81.83,-84.23
1730020330379450644,1730020330379239320,12,-2.58,-0.87,1.97,14.871558666666667,-81.5,-81.72
1730020330479633530,1730020330479408740,12,-2.58,-0.87,1.97,14.809020666666664,-81.87,-81.65
1730020330579691085,1730020330579437732,12,-2.58,-0.87,1.97,14.746482666666665,-80.83,-81.37
1730020330679655126,1730020330679424285,12,-2.58,-0.87,1.97,14.702706000000001,-81.65,-82.16
1730020330779842633,1730020330779598951,12,-2.58,-0.87,1.97,14.62766,-80.89,-81.27
1730020330876349971,1730020330876129388,12,-2.58,-0.87,1.97,14.552614,-81.03,-81.37
1730020330976646047,1730020330976094484,12,-2.58,-0.87,1.97,14.477568333333332,-81.46,-81.68
1730020331076444324,1730020331076094865,12,-2.58,-0.87,1.97,14.402523,-81.3,-83.13
1730020331176430580,1730020331176112174,12,-2.58,-0.87,1.97,14.327477666666667,-80.09,-82.76
1730020331276492144,1730020331276099443,12,-2.58,-0.87,1.97,14.246178,-79.61,-81.29
1730020331378892486,1730020331378624439,12,-2.58,-0.87,1.97,14.183639666666666,-79.81,-81.18
1730020331478555822,1730020331478400468,12,-2.58,-0.87,1.97,14.096086333333332,-79.95,-81.17
1730020331578605331,1730020331578351497,12,-2.58,-0.87,1.97,14.027294333333336,-78.98,-80.85
1730020331678913999,1730020331678716421,12,-2.58,-0.87,1.97,13.939741,-79.82,-82.52
1730020331779101210,1730020331778716087,12,-2.58,-0.87,1.97,13.870948666666669,-80.1,-80.9
1730020331879161427,1730020331878849983,12,-2.58,-0.87,1.97,13.814664333333335,-82.92,-84.75
1730020331976459162,1730020331976107835,12,-2.58,-0.87,1.97,13.764634000000001,-81.04,-82.74
1730020332076557412,1730020332076178550,12,-2.58,-0.87,1.97,13.714603666666667,-82.78,-82.6
1730020332176506239,1730020332176097631,12,-2.58,-0.87,1.97,13.645812,-81.28,-83.51
1730020332276442170,1730020332276111841,12,-2.58,-0.87,1.97,13.564512666666666,-81.75,-81.97
1730020332377743299,1730020332377437353,12,-2.58,-0.87,1.97,13.489467333333332,-81.58,-81.22
1730020332478784724,1730020332478623151,12,-2.58,-0.87,1.97,13.408167666666666,-82.28,-82.39
1730020332576595687,1730020332576093912,12,-2.58,-0.87,1.97,13.339375333333331,-81.72,-81.48
1730020332676441322,1730020332676081418,12,-2.58,-0.87,1.97,13.251821999999999,-81.84,-81.83
1730020332776728859,1730020332776101827,12,-2.58,-0.87,1.97,13.164268666666667,-81.41,-81.31
1730020332878003083,1730020332877704620,12,-2.58,-0.87,1.97,13.064207999999999,-81.04,-81.67
1730020332976682246,1730020332976078510,12,-2.58,-0.87,1.97,12.976654666666667,-80.88,-81.1
1730020333078715633,1730020333078179836,12,-2.58,-0.87,1.97,12.895355333333333,-80.42,-81.24
1730020333176504963,1730020333176078557,12,-2.58,-0.87,1.97,12.820309333333332,-81.18,-81.9
1730020333276491145,1730020333276112318,12,-2.58,-0.87,1.97,12.739009333333334,-80.82,-81.23
1730020333378924209,1730020333378824949,12,-2.58,-0.87,1.97,12.657709666666667,-80.85,-83.01
1730020333478951062,1730020333478668451,12,-2.58,-0.87,1.97,12.563902999999998,-80.69,-81.86
1730020333579713764,1730020333579341411,12,-2.58,-0.87,1.97,12.501365333333332,-80.89,-83.79
1730020333678925895,1730020333678607702,12,-2.58,-0.87,1.97,12.413812,-81.18,-82.21
1730020333778540974,1730020333778070688,12,-2.58,-0.87,1.97,12.338766,-81.1,-83.88
1730020333878481668,1730020333878122568,12,-2.58,-0.87,1.97,12.238704666666669,-80.04,-81.76
1730020333977945046,1730020333977713346,12,-2.58,-0.87,1.97,12.144897333333333,-80.58,-84.5
1730020334078609821,1730020334078234910,12,-2.58,-0.87,1.97,12.038582666666665,-87.12,-87.87
1730020334177748246,1730020334177469015,12,-2.58,-0.87,1.97,11.932268,-85.61,-88.48
1730020334277986690,1730020334277660846,12,-2.58,-0.87,1.97,11.819699666666665,-81.34,-82.32
1730020334378128797,1730020334377828359,12,-2.58,-0.87,1.97,11.738400333333333,-81.45,-85.84
1730020334478958010,1730020334478701591,12,-2.58,-0.87,1.97,11.638339333333333,-82.5,-85.41
1730020334577966026,1730020334577728033,12,-2.58,-0.87,1.97,11.525770666666666,-84.02,-87.33
1730020334679359057,1730020334679033517,12,-2.58,-0.87,1.97,11.413201999999998,-83.6,-88.28
1730020334779769728,1730020334779507398,12,-2.58,-0.87,1.97,11.306887333333334,-84.56,-86.7
1730020334878116417,1730020334877869129,12,-2.58,-0.87,1.97,11.106765666666666,-84.88,-87.83
1730020334978046702,1730020334977800607,12,-2.58,-0.87,1.97,11.037973666666666,-84.2,-85.06
1730020335076547671,1730020335076093673,12,-2.58,-0.87,1.97,10.987942666666667,-84.14,-84.5
1730020335176465377,1730020335175999641,12,-2.58,-0.87,1.97,10.956673666666667,-84.3,-83.81
1730020335276744058,1730020335276085615,12,-2.58,-0.87,1.97,10.862866666666667,-85.99,-87.3
1730020335376677417,1730020335376105546,12,-2.58,-0.87,1.97,10.781567333333333,-84.75,-85.06
1730020335476575090,1730020335476143360,12,-2.58,-0.87,1.97,10.668998666666667,-83.68,-84.38
1730020335576554495,1730020335576118230,12,-2.58,-0.87,1.97,10.593952999999999,-84.86,-87.49
1730020335676576652,1730020335676069974,12,-2.58,-0.87,1.97,10.493892333333333,-84.93,-87.07
1730020335776571090,1730020335776081323,12,-2.58,-0.87,1.97,10.368816333333333,-86.58,-88.49
1730020335876523482,1730020335876090764,12,-2.58,-0.87,1.97,10.218724666666667,-87.06,-93.44
1730020335976497538,1730020335976073503,12,-2.58,-0.87,1.97,10.062379333333334,-86.05,-96.64
1730020336177755453,1730020336177386999,12,-2.58,-0.87,1.97,9.874765000000002,-86.09,-95.45
1730020336278044366,1730020336277602195,12,-2.58,-0.87,1.97,9.737181333333334,-84.82,-90.28
1730020336378037133,1730020336377740383,12,-2.58,-0.87,1.97,9.643374,-86.7,-90.46
1730020336481784173,1730020336478882074,12,-2.58,-0.87,1.97,9.643374,-86.01,-89.03
1730020336578109974,1730020336577753067,12,-2.58,-0.87,1.97,9.630866666666668,-87.04,-88.75
1730020336677993664,1730020336677741527,12,-2.58,-0.87,1.97,9.537059666666666,-91.28,-98.23
1730020336781143838,1730020336780844211,12,-2.58,-0.87,1.97,9.405729666666666,-88.46,-91.33
1730020336876520844,1730020336876113414,12,-2.58,-0.87,1.97,9.268145333333333,-87.9,-90.53
1730020336976626269,1730020336976108789,12,-2.58,-0.87,1.97,9.180591999999999,-85.66,-87.84
1730020337076543502,1730020337076091051,12,-2.58,-0.87,1.97,9.1118,-84.58,-84.85
1730020337176688033,1730020337176138401,12,-2.58,-0.87,1.97,9.030500666666667,-82.58,-85.16
1730020337276688322,1730020337276112556,12,-2.58,-0.87,1.97,8.949201,-82.38,-82.4
1730020337376564881,1730020337376085519,12,-2.58,-0.87,1.97,8.867901666666667,-80.89,-83.64
1730020337476429540,1730020337476090192,12,-2.58,-0.87,1.97,8.79911,-80.42,-81.33
1730020337576592320,1730020337576041221,12,-2.58,-0.87,1.97,8.736572,-80.84,-82.55
1730020337676636486,1730020337676095008,12,-2.58,-0.87,1.97,8.680287666666667,-81.58,-82.2
1730020337776645627,1730020337776093721,12,-2.58,-0.87,1.97,8.592734333333334,-80.98,-81.36
1730020337876519923,1730020337876085519,12,-2.58,-0.87,1.97,8.492673333333334,-80.68,-82.44
1730020337976419072,1730020337976094484,12,-2.58,-0.87,1.97,8.386358666666666,-80.81,-83.81
1730020338076683435,1730020338076144695,12,-2.58,-0.87,1.97,8.292551333333334,-81.9,-85.8
1730020338176527961,1730020338176076650,12,-2.58,-0.87,1.97,8.204998,-79.95,-82.73
1730020338276574411,1730020338276156425,12,-2.58,-0.87,1.97,8.117444666666666,-80.53,-83.48
1730020338376486895,1730020338376124620,12,-2.58,-0.87,1.97,8.036145,-79.47,-80.72
1730020338476487030,1730020338476116418,12,-2.58,-0.87,1.97,7.948591666666666,-80.79,-81.73
1730020338576494797,1730020338576143264,12,-2.58,-0.87,1.97,7.879799666666667,-79.23,-81.55
1730020338676429089,1730020338676102638,12,-2.58,-0.87,1.97,7.823515666666666,-80.38,-81.83
1730020338878934726,1730020338878587245,12,-2.58,-0.87,1.97,7.729708333333334,-79.08,-80.55
1730020338978673524,1730020338978416681,12,-2.58,-0.87,1.97,7.6359010000000005,-79.54,-80.81
1730020339078588548,1730020339078403472,12,-2.58,-0.87,1.97,7.535839666666667,-79.58,-81.22
1730020339178729711,1730020339178424358,12,-2.58,-0.87,1.97,7.473301666666667,-78.82,-80.85
1730020339277610580,1730020339277372121,12,-2.58,-0.87,1.97,7.385748333333333,-79.73,-81.07
1730020339377784786,1730020339377468824,12,-2.58,-0.87,1.97,7.316956666666667,-79.29,-80.97
1730020339479837654,1730020339479560136,12,-2.58,-0.87,1.97,7.254418333333334,-79.52,-80.66
1730020339579548525,1730020339579283714,12,-2.58,-0.87,1.97,7.191880333333334,-79.01,-80.71
1730020339679718321,1730020339679440021,12,-2.58,-0.87,1.97,7.116834333333333,-79.73,-80.96
1730020339780062623,1730020339779866933,12,-2.58,-0.87,1.97,7.060550333333334,-79.43,-80.46
1730020339879599084,1730020339879508495,12,-2.58,-0.87,1.97,7.01052,-80.63,-81.29
1730020339979725358,1730020339979449510,12,-2.58,-0.87,1.97,6.941728333333334,-78.98,-80.44
1730020340079965516,1730020340079672336,12,-2.58,-0.87,1.97,6.885444,-80.59,-81.33
1730020340180465641,1730020340180134296,12,-2.58,-0.87,1.97,6.8291596666666665,-79.37,-81.02
1730020340279026771,1730020340278632164,12,-2.58,-0.87,1.97,6.785383,-79.29,-80.8
1730020340378910717,1730020340378583908,12,-2.58,-0.87,1.97,6.7228449999999995,-78.92,-80.78
1730020340480050748,1730020340479743480,12,-2.58,-0.87,1.97,6.679068333333333,-79.44,-81.22
1730020340578768443,1730020340578534603,12,-2.58,-0.87,1.97,6.641545666666667,-78.69,-80.53
1730020340678795222,1730020340678624153,12,-2.58,-0.87,1.97,6.604022666666666,-78.73,-80.87
1730020340779023053,1730020340778733968,12,-2.58,-0.87,1.97,6.541484333333334,-78.94,-80.56
1730020340878932684,1730020340878751993,12,-2.58,-0.87,1.97,6.4789460000000005,-78.49,-80.84
1730020340978151534,1730020340977809667,12,-2.58,-0.87,1.97,6.4351693333333335,-79.64,-80.58
1730020341077967639,1730020341077697992,12,-2.58,-0.87,1.97,6.397646666666667,-79.85,-81.07
1730020341177810527,1730020341177598714,12,-2.58,-0.87,1.97,6.3726313333333335,-79.82,-80.85
1730020341278013683,1730020341277695178,12,-2.58,-0.87,1.97,6.322601,-78.82,-80.79
1730020341378142505,1730020341377962350,12,-2.58,-0.87,1.97,6.285078000000001,-79.3,-80.98
1730020341478043790,1730020341477754831,12,-2.58,-0.87,1.97,6.2350476666666665,-78.69,-80.72
1730020341577810539,1730020341577688694,12,-2.58,-0.87,1.97,6.2225399999999995,-79.17,-80.95
1730020341677964607,1730020341677717924,12,-2.58,-0.87,1.97,6.191271,-79.64,-81.22
1730020341778184523,1730020341777820587,12,-2.58,-0.87,1.97,6.153748,-78.87,-80.69
1730020341877913431,1730020341877577304,12,-2.58,-0.87,1.97,6.134986666666666,-79.54,-81.15
1730020341979487577,1730020341979177713,12,-2.58,-0.87,1.97,6.1162253333333325,-78.57,-80.55
1730020342077520780,1730020342077358245,12,-2.58,-0.87,1.97,6.103718000000001,-79.19,-80.63
1730020342179497266,1730020342179229974,12,-2.58,-0.87,1.97,6.0787026666666675,-78.77,-80.48
1730020342279023335,1730020342278926610,12,-2.58,-0.87,1.97,6.1162253333333325,-79.02,-80.59
1730020342378865126,1730020342378584146,12,-2.58,-0.87,1.97,6.172509333333333,-79.39,-81.05
1730020342479232326,1730020342478906631,12,-2.58,-0.87,1.97,6.266316333333333,-79.85,-81.04
1730020342678128671,1730020342677717924,12,-2.58,-0.87,1.97,6.366377666666666,-78.73,-80.53
1730020342778131720,1730020342777652978,12,-2.58,-0.87,1.97,6.416408333333333,-79.2,-80.62
1730020342878210764,1730020342878049135,12,-2.58,-0.87,1.97,6.491454,-79.52,-80.93
1730020342977883650,1730020342977541685,12,-2.58,-0.87,1.97,6.553992,-79.26,-80.67
1730020343077753247,1730020343077569961,12,-2.58,-0.87,1.97,6.629037666666666,-79.69,-81.3
1730020343177975418,1730020343177537441,12,-2.58,-0.87,1.97,6.679068333333333,-78.96,-80.5
1730020343277996297,1730020343277542352,12,-2.58,-0.87,1.97,6.7666216666666665,-79.58,-80.92
1730020343378987219,1730020343378806591,12,-2.58,-0.87,1.97,6.810398333333333,-79.33,-80.82
1730020343478460770,1730020343478261709,12,-2.58,-0.87,1.97,6.872936333333333,-79.51,-80.99
1730020343576402918,1730020343576082944,12,-2.58,-0.87,1.97,6.916712999999999,-78.87,-80.46
1730020343676479429,1730020343676105260,12,-2.58,-0.87,1.97,7.004266333333334,-80.07,-81.47
1730020343776420979,1730020343776088476,12,-2.58,-0.87,1.97,7.054296666666666,-78.54,-80.78
1730020343876417384,1730020343876088380,12,-2.58,-0.87,1.97,7.110581,-78.91,-80.62
1730020343976484728,1730020343976112365,12,-2.58,-0.87,1.97,7.160611666666667,-79.44,-80.82
1730020344576409861,1730020344576087713,12,-2.58,-0.87,1.97,7.629646999999999,-79.8,-81.21
1730020344676557579,1730020344676108121,12,-2.58,-0.87,1.97,7.685931333333333,-79.55,-80.79
1730020344776527189,1730020344776146650,12,-2.58,-0.87,1.97,7.779738333333333,-79.79,-80.97
1730020344879822977,1730020344879580736,12,-2.58,-0.87,1.97,7.8547839999999995,-80.62,-83.62
1730020344978798321,1730020344978626728,12,-2.58,-0.87,1.97,7.961099,-78.97,-81.66
1730020345078696211,1730020345078456640,12,-2.58,-0.87,1.97,8.036145,-78.1,-80.43
1730020345178594985,1730020345178390979,12,-2.58,-0.87,1.97,8.154967666666666,-79.98,-81.06
1730020345278715306,1730020345278425931,12,-2.58,-0.87,1.97,8.242520999999998,-79.42,-80.83
1730020345379482082,1730020345379401206,12,-2.58,-0.87,1.97,8.330074333333334,-78.83,-80.69
1730020345480307779,1730020345480075120,12,-2.58,-0.87,1.97,8.373851,-79.25,-80.37
1730020345579391181,1730020345579241752,12,-2.58,-0.87,1.97,8.448896666666668,-79.03,-80.54
1730020345678831899,1730020345678591012,12,-2.58,-0.87,1.97,8.53645,-79.53,-81.11
1730020345778607602,1730020345778306484,12,-2.58,-0.87,1.97,8.611495666666668,-79.58,-80.65
1730020345878697460,1730020345878500461,12,-2.58,-0.87,1.97,8.705303,-79.47,-83.07
1730020345977662795,1730020345977428436,12,-2.58,-0.87,1.97,8.786602666666667,-79.32,-82.02
1730020346077896169,1730020346077576160,12,-2.58,-0.87,1.97,8.892917333333335,-78.83,-81.53
1730020346178121740,1730020346177738666,12,-2.58,-0.87,1.97,8.967962666666667,-78.73,-81.08
1730020346277865536,1730020346277677774,12,-2.58,-0.87,1.97,9.086785,-79.2,-81.69
1730020346377926392,1730020346377726793,12,-2.58,-0.87,1.97,9.168084666666667,-79.06,-80.92
1730020346478066078,1730020346477633953,12,-2.58,-0.87,1.97,9.261892,-79.33,-80.79
1730020346578030987,1730020346577714443,12,-2.58,-0.87,1.97,9.336937666666666,-79.31,-80.73
1730020346678005599,1730020346677772521,12,-2.58,-0.87,1.97,9.430744666666666,-79.42,-80.81
1730020346778106151,1730020346777613639,12,-2.58,-0.87,1.97,9.512044000000001,-79.73,-81.01
1730020346878053362,1730020346877697944,12,-2.58,-0.87,1.97,9.587089666666666,-79.8,-81.17
1730020346977812392,1730020346977687835,12,-2.58,-0.87,1.97,9.662135333333334,-80.6,-83.28
1730020347078939640,1730020347078712224,12,-2.58,-0.87,1.97,9.762196666666668,-80.18,-82.67
1730020347177876171,1730020347177528858,12,-2.58,-0.87,1.97,9.881019,-79.78,-82.06
1730020347277971434,1730020347277641057,12,-2.58,-0.87,1.97,10.012349333333333,-82.24,-82.93
1730020347378390408,1730020347378086805,12,-2.58,-0.87,1.97,10.112409999999999,-79.33,-80.98
1730020347478093786,1730020347477826595,12,-2.58,-0.87,1.97,10.187455666666667,-79.42,-80.66
1730020347578631504,1730020347578544378,12,-2.58,-0.87,1.97,10.268755,-79.46,-80.77
1730020347776459762,1730020347776085615,12,-2.58,-0.87,1.97,10.418846333333335,-79.24,-80.6
1730020347876646644,1730020347876098155,12,-2.58,-0.87,1.97,10.568938000000001,-80.44,-81.25
1730020347980129977,1730020347979748725,12,-2.58,-0.87,1.97,10.706521666666667,-80.9,-81.62
1730020348080021399,1730020348079614877,12,-2.58,-0.87,1.97,10.800329,-80.54,-81.24
1730020348180268693,1730020348179958581,12,-2.58,-0.87,1.97,10.900389666666667,-80.58,-81.63
1730020348278538494,1730020348278289318,12,-2.58,-0.87,1.97,10.994197,-80.96,-83.32
1730020348376564637,1730020348376117944,12,-2.58,-0.87,1.97,11.088003999999998,-81.89,-84.02
1730020348476569454,1730020348476150512,12,-2.58,-0.87,1.97,11.150542,-82.04,-85.02
1730020348576548878,1730020348576070070,12,-2.58,-0.87,1.97,11.250602666666666,-83.32,-86.37
1730020348676580731,1730020348676098346,12,-2.58,-0.87,1.97,11.356917666666668,-82.02,-83.72
1730020348776815856,1730020348776135206,12,-2.58,-0.87,1.97,11.507009333333334,-82.64,-84.3
1730020348876500966,1730020348876105785,12,-2.58,-0.87,1.97,11.619577999999999,-80.58,-81.4
1730020348976599365,1730020348976083517,12,-2.58,-0.87,1.97,11.738400333333333,-81.4,-81.66
1730020349076584390,1730020349076086759,12,-2.58,-0.87,1.97,11.832207666666667,-80.58,-80.98
1730020349176529913,1730020349176071166,12,-2.58,-0.87,1.97,11.944776,-82.33,-82.6
1730020349278186038,1730020349277768373,12,-2.58,-0.87,1.97,12.026075333333333,-80.49,-80.96
1730020349876779035,1730020349876080274,12,-2.58,-0.87,1.97,12.551395333333334,-89.56,-90.33
1730020349976562099,1730020349976079463,12,-2.58,-0.87,1.97,12.713994666666666,-83.11,-86.97
1730020350077340015,1730020350076122283,12,-2.58,-0.87,1.97,12.864086,-82.82,-85.68
1730020350178127300,1730020350177903413,12,-2.58,-0.87,1.97,12.939131333333334,-84.43,-90.06
1730020350278505592,1730020350278095960,12,-2.58,-0.87,1.97,13.020430666666668,-90.16,-94.68
1730020350380311708,1730020350379964351,12,-2.58,-0.87,1.97,13.114238,-82.11,-84.51
1730020350480961164,1730020350480770111,12,-2.58,-0.87,1.97,13.245568333333333,-81.64,-83.19
1730020350580600190,1730020350580489158,12,-2.58,-0.87,1.97,13.389406,-81.2,-82.85
1730020350676539910,1730020350676111221,12,-2.58,-0.87,1.97,13.552005,-81.28,-83.11
1730020350777994591,1730020350777723550,12,-2.58,-0.87,1.97,13.658319666666666,-80.43,-82.22
1730020350876498986,1730020350876074314,12,-2.58,-0.87,1.97,13.758380666666667,-81.03,-81.38
1730020350976588582,1730020350976078510,12,-2.58,-0.87,1.97,13.814665,-80.74,-81.52
1730020351076285032,1730020351076080799,12,-2.58,-0.87,1.97,13.933487333333332,-80.76,-81.07
1730020351176502155,1730020351176214218,12,-2.58,-0.87,1.97,14.027294333333332,-80.75,-81.28
1730020351276775083,1730020351276088476,12,-2.58,-0.87,1.97,14.139862666666666,-80.88,-81.58
1730020351376902070,1730020351376093149,12,-2.58,-0.87,1.97,14.239923333333332,-81.04,-81.48
1730020351479726731,1730020351479462385,12,-2.58,-0.87,1.97,14.364999666666668,-82.22,-82.44
1730020351579081207,1730020351578808307,12,-2.58,-0.87,1.97,14.490076000000002,-82.37,-84.57
1730020351678403838,1730020351678305387,12,-2.58,-0.87,1.97,14.608898666666668,-84.12,-85.75
1730020351779258597,1730020351779023885,12,-2.58,-0.87,1.97,14.715213333333333,-83.07,-85.86
1730020351878827922,1730020351878591775,12,-2.58,-0.87,1.97,14.834035666666667,-84.84,-86.4
1730020351978654687,1730020351978426933,12,-2.58,-0.87,1.97,14.934096666666667,-84.78,-84.72
1730020352079022088,1730020352078745365,12,-2.58,-0.87,1.97,15.034157666666665,-85.85,-86.05
1730020352179129345,1730020352178685903,12,-2.58,-0.87,1.97,15.121711,-85.3,-89.18
1730020352279511981,1730020352279085636,12,-2.58,-0.87,1.97,15.203010333333333,-88.45,-90.29
1730020352379189580,1730020352378994226,12,-2.58,-0.87,1.97,15.315579,-86.22,-87.67
1730020352479785542,1730020352479475498,12,-2.58,-0.87,1.97,15.384371,-85.35,-96.52
1730020352579072062,1730020352578772783,12,-2.58,-0.87,1.97,15.453162999999998,-84.91,-94.74
1730020352678831285,1730020352678561449,12,-2.58,-0.87,1.97,15.509447333333334,-92.04,-96.05
1730020352779362665,1730020352779011726,12,-2.58,-0.87,1.97,15.609508333333332,-89.85,-93.61
1730020352878390181,1730020352878240823,12,-2.58,-0.87,1.97,15.753346,-90.36,-90.71
1730020352978958226,1730020352978681325,12,-2.58,-0.87,1.97,15.822137666666668,-85.56,-87.96
1730020353079195859,1730020353078875064,12,-2.58,-0.87,1.97,15.890929333333332,-83.73,-85.53
1730020353178957541,1730020353178723573,12,-2.58,-0.87,1.97,15.903437000000002,-82.39,-84.71
1730020353280603500,1730020353279355287,12,-2.58,-0.87,1.97,15.940960000000002,-82.05,-83.96
1730020353378818229,1730020353378504037,12,-2.58,-0.87,1.97,15.940959999999999,-82.17,-84.83
1730020353480470737,1730020353480272054,12,-2.58,-0.87,1.97,15.965974666666668,-82.06,-85.41
1730020353579788018,1730020353579525947,12,-2.58,-0.87,1.97,15.997243666666668,-81.24,-83.99
1730020353679584496,1730020353679435491,12,-2.58,-0.87,1.97,16.009751333333334,-80.86,-82.35
1730020353779857860,1730020353779743909,12,-2.58,-0.87,1.97,16.003498,-80.5,-81.85
1730020353879561675,1730020353879449129,12,-2.58,-0.87,1.97,15.990990333333334,-85.28,-85.15
1730020353979599939,1730020353979274034,12,-2.58,-0.87,1.97,15.978482666666666,-80.3,-81.2
1730020354079676620,1730020354079434633,12,-2.58,-0.87,1.97,15.947213666666668,-79.76,-80.84
1730020354179547703,1730020354179365396,12,-2.58,-0.87,1.97,15.909691,-79.34,-80.78
1730020354280602788,1730020354280329227,12,-2.58,-0.87,1.97,15.909691,-80.61,-81.35
1730020354379685254,1730020354379432916,12,-2.58,-0.87,1.97,15.922198666666667,-87.25,-86.95
1730020354479755112,1730020354479511737,12,-2.58,-0.87,1.97,15.922198666666668,-79.45,-80.79
1730020354579576996,1730020354579286813,12,-2.58,-0.87,1.97,15.922198666666667,-80.71,-82.05
1730020354679872980,1730020354679662942,12,-2.58,-0.87,1.97,15.884675666666666,-80.54,-81.73
1730020354779427215,1730020354779206037,12,-2.58,-0.87,1.97,15.865914000000002,-84.26,-85.37
1730020354879546225,1730020354879472017,12,-2.58,-0.87,1.97,15.828391333333334,-82.03,-82.87
1730020354979495303,1730020354979409694,12,-2.58,-0.87,1.97,15.828391333333334,-82.33,-84.41
1730020355079391044,1730020355079231023,12,-2.58,-0.87,1.97,15.803376,-81.65,-83.42
1730020355277655441,1730020355277543306,12,-2.58,-0.87,1.97,4.096245,-87.41,-101.09
1730020355476539586,1730020355476158857,12,-2.58,-0.87,1.97,4.021199333333333,-82.74,-84.44
1730020355677739765,1730020355677446126,12,-2.58,-0.87,1.97,3.9336459999999995,-82.08,-83.67
1730020355778043557,1730020355777726888,12,-2.58,-0.87,1.97,15.521954666666666,-82.51,-84.72
1730020355878319975,1730020355878050088,12,-2.58,-0.87,1.97,15.446909,-82.45,-85.18
1730020355978768605,1730020355978584289,12,-2.58,-0.87,1.97,15.403132666666666,-83.62,-85.98
1730020356078759541,1730020356078560590,12,-2.58,-0.87,1.97,15.346848333333332,-82.03,-85.5
1730020356181031433,1730020356180750131,12,-2.58,-0.87,1.97,15.303071666666668,-82.46,-82.92
1730020356278396594,1730020356277864694,12,-2.58,-0.87,1.97,15.228026,-82.05,-82.59
1730020356378574934,1730020356377995252,12,-2.58,-0.87,1.97,15.171741666666668,-81.58,-83.48
1730020356477952970,1730020356477657079,12,-2.58,-0.87,1.97,15.121711333333332,-81.44,-84.9
1730020356576882670,1730020356576156616,12,-2.58,-0.87,1.97,15.090442333333334,-84.14,-83.85
1730020356676599488,1730020356676090717,12,-2.58,-0.87,1.97,15.034158,-81.48,-82.47
1730020356777021046,1730020356776159048,12,-2.58,-0.87,1.97,14.959112333333332,-82.19,-84.43
1730020356876824817,1730020356876078605,12,-2.58,-0.87,1.97,14.877812333333333,-81.64,-81.49
1730020356976446087,1730020356976071596,12,-2.58,-0.87,1.97,14.809020333333335,-80.58,-81.24
1730020357076609614,1730020357076090812,12,-2.58,-0.87,1.97,14.740228333333333,-81.57,-81.89
1730020357180335371,1730020357179894924,12,-2.58,-0.87,1.97,14.677690666666665,-82.81,-84.44
1730020357281278074,1730020357280909776,12,-2.58,-0.87,1.97,14.602645333333333,-80.81,-81.76
1730020357379992188,1730020357379688262,12,-2.58,-0.87,1.97,14.521345666666667,-80.44,-81.86
1730020357480473578,1730020357480149507,12,-2.58,-0.87,1.97,14.421284666666667,-81.04,-81.2
1730020357579686400,1730020357579527616,12,-2.58,-0.87,1.97,14.339985,-81.13,-81.11
1730020357680477824,1730020357680165052,12,-2.58,-0.87,1.97,14.252431666666666,-80.37,-80.87
1730020357780209433,1730020357780031919,12,-2.58,-0.87,1.97,14.177386,-80.74,-82.01
1730020357880098008,1730020357879894495,12,-2.58,-0.87,1.97,14.10234,-80.86,-80.87
1730020357980192363,1730020357979891300,12,-2.58,-0.87,1.97,13.927233333333334,-80.96,-81.17
1730020358080086427,1730020358079871654,12,-2.58,-0.87,1.97,13.833426333333334,-81.51,-81.64
1730020358180133491,1730020358179599523,12,-2.58,-0.87,1.97,13.745872999999998,-80.98,-81.47
