%time,field.header.seq,field.header.stamp,field.header.frame_id,field.status.status,field.status.service,field.latitude,field.longitude,field.altitude,field.position_covariance0,field.position_covariance1,field.position_covariance2,field.position_covariance3,field.position_covariance4,field.position_covariance5,field.position_covariance6,field.position_covariance7,field.position_covariance8,field.position_covariance_type
1730020288363210436,8675,1730020288249971189,gps,2,0,37.5551404,127.04545549999999,50.04,0.00019600000000000002,0.0,0.0,0.0,0.00019600000000000002,0.0,0.0,0.0,0.00028900000000000003,2
1730020288456114384,8676,1730020288374971191,gps,2,0,37.5551403,127.0454556,50.063,0.00019600000000000002,0.0,0.0,0.0,0.00019600000000000002,0.0,0.0,0.0,0.00032399999999999996,2
1730020288578143453,8677,1730020288499971193,gps,2,0,37.5551403,127.0454556,50.064,0.00019600000000000002,0.0,0.0,0.0,0.00019600000000000002,0.0,0.0,0.0,0.000361,2
1730020288706014025,8678,1730020288624971195,gps,2,0,37.5551403,127.04545549999999,50.055,0.00019600000000000002,0.0,0.0,0.0,0.00019600000000000002,0.0,0.0,0.0,0.000361,2
1730020288825976424,8679,1730020288749971197,gps,2,0,37.5551404,127.04545549999999,50.043,0.00019600000000000002,0.0,0.0,0.0,0.00019600000000000002,0.0,0.0,0.0,0.0004,2
1730020288953187292,8680,1730020288874971199,gps,2,0,37.5551404,127.04545549999999,50.047000000000004,0.00019600000000000002,0.0,0.0,0.0,0.00019600000000000002,0.0,0.0,0.0,0.00044100000000000004,2
1730020289077357681,8681,1730020288999971202,gps,2,0,37.5551404,127.04545549999999,50.046,0.00019600000000000002,0.0,0.0,0.0,0.00019600000000000002,0.0,0.0,0.0,0.000529,2
1730020289203739300,8682,1730020289124971204,gps,2,0,37.5551404,127.04545549999999,50.04,0.00019600000000000002,0.0,0.0,0.0,0.00019600000000000002,0.0,0.0,0.0,0.0004,2
1730020289332391341,8683,1730020289249971206,gps,2,0,37.5551404,127.04545549999999,50.039,0.00019600000000000002,0.0,0.0,0.0,0.00019600000000000002,0.0,0.0,0.0,0.000529,2
1730020289455790562,8684,1730020289374971208,gps,2,0,37.5551404,127.04545549999999,50.050000000000004,0.00019600000000000002,0.0,0.0,0.0,0.00019600000000000002,0.0,0.0,0.0,0.000529,2
1730020289584085883,8685,1730020289499971210,gps,2,0,37.5551404,127.04545549999999,50.049,0.00019600000000000002,0.0,0.0,0.0,0.00019600000000000002,0.0,0.0,0.0,0.000576,2
1730020289703222068,8686,1730020289624971212,gps,2,0,37.5551404,127.04545549999999,50.049,0.00019600000000000002,0.0,0.0,0.0,0.00019600000000000002,0.0,0.0,0.0,0.0006250000000000001,2
1730020289827796478,8687,1730020289749971214,gps,2,0,37.5551404,127.04545549999999,50.049,0.00019600000000000002,0.0,0.0,0.0,0.00019600000000000002,0.0,0.0,0.0,0.000576,2
1730020289953053669,8688,1730020289874971216,gps,2,0,37.5551404,127.04545549999999,50.048,0.00019600000000000002,0.0,0.0,0.0,0.00019600000000000002,0.0,0.0,0.0,0.000576,2
1730020290085088206,8689,1730020289999971219,gps,2,0,37.5551404,127.0454556,50.058,0.00019600000000000002,0.0,0.0,0.0,0.00019600000000000002,0.0,0.0,0.0,0.000576,2
1730020290205413830,8690,1730020290124971220,gps,2,0,37.5551404,127.0454556,50.056000000000004,0.00019600000000000002,0.0,0.0,0.0,0.00019600000000000002,0.0,0.0,0.0,0.000576,2
1730020290329846444,8691,1730020290249971222,gps,2,0,37.5551404,127.04545549999999,50.057,0.00019600000000000002,0.0,0.0,0.0,0.00019600000000000002,0.0,0.0,0.0,0.000576,2
1730020290461271525,8692,1730020290374971224,gps,2,0,37.5551404,127.04545549999999,50.048,0.00019600000000000002,0.0,0.0,0.0,0.00019600000000000002,0.0,0.0,0.0,0.000576,2
1730020290578669386,8693,1730020290499971226,gps,2,0,37.5551404,127.04545549999999,50.058,0.00019600000000000002,0.0,0.0,0.0,0.00019600000000000002,0.0,0.0,0.0,0.000529,2
1730020290704996402,8694,1730020290624971229,gps,2,0,37.5551404,127.04545549999999,50.056000000000004,0.00019600000000000002,0.0,0.0,0.0,0.00019600000000000002,0.0,0.0,0.0,0.0004,2
1730020290830038966,8695,1730020290749971231,gps,2,0,37.5551404,127.04545549999999,50.051,0.00019600000000000002,0.0,0.0,0.0,0.00019600000000000002,0.0,0.0,0.0,0.00032399999999999996,2
1730020290953134646,8696,1730020290874971233,gps,2,0,37.5551403,127.04545549999999,50.051,0.00019600000000000002,0.0,0.0,0.0,0.00019600000000000002,0.0,0.0,0.0,0.00032399999999999996,2
1730020291084112609,8697,1730020290999971236,gps,2,0,37.5551404,127.04545549999999,50.047000000000004,0.00019600000000000002,0.0,0.0,0.0,0.00019600000000000002,0.0,0.0,0.0,0.00028900000000000003,2
1730020291204178399,8698,1730020291124971237,gps,2,0,37.5551404,127.04545549999999,50.054,0.00019600000000000002,0.0,0.0,0.0,0.00019600000000000002,0.0,0.0,0.0,0.000256,2
1730020291336278161,8699,1730020291249971239,gps,2,0,37.5551404,127.0454554,50.041000000000004,0.00019600000000000002,0.0,0.0,0.0,0.00019600000000000002,0.0,0.0,0.0,0.000225,2
1730020291455209591,8700,1730020291374971241,gps,2,0,37.5551404,127.0454554,50.039,0.00019600000000000002,0.0,0.0,0.0,0.00019600000000000002,0.0,0.0,0.0,0.00019600000000000002,2
1730020291579416355,8701,1730020291499971243,gps,2,0,37.5551404,127.0454554,50.031,0.00019600000000000002,0.0,0.0,0.0,0.00019600000000000002,0.0,0.0,0.0,0.000225,2
1730020291706307164,8702,1730020291624971245,gps,2,0,37.5551405,127.0454554,50.025,0.00019600000000000002,0.0,0.0,0.0,0.00019600000000000002,0.0,0.0,0.0,0.000225,2
1730020291823937259,8703,1730020291749971247,gps,2,0,37.5551405,127.0454554,50.02,0.00019600000000000002,0.0,0.0,0.0,0.00019600000000000002,0.0,0.0,0.0,0.00019600000000000002,2
1730020291955019062,8704,1730020291874971249,gps,2,0,37.5551405,127.0454554,50.021,0.00019600000000000002,0.0,0.0,0.0,0.00019600000000000002,0.0,0.0,0.0,0.000169,2
1730020292082023747,8705,1730020291999971253,gps,2,0,37.5551405,127.0454553,50.024,0.00019600000000000002,0.0,0.0,0.0,0.00019600000000000002,0.0,0.0,0.0,0.00019600000000000002,2
1730020292209260553,8706,1730020292124971254,gps,2,0,37.5551404,127.0454554,50.03,0.00019600000000000002,0.0,0.0,0.0,0.00019600000000000002,0.0,0.0,0.0,0.000169,2
1730020292335764083,8707,1730020292249971256,gps,2,0,37.5551404,127.04545549999999,50.03,0.00019600000000000002,0.0,0.0,0.0,0.00019600000000000002,0.0,0.0,0.0,0.000144,2
1730020292457534156,8708,1730020292374971258,gps,2,0,37.5551404,127.0454558,50.035000000000004,0.00019600000000000002,0.0,0.0,0.0,0.00019600000000000002,0.0,0.0,0.0,0.000144,2
1730020292580165546,8709,1730020292499971260,gps,2,0,37.5551403,127.0454561,50.028,0.00019600000000000002,0.0,0.0,0.0,0.00019600000000000002,0.0,0.0,0.0,0.0001,2
1730020292700080165,8710,1730020292624971262,gps,2,0,37.5551402,127.04545639999999,50.028,0.00019600000000000002,0.0,0.0,0.0,0.00019600000000000002,0.0,0.0,0.0,0.0001,2
1730020292831266606,8711,1730020292749971264,gps,2,0,37.55514,127.04545669999999,50.029,0.00019600000000000002,0.0,0.0,0.0,0.00019600000000000002,0.0,0.0,0.0,0.00012099999999999999,2
1730020292956008085,8712,1730020292874971266,gps,2,0,37.5551399,127.0454572,50.03,0.00019600000000000002,0.0,0.0,0.0,0.00019600000000000002,0.0,0.0,0.0,0.0001,2
1730020293086275339,8713,1730020292999971269,gps,2,0,37.5551398,127.0454578,50.026,0.00019600000000000002,0.0,0.0,0.0,0.00019600000000000002,0.0,0.0,0.0,0.00012099999999999999,2
1730020293209062901,8714,1730020293124971270,gps,2,0,37.5551396,127.04545829999999,50.019,0.00019600000000000002,0.0,0.0,0.0,0.00019600000000000002,0.0,0.0,0.0,0.000144,2
1730020293338544627,8715,1730020293249971272,gps,2,0,37.5551394,127.0454589,50.03,0.00019600000000000002,0.0,0.0,0.0,0.00019600000000000002,0.0,0.0,0.0,0.00019600000000000002,2
1730020293458060655,8716,1730020293374971274,gps,2,0,37.5551393,127.0454596,50.011,0.00019600000000000002,0.0,0.0,0.0,0.00019600000000000002,0.0,0.0,0.0,0.00019600000000000002,2
1730020293576043455,8717,1730020293499971276,gps,2,0,37.5551392,127.04546029999999,50.004,0.00019600000000000002,0.0,0.0,0.0,0.00019600000000000002,0.0,0.0,0.0,0.000169,2
1730020293707231891,8718,1730020293624971278,gps,2,0,37.555138899999996,127.0454611,50.001,0.00019600000000000002,0.0,0.0,0.0,0.00019600000000000002,0.0,0.0,0.0,0.00012099999999999999,2
1730020293836387425,8719,1730020293749971281,gps,2,0,37.5551388,127.04546189999999,49.989000000000004,0.00019600000000000002,0.0,0.0,0.0,0.00019600000000000002,0.0,0.0,0.0,0.00012099999999999999,2
1730020293961449351,8720,1730020293874971283,gps,2,0,37.5551386,127.04546269999999,49.993,0.00019600000000000002,0.0,0.0,0.0,0.00019600000000000002,0.0,0.0,0.0,0.000144,2
1730020294091266130,8721,1730020293999971286,gps,2,0,37.555138299999996,127.04546359999999,49.993,0.00019600000000000002,0.0,0.0,0.0,0.00019600000000000002,0.0,0.0,0.0,0.00012099999999999999,2
1730020294207325152,8722,1730020294124971287,gps,2,0,37.5551381,127.0454645,49.992000000000004,0.00019600000000000002,0.0,0.0,0.0,0.00019600000000000002,0.0,0.0,0.0,0.000144,2
1730020294335428219,8723,1730020294249971289,gps,2,0,37.5551378,127.0454654,49.996,0.00019600000000000002,0.0,0.0,0.0,0.00019600000000000002,0.0,0.0,0.0,0.000144,2
1730020294456328248,8724,1730020294374971291,gps,2,0,37.5551375,127.04546649999999,50.009,0.00019600000000000002,0.0,0.0,0.0,0.00019600000000000002,0.0,0.0,0.0,0.000169,2
1730020294581076266,8725,1730020294499971293,gps,2,0,37.5551372,127.04546739999999,50.007,0.00019600000000000002,0.0,0.0,0.0,0.00019600000000000002,0.0,0.0,0.0,0.000144,2
1730020294708159349,8726,1730020294624971295,gps,2,0,37.555136999999995,127.04546839999999,50.007,0.00019600000000000002,0.0,0.0,0.0,0.00019600000000000002,0.0,0.0,0.0,0.000144,2
1730020294830906522,8727,1730020294749971297,gps,2,0,37.5551367,127.0454695,50.013,0.00019600000000000002,0.0,0.0,0.0,0.00019600000000000002,0.0,0.0,0.0,0.000144,2
1730020294956296723,8728,1730020294874971299,gps,2,0,37.555136399999995,127.0454705,50.001,0.00019600000000000002,0.0,0.0,0.0,0.00019600000000000002,0.0,0.0,0.0,0.000144,2
1730020295084483949,8729,1730020294999971302,gps,2,0,37.5551361,127.0454716,49.983000000000004,0.00019600000000000002,0.0,0.0,0.0,0.00019600000000000002,0.0,0.0,0.0,0.00019600000000000002,2
1730020295207301337,8730,1730020295124971303,gps,2,0,37.555135799999995,127.04547269999999,49.995000000000005,0.00019600000000000002,0.0,0.0,0.0,0.00019600000000000002,0.0,0.0,0.0,0.000256,2
1730020295339523477,8731,1730020295249971305,gps,2,0,37.5551355,127.04547389999999,50.014,0.00019600000000000002,0.0,0.0,0.0,0.00019600000000000002,0.0,0.0,0.0,0.000225,2
1730020295455354529,8732,1730020295374971308,gps,2,0,37.5551351,127.045475,50.011,0.00019600000000000002,0.0,0.0,0.0,0.00019600000000000002,0.0,0.0,0.0,0.000225,2
1730020295579937252,8733,1730020295499971310,gps,2,0,37.5551349,127.04547609999999,49.99,0.00019600000000000002,0.0,0.0,0.0,0.00019600000000000002,0.0,0.0,0.0,0.000169,2
1730020295705248848,8734,1730020295624971312,gps,2,0,37.555134599999995,127.04547729999999,49.980000000000004,0.00019600000000000002,0.0,0.0,0.0,0.00019600000000000002,0.0,0.0,0.0,0.000169,2
1730020295833340315,8735,1730020295749971314,gps,2,0,37.5551343,127.0454784,49.988,0.00019600000000000002,0.0,0.0,0.0,0.00019600000000000002,0.0,0.0,0.0,0.000169,2
1730020295958625548,8736,1730020295874971316,gps,2,0,37.555133999999995,127.0454797,49.987,0.00019600000000000002,0.0,0.0,0.0,0.00019600000000000002,0.0,0.0,0.0,0.000144,2
1730020296089330296,8737,1730020295999971319,gps,2,0,37.5551337,127.0454809,49.976,0.00019600000000000002,0.0,0.0,0.0,0.00019600000000000002,0.0,0.0,0.0,0.000144,2
1730020296209327902,8738,1730020296124971320,gps,2,0,37.555133399999995,127.0454821,49.977000000000004,0.00019600000000000002,0.0,0.0,0.0,0.00019600000000000002,0.0,0.0,0.0,0.000169,2
1730020296325320264,8739,1730020296249971322,gps,2,0,37.555133,127.0454833,49.977000000000004,0.00019600000000000002,0.0,0.0,0.0,0.00019600000000000002,0.0,0.0,0.0,0.000144,2
1730020296455716279,8740,1730020296374971324,gps,2,0,37.5551327,127.0454845,49.978,0.00019600000000000002,0.0,0.0,0.0,0.00019600000000000002,0.0,0.0,0.0,0.000144,2
1730020296578722244,8741,1730020296499971326,gps,2,0,37.5551324,127.04548589999999,49.991,0.00019600000000000002,0.0,0.0,0.0,0.00019600000000000002,0.0,0.0,0.0,0.000169,2
1730020296705355127,8742,1730020296624971328,gps,2,0,37.555132,127.0454872,49.982,0.00019600000000000002,0.0,0.0,0.0,0.00019600000000000002,0.0,0.0,0.0,0.000144,2
1730020296830136115,8743,1730020296749971330,gps,2,0,37.5551317,127.04548849999999,49.985,0.00019600000000000002,0.0,0.0,0.0,0.00019600000000000002,0.0,0.0,0.0,0.000144,2
1730020296956096976,8744,1730020296874971332,gps,2,0,37.5551313,127.04548989999999,49.984,0.00019600000000000002,0.0,0.0,0.0,0.00019600000000000002,0.0,0.0,0.0,0.000144,2
1730020297085220247,8745,1730020296999971335,gps,2,0,37.555130999999996,127.0454912,50.001,0.00019600000000000002,0.0,0.0,0.0,0.00019600000000000002,0.0,0.0,0.0,0.00012099999999999999,2
1730020297198909104,8746,1730020297124971336,gps,2,0,37.5551306,127.0454925,49.987,0.00019600000000000002,0.0,0.0,0.0,0.00019600000000000002,0.0,0.0,0.0,0.00012099999999999999,2
1730020297329909239,8747,1730020297249971338,gps,2,0,37.5551302,127.04549379999999,49.997,0.00019600000000000002,0.0,0.0,0.0,0.00019600000000000002,0.0,0.0,0.0,0.00012099999999999999,2
1730020297455378615,8748,1730020297374971340,gps,2,0,37.555129799999996,127.04549519999999,49.988,0.00019600000000000002,0.0,0.0,0.0,0.00019600000000000002,0.0,0.0,0.0,0.0001,2
1730020297580191483,8749,1730020297499971343,gps,2,0,37.5551294,127.0454965,49.993,0.00019600000000000002,0.0,0.0,0.0,0.00019600000000000002,0.0,0.0,0.0,0.0001,2
1730020297704019373,8750,1730020297624971345,gps,2,0,37.555129,127.04549779999999,49.981,0.00019600000000000002,0.0,0.0,0.0,0.00019600000000000002,0.0,0.0,0.0,0.00012099999999999999,2
1730020297827007585,8751,1730020297749971347,gps,2,0,37.555128599999996,127.0454992,49.985,0.00019600000000000002,0.0,0.0,0.0,0.00019600000000000002,0.0,0.0,0.0,0.0001,2
1730020297952206803,8752,1730020297874971349,gps,2,0,37.5551282,127.0455006,49.986000000000004,0.00019600000000000002,0.0,0.0,0.0,0.00019600000000000002,0.0,0.0,0.0,0.0001,2
1730020298077382272,8753,1730020297999971352,gps,2,0,37.5551277,127.045502,49.992000000000004,0.00019600000000000002,0.0,0.0,0.0,0.00019600000000000002,0.0,0.0,0.0,0.0001,2
1730020298203430352,8754,1730020298124971353,gps,2,0,37.555127299999995,127.0455034,49.991,0.00019600000000000002,0.0,0.0,0.0,0.00019600000000000002,0.0,0.0,0.0,0.0001,2
1730020298330348397,8755,1730020298249971355,gps,2,0,37.5551269,127.0455047,49.985,0.00019600000000000002,0.0,0.0,0.0,0.00019600000000000002,0.0,0.0,0.0,0.0001,2
1730020298459443600,8756,1730020298374971357,gps,2,0,37.5551265,127.0455061,49.978,0.00019600000000000002,0.0,0.0,0.0,0.00019600000000000002,0.0,0.0,0.0,0.0001,2
1730020298578287484,8757,1730020298499971359,gps,2,0,37.555126099999995,127.0455075,49.998,0.00019600000000000002,0.0,0.0,0.0,0.00019600000000000002,0.0,0.0,0.0,0.0001,2
1730020298703797894,8758,1730020298624971361,gps,2,0,37.5551256,127.04550889999999,49.992000000000004,0.00019600000000000002,0.0,0.0,0.0,0.00019600000000000002,0.0,0.0,0.0,0.0001,2
1730020298829422538,8759,1730020298749971363,gps,2,0,37.5551252,127.0455102,49.988,0.00019600000000000002,0.0,0.0,0.0,0.00019600000000000002,0.0,0.0,0.0,0.0001,2
1730020298954379234,8760,1730020298874971365,gps,2,0,37.5551248,127.0455116,49.996,0.00019600000000000002,0.0,0.0,0.0,0.00019600000000000002,0.0,0.0,0.0,0.00012099999999999999,2
1730020299085722626,8761,1730020298999971368,gps,2,0,37.5551244,127.0455131,49.992000000000004,0.00019600000000000002,0.0,0.0,0.0,0.00019600000000000002,0.0,0.0,0.0,0.00012099999999999999,2
1730020299208184351,8762,1730020299124971369,gps,2,0,37.555124,127.04551439999999,49.986000000000004,0.00019600000000000002,0.0,0.0,0.0,0.00019600000000000002,0.0,0.0,0.0,0.00012099999999999999,2
1730020299334741959,8763,1730020299249971371,gps,2,0,37.5551236,127.0455159,49.983000000000004,0.00019600000000000002,0.0,0.0,0.0,0.00019600000000000002,0.0,0.0,0.0,0.000144,2
1730020299461256291,8764,1730020299374971373,gps,2,0,37.5551232,127.0455173,49.99,0.00019600000000000002,0.0,0.0,0.0,0.00019600000000000002,0.0,0.0,0.0,0.00012099999999999999,2
1730020299578545943,8765,1730020299499971375,gps,2,0,37.5551228,127.04551869999999,49.993,0.00019600000000000002,0.0,0.0,0.0,0.00019600000000000002,0.0,0.0,0.0,0.00012099999999999999,2
1730020299704854370,8766,1730020299624971377,gps,2,0,37.555122499999996,127.0455202,49.983000000000004,0.00019600000000000002,0.0,0.0,0.0,0.00019600000000000002,0.0,0.0,0.0,0.0001,2
1730020299830035645,8767,1730020299749971379,gps,2,0,37.5551221,127.0455216,49.992000000000004,0.00019600000000000002,0.0,0.0,0.0,0.00019600000000000002,0.0,0.0,0.0,0.0001,2
1730020299953067261,8768,1730020299874971381,gps,2,0,37.5551217,127.0455231,49.987,0.00019600000000000002,0.0,0.0,0.0,0.00019600000000000002,0.0,0.0,0.0,0.0001,2
1730020300084104930,8769,1730020299999971384,gps,2,0,37.555121299999996,127.0455245,49.983000000000004,0.00019600000000000002,0.0,0.0,0.0,0.00019600000000000002,0.0,0.0,0.0,0.0001,2
1730020300206182131,8770,1730020300124971385,gps,2,0,37.5551208,127.0455259,49.987,0.00019600000000000002,0.0,0.0,0.0,0.00019600000000000002,0.0,0.0,0.0,0.0001,2
1730020300328313277,8771,1730020300249971387,gps,2,0,37.5551204,127.0455274,49.981,0.00019600000000000002,0.0,0.0,0.0,0.00019600000000000002,0.0,0.0,0.0,0.0001,2
1730020300453893852,8772,1730020300374971389,gps,2,0,37.555120099999996,127.0455288,49.971000000000004,0.00019600000000000002,0.0,0.0,0.0,0.00019600000000000002,0.0,0.0,0.0,0.0001,2
1730020300578178297,8773,1730020300499971391,gps,2,0,37.5551196,127.04553019999999,49.966,0.00019600000000000002,0.0,0.0,0.0,0.00019600000000000002,0.0,0.0,0.0,0.0001,2
1730020300708089804,8774,1730020300624971393,gps,2,0,37.5551193,127.0455317,49.963,0.00019600000000000002,0.0,0.0,0.0,0.00019600000000000002,0.0,0.0,0.0,0.0001,2
1730020300823261692,8775,1730020300749971395,gps,2,0,37.5551189,127.0455331,49.966,0.00019600000000000002,0.0,0.0,0.0,0.00019600000000000002,0.0,0.0,0.0,0.00012099999999999999,2
1730020300954058585,8776,1730020300874971397,gps,2,0,37.5551185,127.04553449999999,49.968,0.00019600000000000002,0.0,0.0,0.0,0.00019600000000000002,0.0,0.0,0.0,0.00012099999999999999,2
1730020301083077074,8777,1730020300999971400,gps,2,0,37.5551181,127.04553589999999,49.978,0.00019600000000000002,0.0,0.0,0.0,0.00019600000000000002,0.0,0.0,0.0,0.00012099999999999999,2
1730020301203414354,8778,1730020301124971401,gps,2,0,37.5551177,127.0455374,49.969,0.00019600000000000002,0.0,0.0,0.0,0.00019600000000000002,0.0,0.0,0.0,0.00012099999999999999,2
1730020301330007242,8779,1730020301249971403,gps,2,0,37.5551174,127.04553879999999,49.97,0.00019600000000000002,0.0,0.0,0.0,0.00019600000000000002,0.0,0.0,0.0,0.00012099999999999999,2
1730020301465686322,8780,1730020301374971405,gps,2,0,37.5551169,127.0455403,49.96,0.00019600000000000002,0.0,0.0,0.0,0.00019600000000000002,0.0,0.0,0.0,0.00012099999999999999,2
1730020301581997187,8781,1730020301499971407,gps,2,0,37.5551167,127.0455418,49.965,0.00019600000000000002,0.0,0.0,0.0,0.00019600000000000002,0.0,0.0,0.0,0.000144,2
1730020301701278546,8782,1730020301624971409,gps,2,0,37.5551163,127.0455432,49.963,0.00019600000000000002,0.0,0.0,0.0,0.00019600000000000002,0.0,0.0,0.0,0.00012099999999999999,2
1730020301833051633,8783,1730020301749971411,gps,2,0,37.555116,127.04554479999999,49.968,0.00019600000000000002,0.0,0.0,0.0,0.00019600000000000002,0.0,0.0,0.0,0.00012099999999999999,2
1730020301958102434,8784,1730020301874971413,gps,2,0,37.5551157,127.04554619999999,49.97,0.00019600000000000002,0.0,0.0,0.0,0.00019600000000000002,0.0,0.0,0.0,0.00012099999999999999,2
1730020302088792676,8785,1730020301999971416,gps,2,0,37.5551153,127.0455477,49.968,0.00019600000000000002,0.0,0.0,0.0,0.00019600000000000002,0.0,0.0,0.0,0.00012099999999999999,2
1730020302207031809,8786,1730020302124971417,gps,2,0,37.5551149,127.04554909999999,49.97,0.00019600000000000002,0.0,0.0,0.0,0.00019600000000000002,0.0,0.0,0.0,0.00012099999999999999,2
1730020302340214166,8787,1730020302249971419,gps,2,0,37.555114599999996,127.0455506,49.976,0.00019600000000000002,0.0,0.0,0.0,0.00019600000000000002,0.0,0.0,0.0,0.0001,2
1730020302458820114,8788,1730020302374971421,gps,2,0,37.5551141,127.045552,49.981,0.00019600000000000002,0.0,0.0,0.0,0.00019600000000000002,0.0,0.0,0.0,0.0001,2
1730020302576953498,8789,1730020302499971423,gps,2,0,37.5551138,127.0455535,49.985,0.00019600000000000002,0.0,0.0,0.0,0.00019600000000000002,0.0,0.0,0.0,0.0001,2
1730020302707363868,8790,1730020302624971425,gps,2,0,37.555113299999995,127.045555,49.981,0.00019600000000000002,0.0,0.0,0.0,0.00019600000000000002,0.0,0.0,0.0,0.0001,2
1730020302831194488,8791,1730020302749971427,gps,2,0,37.5551129,127.0455566,49.987,0.00019600000000000002,0.0,0.0,0.0,0.00019600000000000002,0.0,0.0,0.0,0.0001,2
1730020302955903910,8792,1730020302874971429,gps,2,0,37.5551125,127.045558,49.983000000000004,0.00019600000000000002,0.0,0.0,0.0,0.00019600000000000002,0.0,0.0,0.0,0.000144,2
1730020303083602876,8793,1730020302999971432,gps,2,0,37.555112199999996,127.04555939999999,49.987,0.00019600000000000002,0.0,0.0,0.0,0.00019600000000000002,0.0,0.0,0.0,0.00012099999999999999,2
1730020303201959564,8794,1730020303124971434,gps,2,0,37.5551117,127.0455609,49.986000000000004,0.00019600000000000002,0.0,0.0,0.0,0.00019600000000000002,0.0,0.0,0.0,0.00012099999999999999,2
1730020303318137239,8795,1730020303249971436,gps,2,0,37.5551112,127.0455624,49.997,0.00019600000000000002,0.0,0.0,0.0,0.00019600000000000002,0.0,0.0,0.0,0.00028900000000000003,2
1730020303445472505,8796,1730020303374971438,gps,2,0,37.5551108,127.0455638,49.998,0.00019600000000000002,0.0,0.0,0.0,0.00019600000000000002,0.0,0.0,0.0,0.000529,2
1730020303575226610,8797,1730020303499971440,gps,2,0,37.5551104,127.04556529999999,49.998,0.00019600000000000002,0.0,0.0,0.0,0.00019600000000000002,0.0,0.0,0.0,0.0004,2
1730020303704150179,8798,1730020303624971442,gps,2,0,37.5551099,127.04556679999999,49.99,0.00019600000000000002,0.0,0.0,0.0,0.00019600000000000002,0.0,0.0,0.0,0.00048399999999999995,2
1730020303829190544,8799,1730020303749971444,gps,2,0,37.5551095,127.04556819999999,49.982,0.00019600000000000002,0.0,0.0,0.0,0.00019600000000000002,0.0,0.0,0.0,0.000529,2
1730020303973079345,8800,1730020303874971446,gps,2,0,37.555109,127.04556969999999,49.983000000000004,0.00019600000000000002,0.0,0.0,0.0,0.00019600000000000002,0.0,0.0,0.0,0.000529,2
1730020304107161651,8801,1730020303999971449,gps,2,0,37.5551086,127.04557109999999,49.977000000000004,0.00019600000000000002,0.0,0.0,0.0,0.00019600000000000002,0.0,0.0,0.0,0.000529,2
1730020304231036578,8802,1730020304124971450,gps,0,0,37.5551082,127.0455726,49.961,0.00019600000000000002,0.0,0.0,0.0,0.00019600000000000002,0.0,0.0,0.0,0.000576,2
1730020304332465549,8803,1730020304249971452,gps,0,0,37.5551077,127.04557399999999,49.948,0.00019600000000000002,0.0,0.0,0.0,0.00019600000000000002,0.0,0.0,0.0,0.0006250000000000001,2
1730020304455658060,8804,1730020304374971454,gps,2,0,37.555107299999996,127.0455753,49.96,0.00019600000000000002,0.0,0.0,0.0,0.00019600000000000002,0.0,0.0,0.0,0.000529,2
1730020304580760560,8805,1730020304499971456,gps,2,0,37.5551069,127.04557679999999,49.96,0.00019600000000000002,0.0,0.0,0.0,0.00019600000000000002,0.0,0.0,0.0,0.00048399999999999995,2
1730020304711298512,8806,1730020304624971458,gps,2,0,37.5551064,127.0455782,49.97,0.00019600000000000002,0.0,0.0,0.0,0.00019600000000000002,0.0,0.0,0.0,0.00044100000000000004,2
1730020304829340586,8807,1730020304749971460,gps,2,0,37.5551059,127.0455796,49.957,0.00019600000000000002,0.0,0.0,0.0,0.00019600000000000002,0.0,0.0,0.0,0.0001,2
1730020304953986735,8808,1730020304874971462,gps,2,0,37.5551056,127.045581,49.95,0.00019600000000000002,0.0,0.0,0.0,0.00019600000000000002,0.0,0.0,0.0,0.00012099999999999999,2
1730020305084237688,8809,1730020304999971465,gps,2,0,37.5551053,127.0455825,49.955,0.00019600000000000002,0.0,0.0,0.0,0.00019600000000000002,0.0,0.0,0.0,0.00012099999999999999,2
1730020305206229980,8810,1730020305124971466,gps,2,0,37.555104899999996,127.04558399999999,49.961,0.00019600000000000002,0.0,0.0,0.0,0.00019600000000000002,0.0,0.0,0.0,0.00012099999999999999,2
1730020305325998154,8811,1730020305249971468,gps,2,0,37.5551046,127.04558549999999,49.947,0.00019600000000000002,0.0,0.0,0.0,0.00019600000000000002,0.0,0.0,0.0,0.000144,2
1730020305460798031,8812,1730020305374971470,gps,2,0,37.555104299999996,127.045587,49.949,0.00019600000000000002,0.0,0.0,0.0,0.00019600000000000002,0.0,0.0,0.0,0.000144,2
1730020305596258137,8813,1730020305499971473,gps,2,0,37.5551039,127.0455885,49.945,0.00019600000000000002,0.0,0.0,0.0,0.00019600000000000002,0.0,0.0,0.0,0.00012099999999999999,2
1730020305704127651,8814,1730020305624971475,gps,2,0,37.5551035,127.04558999999999,49.958,0.00019600000000000002,0.0,0.0,0.0,0.00019600000000000002,0.0,0.0,0.0,0.00012099999999999999,2
1730020305831154128,8815,1730020305749971477,gps,2,0,37.5551032,127.0455915,49.956,0.00019600000000000002,0.0,0.0,0.0,0.00019600000000000002,0.0,0.0,0.0,0.0001,2
1730020305953423232,8816,1730020305874971479,gps,2,0,37.5551028,127.045593,49.949,0.00019600000000000002,0.0,0.0,0.0,0.00019600000000000002,0.0,0.0,0.0,0.0001,2
1730020306079336379,8817,1730020305999971482,gps,2,0,37.555102399999996,127.04559449999999,49.948,0.00019600000000000002,0.0,0.0,0.0,0.00019600000000000002,0.0,0.0,0.0,0.000144,2
1730020306194831129,8818,1730020306124971483,gps,2,0,37.5551021,127.0455961,49.942,0.00019600000000000002,0.0,0.0,0.0,0.00019600000000000002,0.0,0.0,0.0,0.000169,2
1730020306327979726,8819,1730020306249971485,gps,2,0,37.5551017,127.0455975,49.944,0.00019600000000000002,0.0,0.0,0.0,0.00019600000000000002,0.0,0.0,0.0,0.000169,2
1730020306454368039,8820,1730020306374971487,gps,2,0,37.5551013,127.04559909999999,49.939,0.00019600000000000002,0.0,0.0,0.0,0.00019600000000000002,0.0,0.0,0.0,0.000169,2
1730020306575928419,8821,1730020306499971489,gps,2,0,37.5551008,127.0456006,49.947,0.00019600000000000002,0.0,0.0,0.0,0.00019600000000000002,0.0,0.0,0.0,0.000256,2
1730020306704249197,8822,1730020306624971491,gps,2,0,37.5551004,127.04560199999999,49.943,0.00019600000000000002,0.0,0.0,0.0,0.00019600000000000002,0.0,0.0,0.0,0.00012099999999999999,2
1730020306828425424,8823,1730020306749971493,gps,2,0,37.555099899999995,127.0456035,49.95,0.00019600000000000002,0.0,0.0,0.0,0.00019600000000000002,0.0,0.0,0.0,0.000144,2
1730020306954316485,8824,1730020306874971495,gps,2,0,37.5550995,127.045605,49.938,0.00019600000000000002,0.0,0.0,0.0,0.00019600000000000002,0.0,0.0,0.0,0.000169,2
1730020307080181487,8825,1730020306999971498,gps,2,0,37.555099,127.0456064,49.941,0.00019600000000000002,0.0,0.0,0.0,0.00019600000000000002,0.0,0.0,0.0,0.000144,2
1730020307209405654,8826,1730020307124971499,gps,2,0,37.5550986,127.0456079,49.945,0.00019600000000000002,0.0,0.0,0.0,0.00019600000000000002,0.0,0.0,0.0,0.000169,2
1730020307355231766,8827,1730020307249971501,gps,2,0,37.555098099999995,127.0456092,49.938,0.00019600000000000002,0.0,0.0,0.0,0.00019600000000000002,0.0,0.0,0.0,0.000144,2
1730020307479826763,8828,1730020307374971503,gps,2,0,37.555097599999996,127.0456107,49.938,0.00019600000000000002,0.0,0.0,0.0,0.00019600000000000002,0.0,0.0,0.0,0.000144,2
1730020307601389499,8829,1730020307499971505,gps,2,0,37.5550971,127.0456122,49.932,0.00019600000000000002,0.0,0.0,0.0,0.00019600000000000002,0.0,0.0,0.0,0.00012099999999999999,2
1730020307732894118,8830,1730020307624971507,gps,2,0,37.5550966,127.0456136,49.942,0.00019600000000000002,0.0,0.0,0.0,0.00019600000000000002,0.0,0.0,0.0,0.0001,2
1730020307849061470,8831,1730020307749971509,gps,2,0,37.5550962,127.04561509999999,49.941,0.00019600000000000002,0.0,0.0,0.0,0.00019600000000000002,0.0,0.0,0.0,0.00012099999999999999,2
1730020307970138730,8832,1730020307874971512,gps,2,0,37.5550958,127.0456165,49.94,0.00019600000000000002,0.0,0.0,0.0,0.00019600000000000002,0.0,0.0,0.0,0.00012099999999999999,2
1730020308108436197,8833,1730020307999971515,gps,2,0,37.5550953,127.04561799999999,49.941,0.00019600000000000002,0.0,0.0,0.0,0.00019600000000000002,0.0,0.0,0.0,0.0001,2
1730020308208348791,8834,1730020308124971516,gps,2,0,37.5550948,127.04561939999999,49.939,0.00019600000000000002,0.0,0.0,0.0,0.00019600000000000002,0.0,0.0,0.0,0.0001,2
1730020308336138404,8835,1730020308249971518,gps,2,0,37.5550944,127.04562089999999,49.943,0.00019600000000000002,0.0,0.0,0.0,0.00019600000000000002,0.0,0.0,0.0,0.0001,2
1730020308453889430,8836,1730020308374971520,gps,2,0,37.555094,127.04562229999999,49.94,0.00019600000000000002,0.0,0.0,0.0,0.00019600000000000002,0.0,0.0,0.0,0.0001,2
1730020308577197012,8837,1730020308499971522,gps,2,0,37.5550936,127.0456238,49.943,0.00019600000000000002,0.0,0.0,0.0,0.00019600000000000002,0.0,0.0,0.0,0.0001,2
1730020308703065834,8838,1730020308624971524,gps,2,0,37.555093299999996,127.0456253,49.951,0.00019600000000000002,0.0,0.0,0.0,0.00019600000000000002,0.0,0.0,0.0,0.0001,2
1730020308829974212,8839,1730020308749971526,gps,2,0,37.5550929,127.0456268,49.956,0.00019600000000000002,0.0,0.0,0.0,0.00019600000000000002,0.0,0.0,0.0,0.0001,2
1730020308952175047,8840,1730020308874971528,gps,2,0,37.5550925,127.04562829999999,49.949,0.00019600000000000002,0.0,0.0,0.0,0.00019600000000000002,0.0,0.0,0.0,0.0001,2
1730020309084056113,8841,1730020308999971531,gps,2,0,37.555092099999996,127.0456298,49.954,0.00019600000000000002,0.0,0.0,0.0,0.00019600000000000002,0.0,0.0,0.0,0.0001,2
1730020309203354927,8842,1730020309124971532,gps,2,0,37.5550918,127.0456313,49.953,0.00019600000000000002,0.0,0.0,0.0,0.00019600000000000002,0.0,0.0,0.0,0.0001,2
1730020309335312677,8843,1730020309249971534,gps,2,0,37.555091399999995,127.04563279999999,49.953,0.00019600000000000002,0.0,0.0,0.0,0.00019600000000000002,0.0,0.0,0.0,0.0001,2
1730020309455050944,8844,1730020309374971536,gps,2,0,37.555091,127.0456342,49.956,0.00019600000000000002,0.0,0.0,0.0,0.00019600000000000002,0.0,0.0,0.0,0.0001,2
1730020309578763109,8845,1730020309499971539,gps,2,0,37.5550906,127.0456358,49.955,0.00019600000000000002,0.0,0.0,0.0,0.00019600000000000002,0.0,0.0,0.0,0.0001,2
1730020309706226214,8846,1730020309624971541,gps,2,0,37.555090299999996,127.0456373,49.958,0.00019600000000000002,0.0,0.0,0.0,0.00019600000000000002,0.0,0.0,0.0,0.0001,2
1730020309822355074,8847,1730020309749971543,gps,2,0,37.5550898,127.04563879999999,49.956,0.00019600000000000002,0.0,0.0,0.0,0.00019600000000000002,0.0,0.0,0.0,0.0001,2
1730020309952264435,8848,1730020309874971545,gps,2,0,37.5550895,127.0456402,49.951,0.00019600000000000002,0.0,0.0,0.0,0.00019600000000000002,0.0,0.0,0.0,0.0001,2
1730020310080918368,8849,1730020309999971548,gps,2,0,37.5550891,127.04564169999999,49.947,0.00019600000000000002,0.0,0.0,0.0,0.00019600000000000002,0.0,0.0,0.0,0.0001,2
1730020310203997474,8850,1730020310124971549,gps,2,0,37.5550886,127.0456432,49.949,0.00019600000000000002,0.0,0.0,0.0,0.00019600000000000002,0.0,0.0,0.0,0.0001,2
1730020310335837448,8851,1730020310249971551,gps,2,0,37.5550882,127.04564459999999,49.963,0.00019600000000000002,0.0,0.0,0.0,0.00019600000000000002,0.0,0.0,0.0,0.0001,2
1730020310454809534,8852,1730020310374971553,gps,2,0,37.555087799999995,127.0456462,49.968,0.00019600000000000002,0.0,0.0,0.0,0.00019600000000000002,0.0,0.0,0.0,0.0001,2
1730020310576861687,8853,1730020310499971556,gps,2,0,37.5550873,127.0456476,49.973,0.00019600000000000002,0.0,0.0,0.0,0.00019600000000000002,0.0,0.0,0.0,0.0001,2
1730020310696070499,8854,1730020310624971558,gps,2,0,37.5550869,127.045649,49.978,0.00019600000000000002,0.0,0.0,0.0,0.00019600000000000002,0.0,0.0,0.0,0.0001,2
1730020310827459841,8855,1730020310749971560,gps,2,0,37.5550864,127.04565059999999,49.973,0.00019600000000000002,0.0,0.0,0.0,0.00019600000000000002,0.0,0.0,0.0,0.0001,2
1730020310952148896,8856,1730020310874971562,gps,2,0,37.5550859,127.04565199999999,49.980000000000004,0.00019600000000000002,0.0,0.0,0.0,0.00019600000000000002,0.0,0.0,0.0,0.0001,2
1730020311082273944,8857,1730020310999971565,gps,2,0,37.555085399999996,127.0456535,49.989000000000004,0.00019600000000000002,0.0,0.0,0.0,0.00019600000000000002,0.0,0.0,0.0,0.0001,2
1730020311205513582,8858,1730020311124971566,gps,2,0,37.5550849,127.045655,49.971000000000004,0.00019600000000000002,0.0,0.0,0.0,0.00019600000000000002,0.0,0.0,0.0,0.0001,2
1730020311335650533,8859,1730020311249971568,gps,2,0,37.5550844,127.0456564,49.973,0.00019600000000000002,0.0,0.0,0.0,0.00019600000000000002,0.0,0.0,0.0,0.0001,2
1730020311454246811,8860,1730020311374971570,gps,2,0,37.555084,127.0456579,49.963,0.00019600000000000002,0.0,0.0,0.0,0.00019600000000000002,0.0,0.0,0.0,0.0001,2
1730020311578224183,8861,1730020311499971572,gps,2,0,37.5550834,127.0456593,49.962,0.00019600000000000002,0.0,0.0,0.0,0.00019600000000000002,0.0,0.0,0.0,0.0001,2
1730020311700032473,8862,1730020311624971575,gps,2,0,37.555082999999996,127.0456607,49.956,0.00019600000000000002,0.0,0.0,0.0,0.00019600000000000002,0.0,0.0,0.0,0.00012099999999999999,2
1730020311824821074,8863,1730020311749971577,gps,2,0,37.5550826,127.0456621,49.934,0.00019600000000000002,0.0,0.0,0.0,0.00019600000000000002,0.0,0.0,0.0,0.00019600000000000002,2
1730020311949849867,8864,1730020311874971579,gps,2,0,37.5550821,127.0456636,49.95,0.00019600000000000002,0.0,0.0,0.0,0.00019600000000000002,0.0,0.0,0.0,0.00019600000000000002,2
1730020312080188339,8865,1730020311999971582,gps,2,0,37.555081699999995,127.0456651,49.941,0.00019600000000000002,0.0,0.0,0.0,0.00019600000000000002,0.0,0.0,0.0,0.00019600000000000002,2
1730020312202178549,8866,1730020312124971583,gps,2,0,37.5550814,127.04566659999999,49.953,0.00019600000000000002,0.0,0.0,0.0,0.00019600000000000002,0.0,0.0,0.0,0.000225,2
1730020312327218344,8867,1730020312249971585,gps,2,0,37.555081099999995,127.04566799999999,49.958,0.00019600000000000002,0.0,0.0,0.0,0.00019600000000000002,0.0,0.0,0.0,0.000225,2
1730020312450419220,8868,1730020312374971587,gps,2,0,37.5550807,127.04566949999999,49.95,0.00019600000000000002,0.0,0.0,0.0,0.00019600000000000002,0.0,0.0,0.0,0.000225,2
1730020312600006382,8869,1730020312499971589,gps,2,0,37.5550804,127.045671,49.947,0.00019600000000000002,0.0,0.0,0.0,0.00019600000000000002,0.0,0.0,0.0,0.000225,2
1730020312722245057,8870,1730020312624971591,gps,2,0,37.55508,127.0456725,49.944,0.00019600000000000002,0.0,0.0,0.0,0.00019600000000000002,0.0,0.0,0.0,0.0001,2
1730020312845583742,8871,1730020312749971593,gps,2,0,37.5550796,127.04567399999999,49.958,0.00019600000000000002,0.0,0.0,0.0,0.00019600000000000002,0.0,0.0,0.0,0.0001,2
1730020312971177534,8872,1730020312874971595,gps,2,0,37.5550792,127.04567549999999,49.962,0.00019600000000000002,0.0,0.0,0.0,0.00019600000000000002,0.0,0.0,0.0,0.0001,2
1730020313083152761,8873,1730020312999971598,gps,2,0,37.5550789,127.045677,49.959,0.00019600000000000002,0.0,0.0,0.0,0.00019600000000000002,0.0,0.0,0.0,0.0001,2
1730020313205793328,8874,1730020313124971599,gps,2,0,37.5550786,127.0456785,49.949,0.00019600000000000002,0.0,0.0,0.0,0.00019600000000000002,0.0,0.0,0.0,0.0001,2
1730020313351269253,8875,1730020313249971602,gps,2,0,37.5550783,127.0456799,49.946,0.00019600000000000002,0.0,0.0,0.0,0.00019600000000000002,0.0,0.0,0.0,0.00012099999999999999,2
1730020313469857468,8876,1730020313374971604,gps,2,0,37.5550779,127.04568139999999,49.958,0.00019600000000000002,0.0,0.0,0.0,0.00019600000000000002,0.0,0.0,0.0,0.00012099999999999999,2
1730020313603419350,8877,1730020313499971606,gps,2,0,37.555077499999996,127.04568289999999,49.959,0.00019600000000000002,0.0,0.0,0.0,0.00019600000000000002,0.0,0.0,0.0,0.00012099999999999999,2
1730020313716134111,8878,1730020313624971608,gps,2,0,37.5550771,127.0456845,49.965,0.00019600000000000002,0.0,0.0,0.0,0.00019600000000000002,0.0,0.0,0.0,0.00012099999999999999,2
1730020313828670391,8879,1730020313749971610,gps,2,0,37.5550767,127.04568599999999,49.963,0.00019600000000000002,0.0,0.0,0.0,0.00019600000000000002,0.0,0.0,0.0,0.00012099999999999999,2
1730020313953012473,8880,1730020313874971612,gps,2,0,37.555076299999996,127.04568739999999,49.962,0.00019600000000000002,0.0,0.0,0.0,0.00019600000000000002,0.0,0.0,0.0,0.0001,2
1730020314083911679,8881,1730020313999971615,gps,2,0,37.5550758,127.04568889999999,49.957,0.00019600000000000002,0.0,0.0,0.0,0.00019600000000000002,0.0,0.0,0.0,0.0001,2
1730020314204177529,8882,1730020314124971617,gps,2,0,37.5550754,127.0456904,49.956,0.00019600000000000002,0.0,0.0,0.0,0.00019600000000000002,0.0,0.0,0.0,0.00012099999999999999,2
1730020314330880860,8883,1730020314249971619,gps,2,0,37.555075099999996,127.04569169999999,49.959,0.00019600000000000002,0.0,0.0,0.0,0.00019600000000000002,0.0,0.0,0.0,0.00012099999999999999,2
1730020314445668798,8884,1730020314374971621,gps,2,0,37.5550746,127.0456928,49.962,0.00019600000000000002,0.0,0.0,0.0,0.00019600000000000002,0.0,0.0,0.0,0.000169,2
1730020314568281619,8885,1730020314499971623,gps,2,0,37.5550739,127.045694,49.968,0.00019600000000000002,0.0,0.0,0.0,0.00019600000000000002,0.0,0.0,0.0,0.000144,2
1730020314699935472,8886,1730020314624971625,gps,2,0,37.5550736,127.045695,49.977000000000004,0.00019600000000000002,0.0,0.0,0.0,0.00019600000000000002,0.0,0.0,0.0,0.000144,2
1730020314825798421,8887,1730020314749971627,gps,2,0,37.555073199999995,127.0456957,49.965,0.00019600000000000002,0.0,0.0,0.0,0.00019600000000000002,0.0,0.0,0.0,0.00019600000000000002,2
1730020314952331704,8888,1730020314874971629,gps,2,0,37.5550728,127.04569629999999,49.968,0.00019600000000000002,0.0,0.0,0.0,0.00019600000000000002,0.0,0.0,0.0,0.000225,2
1730020315079233515,8889,1730020314999971633,gps,2,0,37.5550722,127.0456969,49.971000000000004,0.00019600000000000002,0.0,0.0,0.0,0.00019600000000000002,0.0,0.0,0.0,0.000225,2
1730020315210671214,8890,1730020315124971634,gps,2,0,37.5550719,127.0456973,49.975,0.00019600000000000002,0.0,0.0,0.0,0.00019600000000000002,0.0,0.0,0.0,0.000225,2
1730020315340634555,8891,1730020315249971636,gps,2,0,37.5550716,127.0456974,49.962,0.00019600000000000002,0.0,0.0,0.0,0.00019600000000000002,0.0,0.0,0.0,0.00019600000000000002,2
1730020315450555688,8892,1730020315374971638,gps,2,0,37.5550715,127.04569749999999,49.947,0.00019600000000000002,0.0,0.0,0.0,0.00019600000000000002,0.0,0.0,0.0,0.00019600000000000002,2
1730020315581120598,8893,1730020315499971640,gps,2,0,37.5550713,127.0456976,49.945,0.00019600000000000002,0.0,0.0,0.0,0.00019600000000000002,0.0,0.0,0.0,0.00019600000000000002,2
1730020315723259213,8894,1730020315624971642,gps,2,0,37.555071399999996,127.04569769999999,49.944,0.00019600000000000002,0.0,0.0,0.0,0.00019600000000000002,0.0,0.0,0.0,0.00012099999999999999,2
1730020315828063694,8895,1730020315749971644,gps,2,0,37.555071399999996,127.0456979,49.937,0.00019600000000000002,0.0,0.0,0.0,0.00019600000000000002,0.0,0.0,0.0,0.00012099999999999999,2
1730020315952098818,8896,1730020315874971647,gps,2,0,37.555071399999996,127.0456981,49.921,0.00019600000000000002,0.0,0.0,0.0,0.00019600000000000002,0.0,0.0,0.0,0.00012099999999999999,2
1730020316083486894,8897,1730020315999971650,gps,0,0,37.5550716,127.04569819999999,49.901,0.00019600000000000002,0.0,0.0,0.0,0.00019600000000000002,0.0,0.0,0.0,0.00019600000000000002,2
1730020316198279889,8898,1730020316124971651,gps,0,0,37.5550712,127.04569839999999,49.877,0.00019600000000000002,0.0,0.0,0.0,0.00019600000000000002,0.0,0.0,0.0,0.00032399999999999996,2
1730020316321230967,8899,1730020316249971653,gps,0,0,37.5550713,127.0456985,49.858000000000004,0.00019600000000000002,0.0,0.0,0.0,0.00019600000000000002,0.0,0.0,0.0,0.00044100000000000004,2
1730020316448677347,8900,1730020316374971655,gps,0,0,37.5550713,127.04569819999999,49.836,0.000256,0.0,0.0,0.0,0.000256,0.0,0.0,0.0,0.0007840000000000001,2
1730020316576026073,8901,1730020316499971657,gps,0,0,37.5550713,127.0456978,49.813,0.0007840000000000001,0.0,0.0,0.0,0.0007840000000000001,0.0,0.0,0.0,0.0013689999999999998,2
1730020316713389763,8902,1730020316624971659,gps,0,0,37.5550711,127.04569749999999,49.799,0.0011560000000000001,0.0,0.0,0.0,0.0011560000000000001,0.0,0.0,0.0,0.002025,2
1730020316841116168,8903,1730020316749971661,gps,0,0,37.555071,127.04569699999999,49.794000000000004,0.0016810000000000002,0.0,0.0,0.0,0.0016810000000000002,0.0,0.0,0.0,0.0029159999999999998,2
1730020316958345070,8904,1730020316874971663,gps,0,0,37.5550709,127.0456966,49.78,0.002209,0.0,0.0,0.0,0.002209,0.0,0.0,0.0,0.003969,2
1730020317078257055,8905,1730020316999971666,gps,0,0,37.5550709,127.04569599999999,49.755,0.002704,0.0,0.0,0.0,0.002704,0.0,0.0,0.0,0.005183999999999999,2
1730020317199805523,8906,1730020317124971667,gps,0,0,37.5550707,127.0456954,49.768,0.003249,0.0,0.0,0.0,0.003249,0.0,0.0,0.0,0.0064,2
1730020317326049700,8907,1730020317249971669,gps,0,0,37.5550706,127.0456949,49.766,0.003721,0.0,0.0,0.0,0.003721,0.0,0.0,0.0,0.007568999999999999,2
1730020317448802634,8908,1730020317374971671,gps,0,0,37.5550705,127.0456943,49.767,0.0042250000000000005,0.0,0.0,0.0,0.0042250000000000005,0.0,0.0,0.0,0.008836,2
1730020317576420795,8909,1730020317499971673,gps,0,0,37.5550705,127.0456935,49.851,0.000361,0.0,0.0,0.0,0.000361,0.0,0.0,0.0,0.002809,2
1730020317702064600,8910,1730020317624971675,gps,2,0,37.5550704,127.0456926,49.889,0.00019600000000000002,0.0,0.0,0.0,0.00019600000000000002,0.0,0.0,0.0,0.000256,2
1730020317815653036,8911,1730020317749971677,gps,0,0,37.55507,127.0456914,49.907000000000004,0.0009,0.0,0.0,0.0,0.0009,0.0,0.0,0.0,0.00044100000000000004,2
1730020317939114864,8912,1730020317874971679,gps,0,0,37.55507,127.04569029999999,49.910000000000004,0.001444,0.0,0.0,0.0,0.001444,0.0,0.0,0.0,0.0009,2
1730020318069503311,8913,1730020317999971683,gps,0,0,37.5550697,127.0456892,49.917,0.0031360000000000003,0.0,0.0,0.0,0.0031360000000000003,0.0,0.0,0.0,0.0018489999999999997,2
1730020318196061484,8914,1730020318124971684,gps,0,0,37.555069599999996,127.04568859999999,49.965,0.0034809999999999997,0.0,0.0,0.0,0.0034809999999999997,0.0,0.0,0.0,0.002809,2
1730020318353147741,8915,1730020318249971686,gps,0,0,37.555069499999995,127.0456878,49.988,0.003969,0.0,0.0,0.0,0.003969,0.0,0.0,0.0,0.003969,2
1730020318476316360,8916,1730020318374971688,gps,0,0,37.555069499999995,127.0456868,49.983000000000004,0.0042250000000000005,0.0,0.0,0.0,0.0042250000000000005,0.0,0.0,0.0,0.0050409999999999995,2
1730020318572162987,8917,1730020318499971690,gps,0,0,37.5550693,127.0456858,50.031,0.0046240000000000005,0.0,0.0,0.0,0.0046240000000000005,0.0,0.0,0.0,0.006241,2
1730020318697346863,8918,1730020318624971692,gps,0,0,37.5550693,127.04568479999999,50.007,0.0050409999999999995,0.0,0.0,0.0,0.0050409999999999995,0.0,0.0,0.0,0.007395999999999999,2
1730020318834289215,8919,1730020318749971695,gps,0,0,37.5550693,127.0456837,49.983000000000004,0.005475999999999999,0.0,0.0,0.0,0.005475999999999999,0.0,0.0,0.0,0.008649,2
1730020318964327885,8920,1730020318874971697,gps,0,0,37.5550691,127.04568259999999,50.001,0.005929,0.0,0.0,0.0,0.005929,0.0,0.0,0.0,0.009801,2
1730020319096118441,8921,1730020318999971700,gps,0,0,37.5550691,127.0456815,49.983000000000004,0.0064,0.0,0.0,0.0,0.0064,0.0,0.0,0.0,0.011024999999999998,2
1730020319217339682,8922,1730020319124971701,gps,0,0,37.5550691,127.0456803,50.002,0.006889000000000001,0.0,0.0,0.0,0.006889000000000001,0.0,0.0,0.0,0.012321,2
1730020319341282233,8923,1730020319249971703,gps,0,0,37.555068999999996,127.0456792,50.006,0.007395999999999999,0.0,0.0,0.0,0.007395999999999999,0.0,0.0,0.0,0.013689000000000002,2
1730020319466167531,8924,1730020319374971705,gps,0,0,37.555068899999995,127.0456779,50.0,0.007921,0.0,0.0,0.0,0.007921,0.0,0.0,0.0,0.014884,2
1730020319598294454,8925,1730020319499971708,gps,2,0,37.5550694,127.0456766,49.899,0.00019600000000000002,0.0,0.0,0.0,0.00019600000000000002,0.0,0.0,0.0,0.000256,2
1730020319710997548,8926,1730020319624971710,gps,2,0,37.5550692,127.04567549999999,49.891,0.00019600000000000002,0.0,0.0,0.0,0.00019600000000000002,0.0,0.0,0.0,0.000144,2
1730020319846115721,8927,1730020319749971712,gps,2,0,37.5550693,127.0456742,49.886,0.00019600000000000002,0.0,0.0,0.0,0.00019600000000000002,0.0,0.0,0.0,0.000144,2
1730020319967390869,8928,1730020319874971714,gps,2,0,37.5550692,127.045673,49.899,0.00019600000000000002,0.0,0.0,0.0,0.00019600000000000002,0.0,0.0,0.0,0.000144,2
1730020320098866502,8929,1730020319999971717,gps,2,0,37.5550692,127.0456717,49.895,0.00019600000000000002,0.0,0.0,0.0,0.00019600000000000002,0.0,0.0,0.0,0.000144,2
1730020320203312520,8930,1730020320124971719,gps,2,0,37.5550691,127.04567039999999,49.893,0.00019600000000000002,0.0,0.0,0.0,0.00019600000000000002,0.0,0.0,0.0,0.000144,2
1730020320327165506,8931,1730020320249971721,gps,2,0,37.555068999999996,127.0456691,49.89,0.00019600000000000002,0.0,0.0,0.0,0.00019600000000000002,0.0,0.0,0.0,0.000144,2
1730020320471399315,8932,1730020320374971723,gps,2,0,37.555068999999996,127.0456677,49.871,0.00019600000000000002,0.0,0.0,0.0,0.00019600000000000002,0.0,0.0,0.0,0.000144,2
1730020320566155227,8933,1730020320499971725,gps,0,0,37.555068999999996,127.0456665,49.859,0.00028900000000000003,0.0,0.0,0.0,0.00028900000000000003,0.0,0.0,0.0,0.000361,2
1730020320693214390,8934,1730020320624971727,gps,0,0,37.5550688,127.0456651,49.870000000000005,0.000256,0.0,0.0,0.0,0.000256,0.0,0.0,0.0,0.000361,2
1730020320823911890,8935,1730020320749971729,gps,0,0,37.5550688,127.0456638,49.906,0.00019600000000000002,0.0,0.0,0.0,0.00019600000000000002,0.0,0.0,0.0,0.00032399999999999996,2
1730020320949118477,8936,1730020320874971731,gps,0,0,37.5550687,127.04566229999999,49.896,0.000225,0.0,0.0,0.0,0.000225,0.0,0.0,0.0,0.000361,2
1730020321074719989,8937,1730020320999971735,gps,0,0,37.5550687,127.04566089999999,49.901,0.000676,0.0,0.0,0.0,0.000676,0.0,0.0,0.0,0.000676,2
1730020321216089563,8938,1730020321124971736,gps,0,0,37.5550686,127.04565939999999,49.904,0.0012959999999999998,0.0,0.0,0.0,0.0012959999999999998,0.0,0.0,0.0,0.0012250000000000002,2
1730020321350853740,8939,1730020321249971738,gps,0,0,37.5550686,127.04565799999999,49.903,0.0017640000000000002,0.0,0.0,0.0,0.0017640000000000002,0.0,0.0,0.0,0.002025,2
1730020321467079506,8940,1730020321374971740,gps,0,0,37.5550686,127.0456566,49.903,0.002209,0.0,0.0,0.0,0.002209,0.0,0.0,0.0,0.0029159999999999998,2
1730020321575822762,8941,1730020321499971742,gps,0,0,37.5550687,127.04565509999999,49.9,0.002704,0.0,0.0,0.0,0.002704,0.0,0.0,0.0,0.003969,2
1730020321720379021,8942,1730020321624971744,gps,0,0,37.5550687,127.0456536,49.906,0.0031360000000000003,0.0,0.0,0.0,0.0031360000000000003,0.0,0.0,0.0,0.0050409999999999995,2
1730020321844869276,8943,1730020321749971746,gps,0,0,37.5550688,127.04565219999999,49.908,0.0036,0.0,0.0,0.0,0.0036,0.0,0.0,0.0,0.006241,2
1730020321950731580,8944,1730020321874971748,gps,0,0,37.555068899999995,127.04565079999999,49.906,0.004096,0.0,0.0,0.0,0.004096,0.0,0.0,0.0,0.007395999999999999,2
1730020322079998151,8945,1730020321999971751,gps,0,0,37.555068999999996,127.04564939999999,49.909,0.004489000000000001,0.0,0.0,0.0,0.004489000000000001,0.0,0.0,0.0,0.008649,2
1730020322199191295,8946,1730020322124971752,gps,0,0,37.555068999999996,127.04564789999999,49.907000000000004,0.0050409999999999995,0.0,0.0,0.0,0.0050409999999999995,0.0,0.0,0.0,0.010000000000000002,2
1730020322325830848,8947,1730020322249971754,gps,0,0,37.5550692,127.04564649999999,49.911,0.005475999999999999,0.0,0.0,0.0,0.005475999999999999,0.0,0.0,0.0,0.011448999999999999,2
1730020322450667134,8948,1730020322374971757,gps,0,0,37.5550692,127.045645,49.931000000000004,0.005929,0.0,0.0,0.0,0.005929,0.0,0.0,0.0,0.012769,2
1730020322586265350,8949,1730020322499971759,gps,2,0,37.5550697,127.0456435,49.846000000000004,0.00019600000000000002,0.0,0.0,0.0,0.00019600000000000002,0.0,0.0,0.0,0.000256,2
1730020322707057472,8950,1730020322624971761,gps,2,0,37.5550698,127.0456423,49.856,0.00019600000000000002,0.0,0.0,0.0,0.00019600000000000002,0.0,0.0,0.0,0.000169,2
1730020322828432817,8951,1730020322749971763,gps,2,0,37.5550699,127.0456408,49.878,0.00019600000000000002,0.0,0.0,0.0,0.00019600000000000002,0.0,0.0,0.0,0.000225,2
1730020322952369075,8952,1730020322874971765,gps,2,0,37.5550701,127.04563929999999,49.907000000000004,0.00019600000000000002,0.0,0.0,0.0,0.00019600000000000002,0.0,0.0,0.0,0.00028900000000000003,2
1730020323084362937,8953,1730020322999971768,gps,2,0,37.5550703,127.04563789999999,49.913000000000004,0.00019600000000000002,0.0,0.0,0.0,0.00019600000000000002,0.0,0.0,0.0,0.000225,2
1730020323205297997,8954,1730020323124971769,gps,2,0,37.5550705,127.04563639999999,49.925000000000004,0.00019600000000000002,0.0,0.0,0.0,0.00019600000000000002,0.0,0.0,0.0,0.000256,2
1730020323315141025,8955,1730020323249971771,gps,0,0,37.555070799999996,127.0456346,49.927,0.0007840000000000001,0.0,0.0,0.0,0.0007840000000000001,0.0,0.0,0.0,0.00044100000000000004,2
1730020323445273092,8956,1730020323374971773,gps,0,0,37.555071,127.0456332,49.954,0.001024,0.0,0.0,0.0,0.001024,0.0,0.0,0.0,0.000576,2
1730020323573998406,8957,1730020323499971775,gps,0,0,37.555071399999996,127.04563139999999,49.959,0.000361,0.0,0.0,0.0,0.000361,0.0,0.0,0.0,0.0004,2
1730020323699915627,8958,1730020323624971778,gps,0,0,37.5550715,127.0456298,49.953,0.00028900000000000003,0.0,0.0,0.0,0.00028900000000000003,0.0,0.0,0.0,0.000361,2
1730020323824371445,8959,1730020323749971780,gps,0,0,37.5550717,127.0456282,49.952,0.00032399999999999996,0.0,0.0,0.0,0.00032399999999999996,0.0,0.0,0.0,0.000529,2
1730020323950875227,8960,1730020323874971782,gps,0,0,37.5550718,127.0456268,49.949,0.00028900000000000003,0.0,0.0,0.0,0.00028900000000000003,0.0,0.0,0.0,0.0006250000000000001,2
1730020324081228242,8961,1730020323999971785,gps,0,0,37.555071999999996,127.0456251,49.935,0.00028900000000000003,0.0,0.0,0.0,0.00028900000000000003,0.0,0.0,0.0,0.0006250000000000001,2
1730020324195195158,8962,1730020324124971786,gps,0,0,37.555071999999996,127.0456237,49.944,0.00028900000000000003,0.0,0.0,0.0,0.00028900000000000003,0.0,0.0,0.0,0.0006250000000000001,2
1730020324343401755,8963,1730020324249971788,gps,0,0,37.5550723,127.0456222,49.943,0.00028900000000000003,0.0,0.0,0.0,0.00028900000000000003,0.0,0.0,0.0,0.0006250000000000001,2
1730020324450931806,8964,1730020324374971790,gps,0,0,37.5550723,127.0456208,49.934,0.00028900000000000003,0.0,0.0,0.0,0.00028900000000000003,0.0,0.0,0.0,0.0006250000000000001,2
1730020324575234045,8965,1730020324499971792,gps,0,0,37.555072599999995,127.04561919999999,49.924,0.000256,0.0,0.0,0.0,0.000256,0.0,0.0,0.0,0.0006250000000000001,2
1730020324703386742,8966,1730020324624971794,gps,2,0,37.5550725,127.0456181,49.874,0.00019600000000000002,0.0,0.0,0.0,0.00019600000000000002,0.0,0.0,0.0,0.000225,2
1730020324825954869,8967,1730020324749971796,gps,2,0,37.555072599999995,127.04561659999999,49.882,0.00019600000000000002,0.0,0.0,0.0,0.00019600000000000002,0.0,0.0,0.0,0.00012099999999999999,2
1730020324952062211,8968,1730020324874971799,gps,2,0,37.5550728,127.0456152,49.882,0.00019600000000000002,0.0,0.0,0.0,0.00019600000000000002,0.0,0.0,0.0,0.00012099999999999999,2
1730020325076027552,8969,1730020324999971802,gps,2,0,37.5550729,127.0456136,49.884,0.00019600000000000002,0.0,0.0,0.0,0.00019600000000000002,0.0,0.0,0.0,0.00012099999999999999,2
1730020325199666518,8970,1730020325124971803,gps,0,0,37.5550728,127.0456121,49.876,0.00019600000000000002,0.0,0.0,0.0,0.00019600000000000002,0.0,0.0,0.0,0.000225,2
1730020325323348720,8971,1730020325249971805,gps,0,0,37.555073199999995,127.0456107,49.902,0.00019600000000000002,0.0,0.0,0.0,0.00019600000000000002,0.0,0.0,0.0,0.000256,2
1730020325449241080,8972,1730020325374971807,gps,0,0,37.5550733,127.0456091,49.919000000000004,0.00019600000000000002,0.0,0.0,0.0,0.00019600000000000002,0.0,0.0,0.0,0.00028900000000000003,2
1730020325564165566,8973,1730020325499971809,gps,0,0,37.5550735,127.0456074,49.931000000000004,0.0017640000000000002,0.0,0.0,0.0,0.0017640000000000002,0.0,0.0,0.0,0.0006250000000000001,2
1730020325689254041,8974,1730020325624971811,gps,0,0,37.5550735,127.04560599999999,49.941,0.002304,0.0,0.0,0.0,0.002304,0.0,0.0,0.0,0.0011560000000000001,2
1730020325815892754,8975,1730020325749971813,gps,0,0,37.5550737,127.04560439999999,49.947,0.003025,0.0,0.0,0.0,0.003025,0.0,0.0,0.0,0.002025,2
1730020325944243297,8976,1730020325874971815,gps,0,0,37.5550737,127.045603,49.952,0.0034809999999999997,0.0,0.0,0.0,0.0034809999999999997,0.0,0.0,0.0,0.003025,2
1730020326068912359,8977,1730020325999971819,gps,0,0,37.5550739,127.0456014,49.948,0.0042250000000000005,0.0,0.0,0.0,0.0042250000000000005,0.0,0.0,0.0,0.0043560000000000005,2
1730020326193157281,8978,1730020326124971820,gps,0,0,37.5550742,127.0455999,49.956,0.0053289999999999995,0.0,0.0,0.0,0.0053289999999999995,0.0,0.0,0.0,0.005929,2
1730020326319327439,8979,1730020326249971822,gps,0,0,37.555074499999996,127.0455985,49.966,0.006241,0.0,0.0,0.0,0.006241,0.0,0.0,0.0,0.007743999999999999,2
1730020326448053802,8980,1730020326374971824,gps,0,0,37.555074499999996,127.045597,49.972,0.006724000000000001,0.0,0.0,0.0,0.006724000000000001,0.0,0.0,0.0,0.009216,2
1730020326573380081,8981,1730020326499971826,gps,0,0,37.5550746,127.0455954,49.993,0.007056000000000001,0.0,0.0,0.0,0.007056000000000001,0.0,0.0,0.0,0.010608999999999999,2
1730020326715655007,8982,1730020326624971828,gps,0,0,37.5550746,127.0455939,49.993,0.007568999999999999,0.0,0.0,0.0,0.007568999999999999,0.0,0.0,0.0,0.0121,2
1730020326822013103,8983,1730020326749971830,gps,0,0,37.5550748,127.0455923,50.001,0.0081,0.0,0.0,0.0,0.0081,0.0,0.0,0.0,0.013456000000000001,2
1730020326949928344,8984,1730020326874971832,gps,0,0,37.5550748,127.04559099999999,50.032000000000004,0.008464,0.0,0.0,0.0,0.008464,0.0,0.0,0.0,0.014884,2
1730020327082552287,8985,1730020326999971835,gps,0,0,37.5550747,127.04558949999999,50.079,0.009025,0.0,0.0,0.0,0.009025,0.0,0.0,0.0,0.015876,2
1730020327203238376,8986,1730020327124971836,gps,0,0,37.5550747,127.045588,50.11,0.009409,0.0,0.0,0.0,0.009409,0.0,0.0,0.0,0.017161000000000003,2
1730020327328212410,8987,1730020327249971838,gps,0,0,37.5550747,127.0455866,50.148,0.009801,0.0,0.0,0.0,0.009801,0.0,0.0,0.0,0.018225,2
1730020327454099903,8988,1730020327374971840,gps,0,0,37.5550746,127.0455851,50.187,0.010201000000000002,0.0,0.0,0.0,0.010201000000000002,0.0,0.0,0.0,0.019600000000000003,2
1730020327582371567,8989,1730020327499971842,gps,2,0,37.5550743,127.04558309999999,49.945,0.00019600000000000002,0.0,0.0,0.0,0.00019600000000000002,0.0,0.0,0.0,0.0004,2
1730020327709204349,8990,1730020327624971844,gps,2,0,37.5550742,127.04558159999999,49.921,0.00019600000000000002,0.0,0.0,0.0,0.00019600000000000002,0.0,0.0,0.0,0.000144,2
1730020327827132873,8991,1730020327749971847,gps,2,0,37.5550741,127.04558,49.912,0.00019600000000000002,0.0,0.0,0.0,0.00019600000000000002,0.0,0.0,0.0,0.00012099999999999999,2
1730020327957326363,8992,1730020327874971849,gps,2,0,37.5550739,127.0455784,49.906,0.00019600000000000002,0.0,0.0,0.0,0.00019600000000000002,0.0,0.0,0.0,0.0001,2
1730020328087416289,8993,1730020327999971852,gps,2,0,37.5550737,127.0455769,49.904,0.00019600000000000002,0.0,0.0,0.0,0.00019600000000000002,0.0,0.0,0.0,0.0001,2
1730020328208064215,8994,1730020328124971853,gps,2,0,37.5550736,127.04557539999999,49.899,0.00019600000000000002,0.0,0.0,0.0,0.00019600000000000002,0.0,0.0,0.0,0.0001,2
1730020328335752277,8995,1730020328249971855,gps,2,0,37.5550735,127.0455738,49.916000000000004,0.00019600000000000002,0.0,0.0,0.0,0.00019600000000000002,0.0,0.0,0.0,0.00012099999999999999,2
1730020328465281433,8996,1730020328374971857,gps,2,0,37.5550735,127.0455722,49.918,0.00019600000000000002,0.0,0.0,0.0,0.00019600000000000002,0.0,0.0,0.0,0.000144,2
1730020328580925851,8997,1730020328499971859,gps,2,0,37.555073199999995,127.0455707,49.92,0.00019600000000000002,0.0,0.0,0.0,0.00019600000000000002,0.0,0.0,0.0,0.000144,2
1730020328718452562,8998,1730020328624971861,gps,2,0,37.5550731,127.0455693,49.915,0.00019600000000000002,0.0,0.0,0.0,0.00019600000000000002,0.0,0.0,0.0,0.00019600000000000002,2
1730020328854390165,8999,1730020328749971863,gps,2,0,37.5550729,127.04556769999999,49.921,0.00019600000000000002,0.0,0.0,0.0,0.00019600000000000002,0.0,0.0,0.0,0.000256,2
1730020328976277085,9000,1730020328874971865,gps,2,0,37.5550728,127.0455662,49.933,0.00019600000000000002,0.0,0.0,0.0,0.00019600000000000002,0.0,0.0,0.0,0.00028900000000000003,2
1730020329084329408,9001,1730020328999971869,gps,2,0,37.5550727,127.04556459999999,49.925000000000004,0.00019600000000000002,0.0,0.0,0.0,0.00019600000000000002,0.0,0.0,0.0,0.00028900000000000003,2
1730020329209311147,9002,1730020329124971870,gps,2,0,37.555072599999995,127.0455631,49.921,0.00019600000000000002,0.0,0.0,0.0,0.00019600000000000002,0.0,0.0,0.0,0.00028900000000000003,2
1730020329333489885,9003,1730020329249971872,gps,2,0,37.5550724,127.0455614,49.948,0.000225,0.0,0.0,0.0,0.000225,0.0,0.0,0.0,0.00028900000000000003,2
1730020329453165271,9004,1730020329374971874,gps,2,0,37.5550724,127.04556009999999,49.96,0.00019600000000000002,0.0,0.0,0.0,0.00019600000000000002,0.0,0.0,0.0,0.000256,2
1730020329579835376,9005,1730020329499971876,gps,2,0,37.5550724,127.0455585,49.975,0.00019600000000000002,0.0,0.0,0.0,0.00019600000000000002,0.0,0.0,0.0,0.00019600000000000002,2
1730020329705545518,9006,1730020329624971878,gps,2,0,37.5550724,127.04555699999999,49.962,0.00019600000000000002,0.0,0.0,0.0,0.00019600000000000002,0.0,0.0,0.0,0.00019600000000000002,2
1730020329829053446,9007,1730020329749971880,gps,2,0,37.5550725,127.0455554,49.954,0.00019600000000000002,0.0,0.0,0.0,0.00019600000000000002,0.0,0.0,0.0,0.000169,2
1730020329954198288,9008,1730020329874971882,gps,2,0,37.5550724,127.04555389999999,49.969,0.00019600000000000002,0.0,0.0,0.0,0.00019600000000000002,0.0,0.0,0.0,0.000169,2
1730020330083166247,9009,1730020329999971886,gps,2,0,37.5550724,127.0455523,49.952,0.00019600000000000002,0.0,0.0,0.0,0.00019600000000000002,0.0,0.0,0.0,0.000169,2
1730020330204152743,9010,1730020330124971887,gps,2,0,37.5550725,127.04555069999999,49.964,0.00019600000000000002,0.0,0.0,0.0,0.00019600000000000002,0.0,0.0,0.0,0.000225,2
1730020330328212788,9011,1730020330249971889,gps,2,0,37.5550724,127.04554909999999,49.963,0.00019600000000000002,0.0,0.0,0.0,0.00019600000000000002,0.0,0.0,0.0,0.000169,2
1730020330446140624,9012,1730020330374971891,gps,2,0,37.5550724,127.04554759999999,49.963,0.00019600000000000002,0.0,0.0,0.0,0.00019600000000000002,0.0,0.0,0.0,0.000256,2
1730020330570923303,9013,1730020330499971893,gps,0,0,37.5550724,127.04554619999999,49.967,0.0007840000000000001,0.0,0.0,0.0,0.0007840000000000001,0.0,0.0,0.0,0.00044100000000000004,2
1730020330698444056,9014,1730020330624971895,gps,0,0,37.5550724,127.0455444,49.969,0.000225,0.0,0.0,0.0,0.000225,0.0,0.0,0.0,0.000361,2
1730020330845844881,9015,1730020330749971897,gps,0,0,37.5550725,127.04554279999999,49.973,0.00019600000000000002,0.0,0.0,0.0,0.00019600000000000002,0.0,0.0,0.0,0.00032399999999999996,2
1730020330974183243,9016,1730020330874971899,gps,0,0,37.5550725,127.0455411,49.968,0.000225,0.0,0.0,0.0,0.000225,0.0,0.0,0.0,0.00044100000000000004,2
1730020331079161894,9017,1730020330999971902,gps,0,0,37.5550725,127.04553949999999,49.96,0.000225,0.0,0.0,0.0,0.000225,0.0,0.0,0.0,0.000529,2
1730020331205865007,9018,1730020331124971903,gps,0,0,37.5550723,127.0455379,49.957,0.000225,0.0,0.0,0.0,0.000225,0.0,0.0,0.0,0.000529,2
1730020331325807820,9019,1730020331249971905,gps,0,0,37.5550724,127.0455367,49.949,0.00028900000000000003,0.0,0.0,0.0,0.00028900000000000003,0.0,0.0,0.0,0.0007289999999999999,2
1730020331446007941,9020,1730020331374971907,gps,0,0,37.5550723,127.04553539999999,49.942,0.0010890000000000001,0.0,0.0,0.0,0.0010890000000000001,0.0,0.0,0.0,0.0012250000000000002,2
1730020331580053420,9021,1730020331499971909,gps,0,0,37.5550724,127.04553399999999,49.935,0.0012959999999999998,0.0,0.0,0.0,0.0012959999999999998,0.0,0.0,0.0,0.0016810000000000002,2
