%time,field.stamp,field.id,field.x,field.y,field.z,field.distanceFromTag,field.rssi,field.rssi_fp
1733053256750998064,1733053256750827312,5,-0.36,-0.46,1.97,3.8586006666666663,-79.06,-80.62
1733053256850708460,1733053256850601911,5,-0.36,-0.46,1.97,3.8460929999999998,-79.26,-80.8
1733053256948268676,1733053256947883367,5,-0.36,-0.46,1.97,3.8711083333333334,-79.32,-81.5
1733053257048397509,1733053257047889471,5,-0.36,-0.46,1.97,3.852346666666667,-79.43,-80.92
1733053257149272523,1733053257149101734,5,-0.36,-0.46,1.97,3.839839,-79.25,-80.59
1733053257249600865,1733053257249263525,5,-0.36,-0.46,1.97,3.8210773333333337,-78.92,-80.58
1733053257349325028,1733053257349133968,5,-0.36,-0.46,1.97,3.8210773333333337,-79.15,-80.79
1733053257449227091,1733053257449044704,5,-0.36,-0.46,1.97,3.814823333333333,-79.24,-81.0
1733053257550371918,1733053257550175905,5,-0.36,-0.46,1.97,3.814823333333333,-79.0,-80.41
1733053257650223940,1733053257650061607,5,-0.36,-0.46,1.97,3.7960619999999996,-79.27,-80.68
1733053257749494339,1733053257749307394,5,-0.36,-0.46,1.97,3.808569666666667,-79.14,-81.04
1733053257849726131,1733053257849348545,5,-0.36,-0.46,1.97,3.802316,-79.19,-81.27
1733053257948315275,1733053257947880268,5,-0.36,-0.46,1.97,3.8210773333333337,-79.13,-80.6
1733053258048590754,1733053258047958850,5,-0.36,-0.46,1.97,3.8273313333333334,-79.25,-81.52
1733053258150927299,1733053258150742053,5,-0.36,-0.46,1.97,3.8273313333333334,-79.18,-80.65
1733053258250687172,1733053258250522613,5,-0.36,-0.46,1.97,3.8335853333333336,-79.08,-80.46
1733053258350923291,1733053258350786447,5,-0.36,-0.46,1.97,3.814823666666667,-79.45,-81.23
1733053258450785432,1733053258450668096,5,-0.36,-0.46,1.97,3.833585,-79.82,-81.15
1733053258550751636,1733053258550586938,5,-0.36,-0.46,1.97,3.821077333333333,-79.3,-81.06
1733053258651377218,1733053258651153802,5,-0.36,-0.46,1.97,3.8273313333333334,-79.12,-80.58
1733053258750981736,1733053258750751495,5,-0.36,-0.46,1.97,3.8273313333333334,-79.39,-80.86
1733053258850964695,1733053258850707054,5,-0.36,-0.46,1.97,3.8273313333333334,-79.3,-81.16
1733053258950880027,1733053258950612306,5,-0.36,-0.46,1.97,3.846092666666667,-79.34,-81.13
1733053259051399401,1733053259051244020,5,-0.36,-0.46,1.97,3.833585,-79.04,-81.52
1733053259150360424,1733053259150107860,5,-0.36,-0.46,1.97,3.833585,-79.25,-81.05
1733053259250167994,1733053259250037431,5,-0.36,-0.46,1.97,3.833585,-79.31,-81.1
1733053259349533626,1733053259349133491,5,-0.36,-0.46,1.97,3.8273313333333334,-79.24,-81.12
1733053259449407819,1733053259449105739,5,-0.36,-0.46,1.97,3.846092666666667,-79.14,-80.81
1733053259549270418,1733053259549003362,5,-0.36,-0.46,1.97,3.8273313333333334,-78.98,-81.39
1733053259649510849,1733053259649228811,5,-0.36,-0.46,1.97,3.821077333333333,-79.34,-81.23
1733053259750538041,1733053259750208139,5,-0.36,-0.46,1.97,3.8273313333333334,-79.26,-80.98
1733053259950082683,1733053259949915170,5,-0.36,-0.46,1.97,3.839839,-79.07,-81.9
1733053260050220305,1733053260050094604,5,-0.36,-0.46,1.97,3.864854333333333,-79.19,-80.58
1733053260150962367,1733053260150858640,5,-0.36,-0.46,1.97,3.846092666666667,-79.13,-80.86
1733053260251328973,1733053260251160144,5,-0.36,-0.46,1.97,3.833585,-79.31,-81.15
1733053260351259795,1733053260351117134,5,-0.36,-0.46,1.97,3.814823666666667,-79.43,-81.31
1733053260451222001,1733053260450897932,5,-0.36,-0.46,1.97,3.821077666666667,-79.62,-81.45
1733053260550440402,1733053260550178527,5,-0.36,-0.46,1.97,3.8460929999999998,-79.13,-80.69
1733053260650469046,1733053260650330543,5,-0.36,-0.46,1.97,3.8711083333333334,-79.53,-80.78
1733053260750480317,1733053260750295639,5,-0.36,-0.46,1.97,3.8586006666666663,-79.11,-81.26
1733053260850117251,1733053260850040435,5,-0.36,-0.46,1.97,3.833585333333333,-79.55,-81.22
1733053260951105380,1733053260950858831,5,-0.36,-0.46,1.97,3.814823666666667,-79.37,-81.21
1733053261051551254,1733053261051329612,5,-0.36,-0.46,1.97,3.808569666666667,-79.19,-81.03
1733053261151099820,1733053261150936365,5,-0.36,-0.46,1.97,3.833585,-79.32,-80.94
1733053261251316831,1733053261251050710,5,-0.36,-0.46,1.97,3.839839,-79.0,-80.66
1733053261351520455,1733053261351309299,5,-0.36,-0.46,1.97,3.8586006666666663,-79.04,-80.8
1733053261451108994,1733053261450912237,5,-0.36,-0.46,1.97,3.852346666666667,-79.18,-81.99
1733053261551032927,1733053261550719261,5,-0.36,-0.46,1.97,3.833585,-79.15,-80.62
1733053261651355524,1733053261651025772,5,-0.36,-0.46,1.97,3.8398386666666666,-79.07,-80.59
1733053261751700200,1733053261751562356,5,-0.36,-0.46,1.97,3.821077333333333,-78.97,-81.53
1733053261851212297,1733053261850954771,5,-0.36,-0.46,1.97,3.833585,-78.89,-81.67
1733053261951015591,1733053261950861930,5,-0.36,-0.46,1.97,3.833585,-79.1,-80.61
1733053262051943114,1733053262051652431,5,-0.36,-0.46,1.97,3.846092666666667,-79.29,-82.08
1733053262151407492,1733053262151324510,5,-0.36,-0.46,1.97,3.846092666666667,-79.24,-80.71
1733053262251160576,1733053262251014947,5,-0.36,-0.46,1.97,3.8335850000000007,-79.27,-80.87
1733053262748320790,1733053262747930526,5,-0.36,-0.46,1.97,3.821077666666667,-79.19,-80.61
1733053262849914593,1733053262849534273,5,-0.36,-0.46,1.97,3.80857,-79.08,-81.22
1733053262949883713,1733053262949403047,5,-0.36,-0.46,1.97,3.8335853333333336,-79.3,-81.05
1733053263048341349,1733053263047948122,5,-0.36,-0.46,1.97,3.839839,-79.16,-80.88
1733053263148281231,1733053263147929668,5,-0.36,-0.46,1.97,3.871108,-79.61,-80.76
1733053263250497064,1733053263250240325,5,-0.36,-0.46,1.97,3.877361666666667,-78.95,-81.7
1733053263351058427,1733053263350907564,5,-0.36,-0.46,1.97,3.871108,-79.51,-81.23
1733053263449970473,1733053263449673414,5,-0.36,-0.46,1.97,3.852346666666667,-79.27,-81.12
1733053263549645053,1733053263549375295,5,-0.36,-0.46,1.97,3.852346666666667,-78.87,-81.7
1733053263650258224,1733053263649954319,5,-0.36,-0.46,1.97,3.833585,-79.38,-80.9
1733053263749404642,1733053263749183654,5,-0.36,-0.46,1.97,3.833585,-79.1,-80.48
1733053263849663966,1733053263849320173,5,-0.36,-0.46,1.97,3.833585,-79.31,-80.82
1733053263949950394,1733053263949482917,5,-0.36,-0.46,1.97,3.846092666666667,-79.39,-80.97
1733053264049782133,1733053264049561262,5,-0.36,-0.46,1.97,3.846092666666667,-79.23,-81.07
1733053264149894798,1733053264149633884,5,-0.36,-0.46,1.97,3.846092666666667,-78.97,-80.67
1733053264249664021,1733053264249171733,5,-0.36,-0.46,1.97,3.852346666666667,-79.2,-80.73
1733053264350068586,1733053264349713563,5,-0.36,-0.46,1.97,3.833585,-79.11,-80.8
1733053264449785149,1733053264449675083,5,-0.36,-0.46,1.97,3.839839,-79.1,-80.84
1733053264549605894,1733053264549306631,5,-0.36,-0.46,1.97,3.833585,-79.2,-80.78
1733053264649991726,1733053264649694681,5,-0.36,-0.46,1.97,3.814823333333333,-79.17,-80.74
1733053264750118103,1733053264749912023,5,-0.36,-0.46,1.97,3.821077333333333,-79.2,-82.06
1733053264850032081,1733053264849714756,5,-0.36,-0.46,1.97,3.852346666666667,-79.38,-80.65
1733053264949859056,1733053264949539661,5,-0.36,-0.46,1.97,3.8711083333333334,-78.98,-80.5
1733053265049925529,1733053265049726724,5,-0.36,-0.46,1.97,3.8711083333333334,-79.39,-81.23
1733053265149543800,1733053265149345397,5,-0.36,-0.46,1.97,3.864854333333333,-79.43,-81.94
1733053265249582652,1733053265249156713,5,-0.36,-0.46,1.97,3.8648543333333336,-79.22,-80.81
1733053265349737850,1733053265349501132,5,-0.36,-0.46,1.97,3.858600333333333,-78.89,-81.26
1733053265449794666,1733053265449696302,5,-0.36,-0.46,1.97,3.846092666666667,-79.08,-80.63
1733053265549862488,1733053265549455881,5,-0.36,-0.46,1.97,3.833585,-79.12,-80.91
1733053265648276308,1733053265647905826,5,-0.36,-0.46,1.97,3.8273313333333334,-78.89,-80.71
1733053265748332106,1733053265747908353,5,-0.36,-0.46,1.97,3.852346666666667,-79.16,-80.82
1733053265848293752,1733053265847935199,5,-0.36,-0.46,1.97,3.883615666666667,-78.93,-80.88
1733053265949481775,1733053265949237585,5,-0.36,-0.46,1.97,3.933646,-78.99,-80.97
1733053266049776661,1733053266049390077,5,-0.36,-0.46,1.97,3.9273923333333336,-78.81,-80.57
1733053266149742821,1733053266149340152,5,-0.36,-0.46,1.97,3.902377,-79.56,-81.09
1733053266249773226,1733053266249382972,5,-0.36,-0.46,1.97,3.8773619999999998,-78.89,-80.55
1733053266349992466,1733053266349665641,5,-0.36,-0.46,1.97,3.896123333333333,-79.16,-80.99
1733053266449461184,1733053266449201583,5,-0.36,-0.46,1.97,3.9211386666666663,-79.08,-81.62
1733053266549646379,1733053266549334049,5,-0.36,-0.46,1.97,3.952407666666667,-79.12,-81.82
1733053266649613165,1733053266649296998,5,-0.36,-0.46,1.97,3.9649153333333333,-79.15,-80.58
1733053266749243695,1733053266749034643,5,-0.36,-0.46,1.97,3.9836766666666663,-79.29,-80.63
1733053266849410288,1733053266849081277,5,-0.36,-0.46,1.97,3.977422666666667,-79.93,-81.18
1733053266949885051,1733053266949623823,5,-0.36,-0.46,1.97,3.9836763333333334,-79.79,-81.11
1733053267049593426,1733053267049345254,5,-0.36,-0.46,1.97,3.9899299999999998,-79.37,-80.6
1733053267148180458,1733053267147885560,5,-0.36,-0.46,1.97,4.021199,-79.52,-81.29
1733053267248369509,1733053267247899532,5,-0.36,-0.46,1.97,4.052468,-79.07,-80.52
1733053267350044591,1733053267349367618,5,-0.36,-0.46,1.97,4.096245000000001,-78.75,-80.53
1733053267449573954,1733053267449271917,5,-0.36,-0.46,1.97,4.140021666666667,-78.9,-80.59
1733053267549436613,1733053267549135446,5,-0.36,-0.46,1.97,4.196306,-79.25,-80.7
1733053267650215768,1733053267649694204,5,-0.36,-0.46,1.97,4.233828666666667,-79.14,-80.63
1733053268052025368,1733053268051900863,5,-0.36,-0.46,1.97,4.408935666666666,-78.6,-80.4
1733053268151102661,1733053268150947332,5,-0.36,-0.46,1.97,4.452712333333333,-78.85,-80.38
1733053268250940254,1733053268250735521,5,-0.36,-0.46,1.97,4.515250333333333,-79.66,-80.94
1733053268352277927,1733053268351928949,5,-0.36,-0.46,1.97,4.552773,-79.26,-80.51
1733053268451286323,1733053268450973749,5,-0.36,-0.46,1.97,4.577788333333333,-79.37,-80.56
1733053268550577523,1733053268550435066,5,-0.36,-0.46,1.97,4.609057333333333,-78.7,-80.42
1733053268651193857,1733053268650893211,5,-0.36,-0.46,1.97,4.702864666666667,-78.61,-80.89
1733053268751066407,1733053268750754833,5,-0.36,-0.46,1.97,4.796671666666667,-79.07,-80.95
1733053268850566403,1733053268850330114,5,-0.36,-0.46,1.97,4.884225,-78.79,-80.71
1733053268950901344,1733053268950634002,5,-0.36,-0.46,1.97,4.902986333333334,-78.89,-80.33
1733053269050748821,1733053269050587177,5,-0.36,-0.46,1.97,4.959270666666666,-78.96,-80.56
1733053269151162231,1733053269150940418,5,-0.36,-0.46,1.97,5.003047333333334,-78.99,-80.62
1733053269250272326,1733053269250000238,5,-0.36,-0.46,1.97,5.103108333333334,-78.98,-80.48
1733053269350895245,1733053269350682735,5,-0.36,-0.46,1.97,5.190661666666667,-78.72,-80.4
1733053269450570066,1733053269450358867,5,-0.36,-0.46,1.97,5.284468666666666,-79.24,-81.04
1733053269550570652,1733053269550363063,5,-0.36,-0.46,1.97,5.328245333333333,-79.2,-80.61
1733053269650332931,1733053269650146245,5,-0.36,-0.46,1.97,5.384529666666666,-78.91,-80.84
1733053269751241465,1733053269750930547,5,-0.36,-0.46,1.97,5.440814,-78.7,-80.72
1733053269850751131,1733053269850549936,5,-0.36,-0.46,1.97,5.5533823333333325,-78.92,-81.88
1733053269950527687,1733053269950371026,5,-0.36,-0.46,1.97,5.647189333333333,-79.09,-80.97
1733053270050667479,1733053270050499916,5,-0.36,-0.46,1.97,5.7159813333333345,-78.9,-80.65
1733053270151259861,1733053270150826930,5,-0.36,-0.46,1.97,5.784773333333334,-79.25,-80.5
1733053270250360434,1733053270250163555,5,-0.36,-0.46,1.97,5.847311666666666,-79.23,-80.95
1733053270349838951,1733053270349543333,5,-0.36,-0.46,1.97,5.934864999999999,-78.7,-80.81
1733053270450174160,1733053270449882030,5,-0.36,-0.46,1.97,6.034926,-78.67,-81.05
1733053270549785240,1733053270549294233,5,-0.36,-0.46,1.97,6.1412406666666675,-79.04,-80.71
1733053270649579315,1733053270649339437,5,-0.36,-0.46,1.97,6.247555333333334,-79.41,-80.95
1733053270749851325,1733053270749492883,5,-0.36,-0.46,1.97,6.328855,-78.73,-80.51
1733053270849661434,1733053270849351882,5,-0.36,-0.46,1.97,6.447677333333334,-78.5,-80.73
1733053270949902870,1733053270949481964,5,-0.36,-0.46,1.97,6.566499666666666,-78.56,-80.64
1733053271050945119,1733053271050725460,5,-0.36,-0.46,1.97,6.685321999999999,-78.8,-81.61
1733053271150797480,1733053271150573730,5,-0.36,-0.46,1.97,6.760367666666666,-79.12,-80.62
1733053271250392729,1733053271250084638,5,-0.36,-0.46,1.97,6.8416673333333335,-79.19,-80.99
1733053271350567376,1733053271350224494,5,-0.36,-0.46,1.97,6.9229666666666665,-79.83,-81.29
1733053271450076256,1733053271449731826,5,-0.36,-0.46,1.97,7.01052,-79.35,-81.27
1733053271550461343,1733053271550232648,5,-0.36,-0.46,1.97,7.060550333333333,-79.3,-80.85
1733053271648253615,1733053271647896528,5,-0.36,-0.46,1.97,7.166865333333333,-78.86,-80.81
1733053271749884017,1733053271749296665,5,-0.36,-0.46,1.97,7.279433999999999,-79.19,-81.84
1733053271849772217,1733053271849421262,5,-0.36,-0.46,1.97,7.435779333333333,-79.08,-82.53
1733053271950545039,1733053271950326681,5,-0.36,-0.46,1.97,7.548347666666667,-79.08,-81.44
1733053272051165927,1733053272050706148,5,-0.36,-0.46,1.97,7.6484086666666675,-79.03,-80.53
1733053272149673768,1733053272149307966,5,-0.36,-0.46,1.97,7.760977,-79.36,-80.47
1733053272249360998,1733053272249058961,5,-0.36,-0.46,1.97,7.998622,-80.08,-81.13
1733053272349800029,1733053272349527835,5,-0.36,-0.46,1.97,8.098683333333334,-79.5,-81.48
1733053272449972773,1733053272449614286,5,-0.36,-0.46,1.97,8.186236666666666,-79.71,-81.24
1733053272549652554,1733053272549371242,5,-0.36,-0.46,1.97,8.298805333333332,-79.56,-82.45
1733053272649335313,1733053272649093866,5,-0.36,-0.46,1.97,8.423881666666666,-79.77,-81.53
1733053272749851059,1733053272749460935,5,-0.36,-0.46,1.97,8.555211666666667,-79.49,-80.76
1733053272849651117,1733053272849231004,5,-0.36,-0.46,1.97,8.630257333333333,-79.46,-80.58
1733053272949448021,1733053272949157953,5,-0.36,-0.46,1.97,8.711556666666667,-79.87,-80.51
1733053273049749849,1733053273049357652,5,-0.36,-0.46,1.97,8.830379,-79.79,-80.63
1733053273249499784,1733053273249128818,5,-0.36,-0.46,1.97,9.024247,-79.62,-81.03
1733053273349312088,1733053273349043369,5,-0.36,-0.46,1.97,9.199353666666667,-79.85,-80.85
1733053273450629326,1733053273450447559,5,-0.36,-0.46,1.97,9.32443,-80.07,-81.56
1733053273550605722,1733053273550337076,5,-0.36,-0.46,1.97,9.411983333333334,-80.09,-81.85
1733053273650397632,1733053273650072097,5,-0.36,-0.46,1.97,9.543313333333332,-80.14,-81.0
1733053273751143700,1733053273750287532,5,-0.36,-0.46,1.97,9.712165999999998,-80.48,-81.55
1733053273852482768,1733053273851742267,5,-0.36,-0.46,1.97,9.843496,-79.77,-80.94
1733053273948396586,1733053273947929143,5,-0.36,-0.46,1.97,9.968572,-80.43,-80.64
1733053274048330687,1733053274047886371,5,-0.36,-0.46,1.97,10.043618,-79.78,-80.48
1733053274148346659,1733053274147901535,5,-0.36,-0.46,1.97,10.187455666666667,-80.21,-80.89
1733053274248312521,1733053274247912168,5,-0.36,-0.46,1.97,10.312532,-80.04,-80.77
1733053274348352759,1733053274347929716,5,-0.36,-0.46,1.97,10.437607999999999,-80.08,-80.75
1733053274448303636,1733053274447959899,5,-0.36,-0.46,1.97,10.556430333333333,-80.03,-81.87
1733053274548354043,1733053274547919511,5,-0.36,-0.46,1.97,10.675253,-81.41,-83.02
1733053274648760657,1733053274647890090,5,-0.36,-0.46,1.97,10.806583000000002,-80.98,-82.65
1733053274748362917,1733053274747902631,5,-0.36,-0.46,1.97,10.906644,-80.92,-81.99
1733053274848342007,1733053274847904205,5,-0.36,-0.46,1.97,11.006704666666666,-80.83,-81.39
1733053274951258117,1733053274951041936,5,-0.36,-0.46,1.97,11.125527,-80.54,-81.17
1733053275050981155,1733053275050804138,5,-0.36,-0.46,1.97,11.281872333333334,-80.03,-80.83
1733053275151658566,1733053275151419639,5,-0.36,-0.46,1.97,11.413201999999998,-80.04,-81.12
1733053275251435339,1733053275251236677,5,-0.36,-0.46,1.97,11.557039666666666,-80.23,-80.76
1733053275350382283,1733053275350200176,5,-0.36,-0.46,1.97,11.650846666666666,-80.94,-81.05
1733053275451815908,1733053275451629161,5,-0.36,-0.46,1.97,11.788431000000001,-79.89,-80.52
1733053275551441943,1733053275551269054,5,-0.36,-0.46,1.97,11.900999666666669,-79.96,-81.21
1733053275651269968,1733053275651069164,5,-0.36,-0.46,1.97,12.026076000000002,-80.31,-80.99
1733053275750979144,1733053275750805616,5,-0.36,-0.46,1.97,12.119882666666667,-80.31,-81.18
1733053275851421387,1733053275851282596,5,-0.36,-0.46,1.97,12.238704666666669,-80.89,-81.61
1733053275951748552,1733053275951432704,5,-0.36,-0.46,1.97,12.376288333333335,-80.8,-81.38
1733053276051033271,1733053276050965785,5,-0.36,-0.46,1.97,12.520126,-81.05,-83.0
1733053276151582443,1733053276151229619,5,-0.36,-0.46,1.97,12.651456333333334,-81.67,-82.28
1733053276251671579,1733053276251279830,5,-0.36,-0.46,1.97,12.757771,-81.15,-82.2
1733053276350776281,1733053276350523710,5,-0.36,-0.46,1.97,12.882847333333332,-81.14,-82.18
1733053276451244781,1733053276450970172,5,-0.36,-0.46,1.97,13.026684666666666,-80.71,-81.2
1733053276551207479,1733053276550888538,5,-0.36,-0.46,1.97,13.170522333333333,-80.43,-81.73
1733053276650545754,1733053276650361299,5,-0.36,-0.46,1.97,13.258075666666668,-80.55,-81.16
1733053276751556314,1733053276751318931,5,-0.36,-0.46,1.97,13.364390333333333,-80.2,-80.61
1733053276851615968,1733053276851357698,5,-0.36,-0.46,1.97,13.476958999999999,-81.28,-81.49
1733053276950367980,1733053276950000286,5,-0.36,-0.46,1.97,13.614542666666667,-80.14,-80.78
1733053277050033316,1733053277049894332,5,-0.36,-0.46,1.97,13.714604000000001,-80.71,-81.07
1733053277149820580,1733053277149739503,5,-0.36,-0.46,1.97,13.802157333333334,-80.05,-80.76
1733053277250713065,1733053277250497102,5,-0.36,-0.46,1.97,13.952249,-80.57,-81.14
1733053277348087701,1733053277347885370,5,-0.36,-0.46,1.97,14.089832666666666,-80.44,-81.42
1733053277448934880,1733053277447901010,5,-0.36,-0.46,1.97,14.239924,-80.4,-81.08
1733053277548344952,1733053277547874927,5,-0.36,-0.46,1.97,14.333731,-80.7,-81.43
1733053277648167123,1733053277647891044,5,-0.36,-0.46,1.97,14.452553333333332,-82.09,-82.94
1733053277748121888,1733053277747879743,5,-0.36,-0.46,1.97,14.590137,-81.15,-81.77
1733053277848257481,1733053277847918748,5,-0.36,-0.46,1.97,14.752736,-81.75,-82.93
1733053277948545511,1733053277947944879,5,-0.36,-0.46,1.97,14.877812,-82.33,-84.48
1733053278049306718,1733053278049102067,5,-0.36,-0.46,1.97,15.015396,-81.94,-82.38
1733053278149139002,1733053278148874998,5,-0.36,-0.46,1.97,15.127964666666665,-82.11,-84.84
1733053278249389620,1733053278249176025,5,-0.36,-0.46,1.97,15.253041000000001,-82.03,-82.45
1733053278350246562,1733053278350033760,5,-0.36,-0.46,1.97,15.390625,-82.44,-82.72
1733053278448661770,1733053278447954654,5,-0.36,-0.46,1.97,15.503193333333334,-83.26,-84.48
1733053278550123873,1733053278549644947,5,-0.36,-0.46,1.97,15.640777,-81.26,-81.68
1733053278650509382,1733053278650267839,5,-0.36,-0.46,1.97,15.734583666666666,-81.03,-81.47
1733053279155036669,1733053279154778003,5,-0.36,-0.46,1.97,16.353710333333336,-80.45,-80.84
1733053279348268605,1733053279347873687,5,-0.36,-0.46,1.97,16.56008633333333,-80.35,-81.14
1733053279448214721,1733053279447874307,5,-0.36,-0.46,1.97,16.735193,-80.59,-80.81
1733053279551063497,1733053279550808429,5,-0.36,-0.46,1.97,16.897791666666667,-80.41,-80.79
1733053279650032880,1733053279649356365,5,-0.36,-0.46,1.97,17.016613666666668,-80.63,-80.74
1733053279749616893,1733053279749449014,5,-0.36,-0.46,1.97,17.116675,-80.67,-80.78
1733053279851184326,1733053279851052999,5,-0.36,-0.46,1.97,17.398097000000003,-80.9,-81.17
1733053279948446477,1733053279947895288,5,-0.36,-0.46,1.97,17.516919,-81.01,-81.31
1733053280048182365,1733053280047888040,5,-0.36,-0.46,1.97,17.65450233333333,-82.03,-81.85
1733053280148823400,1733053280147919416,5,-0.36,-0.46,1.97,17.773325,-81.74,-82.16
1733053280248322101,1733053280247956514,5,-0.36,-0.46,1.97,17.935924,-81.79,-83.16
1733053280348430140,1733053280347881555,5,-0.36,-0.46,1.97,18.061000333333332,-82.0,-83.37
1733053280448366020,1733053280447881221,5,-0.36,-0.46,1.97,18.204838,-84.54,-85.52
1733053280548400702,1733053280547893285,5,-0.36,-0.46,1.97,18.304899,-82.71,-82.67
1733053280648421989,1733053280647884845,5,-0.36,-0.46,1.97,18.411213999999998,-83.25,-84.54
1733053280748284252,1733053280747888326,5,-0.36,-0.46,1.97,18.530036,-83.46,-83.07
1733053280848235271,1733053280847885608,5,-0.36,-0.46,1.97,18.673873333333333,-83.69,-84.33
1733053280948289988,1733053280947911024,5,-0.36,-0.46,1.97,18.798949,-84.46,-85.35
1733053281048310758,1733053281047871828,5,-0.36,-0.46,1.97,18.91777166666667,-84.1,-84.13
1733053281148460930,1733053281147889375,5,-0.36,-0.46,1.97,19.024086666666665,-83.67,-83.45
1733053281248350036,1733053281247934103,5,-0.36,-0.46,1.97,19.136655,-83.58,-84.32
1733053281349615928,1733053281349238634,5,-0.36,-0.46,1.97,19.24922366666667,-83.25,-83.14
1733053281449397386,1733053281449056148,5,-0.36,-0.46,1.97,19.36179233333333,-83.34,-83.78
1733053281549489132,1733053281549150943,5,-0.36,-0.46,1.97,19.518137666666664,-82.54,-82.52
1733053281649331650,1733053281649141073,5,-0.36,-0.46,1.97,19.661975333333334,-83.0,-83.27
1733053281749279727,1733053281749036550,5,-0.36,-0.46,1.97,19.787051666666667,-82.6,-82.35
1733053281849180483,1733053281849045515,5,-0.36,-0.46,1.97,19.887113333333332,-82.44,-82.19
1733053281949217447,1733053281949025392,5,-0.36,-0.46,1.97,20.00593533333333,-82.48,-82.47
1733053282049217988,1733053282049055576,5,-0.36,-0.46,1.97,20.149773,-82.14,-81.76
1733053282149264277,1733053282149113178,5,-0.36,-0.46,1.97,20.287356333333335,-81.5,-81.32
1733053282249345737,1733053282249054193,5,-0.36,-0.46,1.97,20.41243266666667,-81.54,-81.53
1733053282349419347,1733053282349100828,5,-0.36,-0.46,1.97,20.525001,-81.36,-81.07
1733053282449398908,1733053282449114084,5,-0.36,-0.46,1.97,20.650077333333332,-81.24,-81.14
1733053282549332501,1733053282549161434,5,-0.36,-0.46,1.97,20.787661333333332,-81.07,-81.35
1733053282648135061,1733053282647946834,5,-0.36,-0.46,1.97,20.950260333333333,-81.36,-81.24
1733053282749302338,1733053282749027252,5,-0.36,-0.46,1.97,21.07533666666667,-80.9,-81.2
1733053282849576014,1733053282849171400,5,-0.36,-0.46,1.97,21.200413,-81.07,-81.25
1733053282949390184,1733053282949143886,5,-0.36,-0.46,1.97,21.287966666666666,-81.33,-81.13
1733053283049234451,1733053283049028158,5,-0.36,-0.46,1.97,21.400535,-80.91,-81.6
1733053283148897518,1733053283148822307,5,-0.36,-0.46,1.97,21.53811833333333,-81.6,-81.37
1733053283449821211,1733053283449689865,5,-0.36,-0.46,1.97,21.750747666666665,-80.71,-81.16
1733053283550298330,1733053283550077199,5,-0.36,-0.46,1.97,21.95712333333333,-81.39,-81.51
1733053283650016196,1733053283649887084,5,-0.36,-0.46,1.97,22.132230000000003,-81.05,-81.48
1733053283749784400,1733053283749578237,5,-0.36,-0.46,1.97,22.244798666666668,-80.96,-81.37
1733053283850607049,1733053283850435495,5,-0.36,-0.46,1.97,22.363621,-80.98,-80.94
1733053283950340477,1733053283950197219,5,-0.36,-0.46,1.97,22.488697333333334,-81.78,-82.26
1733053284049302860,1733053284048988580,5,-0.36,-0.46,1.97,22.626281333333335,-81.21,-81.53
1733053284149205355,1733053284148892402,5,-0.36,-0.46,1.97,22.751357666666667,-81.28,-81.54
1733053284249314524,1733053284249136924,5,-0.36,-0.46,1.97,22.88268766666667,-81.21,-81.36
1733053284349315713,1733053284349011182,5,-0.36,-0.46,1.97,23.03277866666667,-81.04,-81.15
1733053284449413240,1733053284449185132,5,-0.36,-0.46,1.97,23.189124000000003,-81.86,-81.56
1733053284549189345,1733053284548999071,5,-0.36,-0.46,1.97,23.351723000000003,-82.43,-82.2
1733053284649962793,1733053284649803876,5,-0.36,-0.46,1.97,23.483053,-82.56,-83.64
1733053284748138379,1733053284747914552,5,-0.36,-0.46,1.97,23.695682,-83.6,-84.15
1733053284848195337,1733053284847925901,5,-0.36,-0.46,1.97,23.783235666666666,-83.81,-85.69
1733053284948193586,1733053284947897911,5,-0.36,-0.46,1.97,23.883296333333334,-85.87,-86.53
1733053285048270640,1733053285047894716,5,-0.36,-0.46,1.97,24.008372666666663,-85.68,-88.07
1733053285148255416,1733053285147919416,5,-0.36,-0.46,1.97,24.120941000000002,-84.54,-86.09
1733053285250881764,1733053285250672817,5,-0.36,-0.46,1.97,24.239763999999997,-84.95,-85.99
1733053285350223208,1733053285349948883,5,-0.36,-0.46,1.97,24.346079000000003,-88.05,-88.26
1733053285449818665,1733053285449358940,5,-0.36,-0.46,1.97,24.477408999999998,-84.01,-84.36
1733053285549439282,1733053285549110412,5,-0.36,-0.46,1.97,24.614992333333333,-84.76,-84.7
1733053285648638059,1733053285647976160,5,-0.36,-0.46,1.97,24.75257566666667,-84.0,-85.57
1733053285751103410,1733053285750970363,5,-0.36,-0.46,1.97,24.890159666666666,-86.8,-88.92
1733053285851418815,1733053285851247787,5,-0.36,-0.46,1.97,25.02149,-84.78,-89.28
1733053285951981208,1733053285951802968,5,-0.36,-0.46,1.97,25.140313000000003,-85.02,-89.12
1733053286051213322,1733053286050994873,5,-0.36,-0.46,1.97,25.252881666666667,-85.77,-87.04
1733053286150915526,1733053286150735139,5,-0.36,-0.46,1.97,25.371703999999998,-86.15,-86.64
1733053286251738776,1733053286251518249,5,-0.36,-0.46,1.97,25.47176466666666,-86.62,-91.06
1733053286350827826,1733053286350634813,5,-0.36,-0.46,1.97,25.61560233333333,-89.66,-92.52
1733053286450838257,1733053286450706720,5,-0.36,-0.46,1.97,25.740678333333335,-86.54,-89.39
1733053286551255981,1733053286551095247,5,-0.36,-0.46,1.97,25.897023666666666,-87.08,-90.36
1733053286651552864,1733053286651371479,5,-0.36,-0.46,1.97,26.022099333333333,-85.42,-88.52
1733053286750771855,1733053286750631093,5,-0.36,-0.46,1.97,26.147175666666666,-83.79,-88.88
1733053286851301240,1733053286851010084,5,-0.36,-0.46,1.97,26.278505666666664,-83.79,-89.8
1733053286951907160,1733053286951586246,5,-0.36,-0.46,1.97,26.391074,-84.23,-87.7
1733053287051236713,1733053287051034688,5,-0.36,-0.46,1.97,26.497388333333333,-85.15,-87.36
1733053287151434685,1733053287150631189,5,-0.36,-0.46,1.97,26.61621033333334,-84.48,-85.85
1733053287250765800,1733053287250507354,5,-0.36,-0.46,1.97,26.741286666666667,-85.48,-86.42
1733053287351063613,1733053287350897312,5,-0.36,-0.46,1.97,26.910140000000002,-86.24,-86.97
1733053287450934990,1733053287450701475,5,-0.36,-0.46,1.97,27.047724,-84.25,-85.33
1733053287551418101,1733053287551196098,5,-0.36,-0.46,1.97,27.185308000000003,-83.81,-84.98
1733053287651159543,1733053287651018381,5,-0.36,-0.46,1.97,27.279115,-83.99,-84.96
1733053287751385064,1733053287751122951,5,-0.36,-0.46,1.97,27.37917566666667,-86.19,-87.02
1733053287850901254,1733053287850771188,5,-0.36,-0.46,1.97,27.504251999999997,-83.62,-83.95
1733053287950606664,1733053287950464963,5,-0.36,-0.46,1.97,27.62932833333333,-83.28,-83.65
1733053288051681003,1733053288051211833,5,-0.36,-0.46,1.97,27.75440466666667,-83.9,-85.07
1733053288150775354,1733053288150580883,5,-0.36,-0.46,1.97,27.891987999999998,-83.97,-84.72
1733053288250969741,1733053288250846147,5,-0.36,-0.46,1.97,28.035825666666668,-82.57,-83.97
1733053288351213211,1733053288351077079,5,-0.36,-0.46,1.97,28.167155666666662,-82.07,-81.85
1733053288548053385,1733053288547888994,5,-0.36,-0.46,1.97,28.292232,-82.05,-82.11
1733053288648417741,1733053288647906780,5,-0.36,-0.46,1.97,28.404800666666663,-82.75,-82.47
1733053288748203404,1733053288747904539,5,-0.36,-0.46,1.97,28.486100000000004,-81.85,-82.23
1733053288848249254,1733053288847885370,5,-0.36,-0.46,1.97,28.517369000000002,-81.41,-82.04
1733053288948350593,1733053288947920560,5,-0.36,-0.46,1.97,28.517369000000002,-81.5,-81.79
1733053289048313636,1733053289047920227,5,-0.36,-0.46,1.97,28.529876666666667,-81.9,-82.16
1733053289150057262,1733053289149872541,5,-0.36,-0.46,1.97,28.529876666666667,-81.75,-82.16
1733053289250036690,1733053289249824762,5,-0.36,-0.46,1.97,28.54238433333333,-81.58,-82.32
1733053289349883372,1733053289349699497,5,-0.36,-0.46,1.97,28.561145666666665,-82.01,-81.99
1733053289450532789,1733053289449843883,5,-0.36,-0.46,1.97,28.598668333333332,-82.36,-82.3
1733053289549957309,1733053289549765110,5,-0.36,-0.46,1.97,28.648698666666665,-82.0,-82.29
1733053289650234040,1733053289650156021,5,-0.36,-0.46,1.97,28.70498333333333,-81.77,-83.32
1733053289750068658,1733053289749784469,5,-0.36,-0.46,1.97,28.761268,-82.39,-83.01
1733053289850227019,1733053289849950551,5,-0.36,-0.46,1.97,28.773775333333333,-83.81,-84.49
1733053289950147564,1733053289949857950,5,-0.36,-0.46,1.97,28.773775333333333,-83.87,-85.88
1733053290048174614,1733053290047901153,5,-0.36,-0.46,1.97,28.742506333333335,-83.72,-86.23
1733053290148299907,1733053290147897958,5,-0.36,-0.46,1.97,28.761268,-84.21,-85.32
1733053290248253486,1733053290247941732,5,-0.36,-0.46,1.97,28.767521666666667,-84.5,-85.52
1733053290350755151,1733053290350503921,5,-0.36,-0.46,1.97,28.780029333333335,-85.39,-85.79
1733053290451692030,1733053290451362848,5,-0.36,-0.46,1.97,28.755014,-84.61,-86.17
1733053290551024412,1733053290550732135,5,-0.36,-0.46,1.97,28.748760333333337,-84.98,-86.57
1733053290651072201,1733053290650793313,5,-0.36,-0.46,1.97,28.742506333333335,-86.14,-87.03
1733053290749346753,1733053290749128103,5,-0.36,-0.46,1.97,28.767521666666667,-85.05,-85.28
1733053290849548852,1733053290849305152,5,-0.36,-0.46,1.97,28.748760333333333,-85.34,-86.65
1733053290948235958,1733053290947918415,5,-0.36,-0.46,1.97,28.761268,-86.84,-86.93
1733053291048889884,1733053291047945976,5,-0.36,-0.46,1.97,28.748760333333333,-85.06,-86.36
1733053291148218347,1733053291147902727,5,-0.36,-0.46,1.97,28.755014,-86.67,-89.37
1733053291249257709,1733053291249047517,5,-0.36,-0.46,1.97,28.748760333333337,-85.85,-85.72
1733053291348966094,1733053291348889827,5,-0.36,-0.46,1.97,28.73625266666667,-85.52,-87.67
1733053291449432885,1733053291449126958,5,-0.36,-0.46,1.97,28.73625266666667,-84.68,-86.22
1733053291549154015,1733053291548885345,5,-0.36,-0.46,1.97,28.704983666666667,-84.06,-84.67
1733053291649719552,1733053291649118423,5,-0.36,-0.46,1.97,28.66120666666667,-83.84,-84.43
1733053291749524819,1733053291749199867,5,-0.36,-0.46,1.97,28.623684,-84.89,-85.79
1733053291849592488,1733053291849251747,5,-0.36,-0.46,1.97,28.586161333333337,-83.68,-84.31
1733053291949516078,1733053291949301481,5,-0.36,-0.46,1.97,28.56114666666667,-84.01,-84.73
1733053292049375567,1733053292049135208,5,-0.36,-0.46,1.97,28.504862,-84.02,-85.29
1733053292149451954,1733053292149304151,5,-0.36,-0.46,1.97,28.417308333333335,-83.98,-84.55
1733053292249485592,1733053292249244928,5,-0.36,-0.46,1.97,28.361024333333333,-83.07,-84.06
1733053292349418363,1733053292349149703,5,-0.36,-0.46,1.97,28.336009,-85.87,-86.77
1733053292449336680,1733053292449050664,5,-0.36,-0.46,1.97,28.260963,-86.69,-87.48
1733053292549444605,1733053292549122333,5,-0.36,-0.46,1.97,28.185917333333332,-84.72,-85.85
1733053292649412471,1733053292649099588,5,-0.36,-0.46,1.97,28.098364333333333,-84.42,-85.61
1733053292749158537,1733053292748995542,5,-0.36,-0.46,1.97,28.01706466666667,-86.08,-87.16
1733053292849462417,1733053292849231958,5,-0.36,-0.46,1.97,27.992048999999998,-85.06,-86.38
1733053292949427692,1733053292949144601,5,-0.36,-0.46,1.97,27.923257333333336,-84.91,-86.78
1733053293049272038,1733053293049036979,5,-0.36,-0.46,1.97,27.848211666666668,-85.3,-88.51
1733053293149345143,1733053293149021387,5,-0.36,-0.46,1.97,27.74189733333333,-85.63,-88.66
1733053293279769105,1733053293279294729,5,-0.36,-0.46,1.97,27.641835666666665,-87.3,-91.17
1733053293349575789,1733053293349142789,5,-0.36,-0.46,1.97,27.554282666666666,-86.48,-89.14
1733053293449151010,1733053293448913812,5,-0.36,-0.46,1.97,27.441714,-86.75,-89.89
1733053293549522035,1733053293549154758,5,-0.36,-0.46,1.97,27.38543,-86.65,-90.21
1733053293948346454,1733053293947893857,5,-0.36,-0.46,1.97,27.12277,-87.67,-92.3
1733053294048369122,1733053294047917127,5,-0.36,-0.46,1.97,27.04147066666667,-87.01,-93.0
1733053294148240997,1733053294147883892,5,-0.36,-0.46,1.97,26.953917,-87.87,-92.76
1733053294248321834,1733053294247883796,5,-0.36,-0.46,1.97,26.885125000000002,-87.14,-93.21
1733053294355547144,1733053294355039119,5,-0.36,-0.46,1.97,26.810079,-87.01,-93.65
1733053294450398672,1733053294450223207,5,-0.36,-0.46,1.97,26.691256999999997,-86.42,-93.64
1733053294550194320,1733053294549952030,5,-0.36,-0.46,1.97,26.566181,-87.59,-94.39
1733053294650717947,1733053294650566577,5,-0.36,-0.46,1.97,26.466120333333333,-87.12,-93.55
1733053294750457772,1733053294750232458,5,-0.36,-0.46,1.97,26.378567333333336,-87.7,-93.22
1733053294850434468,1733053294850209951,5,-0.36,-0.46,1.97,26.341044666666665,-86.76,-91.53
1733053294950444769,1733053294950170040,5,-0.36,-0.46,1.97,26.265998666666665,-87.08,-90.88
1733053295050753275,1733053295050469636,5,-0.36,-0.46,1.97,26.18469833333333,-86.87,-90.76
1733053295150224585,1733053295149999618,5,-0.36,-0.46,1.97,26.103398,-88.38,-92.67
1733053295250372133,1733053295250081777,5,-0.36,-0.46,1.97,26.022098333333332,-86.96,-89.97
1733053295350441201,1733053295350112676,5,-0.36,-0.46,1.97,25.953306666666666,-86.2,-88.5
1733053295450403877,1733053295450213193,5,-0.36,-0.46,1.97,25.878261666666663,-85.69,-88.01
1733053295550264359,1733053295550117492,5,-0.36,-0.46,1.97,25.79696233333333,-87.31,-89.3
1733053295650305161,1733053295650158882,5,-0.36,-0.46,1.97,25.728170666666667,-83.74,-84.92
1733053295750580119,1733053295750392675,5,-0.36,-0.46,1.97,25.67814,-84.56,-85.59
1733053295850181721,1733053295849857330,5,-0.36,-0.46,1.97,25.62810966666667,-87.06,-88.61
1733053295950234893,1733053295950094699,5,-0.36,-0.46,1.97,25.540556,-84.28,-85.0
1733053296050266376,1733053296049946784,5,-0.36,-0.46,1.97,25.409225666666668,-84.24,-85.18
1733053296149069894,1733053296148983716,5,-0.36,-0.46,1.97,25.290402999999998,-84.6,-84.69
1733053296249602517,1733053296249183177,5,-0.36,-0.46,1.97,25.190342333333334,-83.59,-84.14
1733053296349922889,1733053296349349260,5,-0.36,-0.46,1.97,25.109042666666667,-83.27,-85.06
1733053296450224199,1733053296449930906,5,-0.36,-0.46,1.97,25.021489666666668,-82.82,-83.26
1733053296548378498,1733053296547903537,5,-0.36,-0.46,1.97,24.952697999999998,-82.7,-82.87
1733053296648214731,1733053296647892236,5,-0.36,-0.46,1.97,24.833876,-82.26,-82.56
1733053296849916259,1733053296849696159,5,-0.36,-0.46,1.97,24.677530333333333,-82.91,-83.65
1733053296950246239,1733053296949984073,5,-0.36,-0.46,1.97,24.489915666666665,-83.73,-83.99
1733053297050117278,1733053297049881458,5,-0.36,-0.46,1.97,24.364839333333332,-82.12,-81.79
1733053297151102153,1733053297150876760,5,-0.36,-0.46,1.97,24.28354,-82.12,-83.41
1733053297250251813,1733053297250046253,5,-0.36,-0.46,1.97,24.195987,-82.04,-82.48
1733053297348260201,1733053297347887277,5,-0.36,-0.46,1.97,24.095926333333335,-82.52,-82.08
1733053297451064422,1733053297450794458,5,-0.36,-0.46,1.97,23.964596666666665,-81.78,-81.62
1733053297550353590,1733053297550090074,5,-0.36,-0.46,1.97,23.858281666666667,-81.46,-81.31
1733053297651011658,1733053297650573492,5,-0.36,-0.46,1.97,23.726951666666668,-81.44,-81.3
1733053297751601176,1733053297751362800,5,-0.36,-0.46,1.97,23.633144333333334,-81.4,-81.2
1733053297850284687,1733053297850069999,5,-0.36,-0.46,1.97,23.50181466666667,-81.14,-81.5
1733053297950164538,1733053297949936866,5,-0.36,-0.46,1.97,23.395499666666666,-81.02,-81.27
1733053298050296118,1733053298050026178,5,-0.36,-0.46,1.97,23.282931,-80.87,-81.21
1733053298150742404,1733053298150482654,5,-0.36,-0.46,1.97,23.16410833333333,-81.44,-81.91
1733053298250227658,1733053298249994516,5,-0.36,-0.46,1.97,23.03277866666667,-81.05,-81.17
1733053298350158910,1733053298349939823,5,-0.36,-0.46,1.97,22.901449,-80.56,-80.78
1733053298450003947,1733053298449856758,5,-0.36,-0.46,1.97,22.807641666666665,-81.4,-81.61
1733053298550292815,1733053298550108909,5,-0.36,-0.46,1.97,22.707580333333336,-80.78,-81.2
1733053298650265326,1733053298649996042,5,-0.36,-0.46,1.97,22.569996333333336,-80.8,-81.36
1733053298750444809,1733053298750257968,5,-0.36,-0.46,1.97,22.45117433333333,-80.6,-81.86
1733053298850415328,1733053298850297927,5,-0.36,-0.46,1.97,22.35111333333333,-81.58,-81.57
1733053298950440514,1733053298950215578,5,-0.36,-0.46,1.97,22.257306,-81.41,-81.69
1733053299050278675,1733053299049908161,5,-0.36,-0.46,1.97,22.113468333333334,-81.48,-82.44
1733053299149524031,1733053299149333477,5,-0.36,-0.46,1.97,22.013407666666666,-80.8,-81.34
1733053299249377234,1733053299249073982,5,-0.36,-0.46,1.97,21.913347,-81.77,-81.69
1733053299349375166,1733053299349029064,5,-0.36,-0.46,1.97,21.832047333333335,-81.0,-81.27
1733053299450503983,1733053299450344562,5,-0.36,-0.46,1.97,21.688209666666665,-81.13,-81.28
1733053299550345831,1733053299550186157,5,-0.36,-0.46,1.97,21.531864,-81.2,-81.5
1733053299650286046,1733053299650070190,5,-0.36,-0.46,1.97,21.431803333333335,-81.46,-81.59
1733053299750672919,1733053299750416755,5,-0.36,-0.46,1.97,21.331742666666667,-81.41,-81.53
1733053299851334747,1733053299850330829,5,-0.36,-0.46,1.97,21.244189666666667,-81.67,-82.3
1733053299950861573,1733053299950617551,5,-0.36,-0.46,1.97,21.119113333333335,-81.88,-82.2
1733053300050474358,1733053300050171375,5,-0.36,-0.46,1.97,21.012798333333333,-81.78,-83.01
1733053300150379254,1733053300150060176,5,-0.36,-0.46,1.97,20.918991333333334,-81.98,-82.75
1733053300250154193,1733053300249989748,5,-0.36,-0.46,1.97,20.818930666666663,-82.4,-83.46
1733053300350364987,1733053300350108861,5,-0.36,-0.46,1.97,20.681346666666666,-83.3,-84.88
1733053300450460609,1733053300450109720,5,-0.36,-0.46,1.97,20.568778,-84.13,-86.48
1733053300550992580,1733053300550621509,5,-0.36,-0.46,1.97,20.44995533333333,-83.24,-85.53
1733053300650146338,1733053300649910688,5,-0.36,-0.46,1.97,20.349894333333335,-83.98,-86.25
1733053300750446156,1733053300750259876,5,-0.36,-0.46,1.97,20.187295333333335,-84.73,-88.78
1733053300850754926,1733053300850581407,5,-0.36,-0.46,1.97,20.068473,-84.59,-88.09
1733053300950293212,1733053300950047731,5,-0.36,-0.46,1.97,19.905874333333333,-85.06,-89.79
1733053301050230062,1733053301050065755,5,-0.36,-0.46,1.97,19.805813,-84.21,-88.01
1733053301150435250,1733053301150250196,5,-0.36,-0.46,1.97,19.680736666666668,-83.84,-88.21
1733053301249983918,1733053301249789953,5,-0.36,-0.46,1.97,19.586929333333334,-83.79,-86.68
1733053301349240319,1733053301349056959,5,-0.36,-0.46,1.97,19.455599333333332,-83.47,-85.06
1733053301750536117,1733053301750446796,5,-0.36,-0.46,1.97,19.061610666666667,-81.51,-81.77
1733053301851778505,1733053301851627349,5,-0.36,-0.46,1.97,18.967803333333336,-81.26,-81.51
1733053301951014039,1733053301950812101,5,-0.36,-0.46,1.97,18.855234666666664,-82.16,-82.17
1733053302050587961,1733053302050290346,5,-0.36,-0.46,1.97,18.742666333333332,-81.03,-81.15
1733053302150095053,1733053302149856328,5,-0.36,-0.46,1.97,18.61759,-81.37,-81.41
1733053302250304199,1733053302250118255,5,-0.36,-0.46,1.97,18.505021000000003,-80.79,-80.95
1733053302350057323,1733053302349909305,5,-0.36,-0.46,1.97,18.379944666666667,-80.89,-80.85
1733053302449250717,1733053302449009656,5,-0.36,-0.46,1.97,18.254868333333334,-80.79,-81.47
1733053302549213940,1733053302549059629,5,-0.36,-0.46,1.97,18.129792666666663,-80.55,-80.83
1733053302650032684,1733053302649906158,5,-0.36,-0.46,1.97,18.017224,-80.62,-81.11
1733053302750471106,1733053302750127553,5,-0.36,-0.46,1.97,17.898402,-80.39,-81.0
1733053302851409262,1733053302851210355,5,-0.36,-0.46,1.97,17.767071333333334,-80.72,-81.6
1733053303048230335,1733053303047877788,5,-0.36,-0.46,1.97,17.604472666666666,-80.62,-81.23
1733053303148311483,1733053303147922992,5,-0.36,-0.46,1.97,17.448127333333332,-80.45,-80.78
1733053303250043834,1733053303249803543,5,-0.36,-0.46,1.97,17.273020666666664,-80.84,-81.02
1733053303350022834,1733053303349926710,5,-0.36,-0.46,1.97,17.129183,-80.72,-81.13
1733053303450203633,1733053303449823141,5,-0.36,-0.46,1.97,16.99785333333333,-81.11,-81.04
1733053303551709899,1733053303551075696,5,-0.36,-0.46,1.97,16.910300333333332,-81.56,-81.66
1733053303649391918,1733053303649128675,5,-0.36,-0.46,1.97,16.810239,-81.33,-82.45
1733053303749446724,1733053303749202728,5,-0.36,-0.46,1.97,16.728938666666664,-81.32,-82.92
1733053303849286844,1733053303849194049,5,-0.36,-0.46,1.97,16.585100999999998,-83.63,-84.9
1733053303949429702,1733053303949206352,5,-0.36,-0.46,1.97,16.43500966666667,-82.19,-84.36
1733053304049260552,1733053304048997163,5,-0.36,-0.46,1.97,16.278665,-82.82,-86.76
1733053304149478687,1733053304149138450,5,-0.36,-0.46,1.97,16.184857666666666,-82.72,-88.34
1733053304249355827,1733053304249126911,5,-0.36,-0.46,1.97,16.084797,-84.22,-88.28
1733053304349405172,1733053304349236726,5,-0.36,-0.46,1.97,15.978482333333334,-82.8,-87.32
1733053304449311656,1733053304449078321,5,-0.36,-0.46,1.97,15.834645333333334,-83.04,-87.88
1733053304549322303,1733053304549072742,5,-0.36,-0.46,1.97,15.722076666666666,-82.7,-86.55
1733053304649516789,1733053304649219751,5,-0.36,-0.46,1.97,15.622016,-82.52,-85.2
1733053304750311451,1733053304750148773,5,-0.36,-0.46,1.97,15.571985333333332,-82.15,-84.23
1733053304849472260,1733053304849242925,5,-0.36,-0.46,1.97,15.521955,-81.7,-82.95
1733053304948570408,1733053304947891235,5,-0.36,-0.46,1.97,15.453162999999998,-81.67,-83.14
1733053305048092143,1733053305047891616,5,-0.36,-0.46,1.97,15.28431,-81.45,-82.13
1733053305147989593,1733053305147889852,5,-0.36,-0.46,1.97,15.196756666666666,-81.28,-81.73
1733053305251543344,1733053305251323938,5,-0.36,-0.46,1.97,15.134218666666667,-81.4,-81.92
1733053305351391854,1733053305351204633,5,-0.36,-0.46,1.97,15.052918999999997,-82.2,-82.07
1733053305451491320,1733053305451178550,5,-0.36,-0.46,1.97,14.984127,-81.15,-81.18
1733053305549600335,1733053305549325942,5,-0.36,-0.46,1.97,14.902827666666667,-81.19,-81.55
1733053305649362978,1733053305649032115,5,-0.36,-0.46,1.97,14.834035999999998,-81.24,-82.41
1733053305749526785,1733053305749252080,5,-0.36,-0.46,1.97,14.758990333333331,-81.55,-82.07
1733053305849324875,1733053305848995447,5,-0.36,-0.46,1.97,14.696452,-80.95,-81.98
1733053305949581318,1733053305949292898,5,-0.36,-0.46,1.97,14.646421666666667,-81.93,-83.87
1733053306049407342,1733053306049047946,5,-0.36,-0.46,1.97,14.615152666666667,-81.44,-82.02
1733053306149625928,1733053306148956298,5,-0.36,-0.46,1.97,14.565122333333333,-82.51,-84.2
1733053306249447730,1733053306249150514,5,-0.36,-0.46,1.97,14.527599333333333,-81.31,-82.44
1733053306348535453,1733053306347894668,5,-0.36,-0.46,1.97,14.465061,-81.45,-82.34
1733053306450976497,1733053306450787067,5,-0.36,-0.46,1.97,14.415030666666667,-81.34,-82.25
1733053306550999155,1733053306550804138,5,-0.36,-0.46,1.97,14.339985,-81.79,-82.82
1733053306651393459,1733053306651180982,5,-0.36,-0.46,1.97,14.327477666666667,-81.46,-82.43
1733053306751769232,1733053306751467943,5,-0.36,-0.46,1.97,14.296208666666667,-82.25,-84.86
1733053306851266088,1733053306851125240,5,-0.36,-0.46,1.97,14.283701,-83.22,-84.19
1733053306951215308,1733053306950934171,5,-0.36,-0.46,1.97,14.239924,-81.99,-83.21
1733053307050754971,1733053307050572395,5,-0.36,-0.46,1.97,14.227416,-83.11,-85.1
1733053307150787711,1733053307150582313,5,-0.36,-0.46,1.97,14.183639,-82.41,-84.15
1733053307251259905,1733053307250971078,5,-0.36,-0.46,1.97,14.171131666666668,-82.81,-83.8
1733053307351345383,1733053307350990295,5,-0.36,-0.46,1.97,14.152370333333335,-82.56,-83.61
1733053307450757222,1733053307450536489,5,-0.36,-0.46,1.97,14.146116999999998,-82.93,-83.84
1733053307550785594,1733053307550592184,5,-0.36,-0.46,1.97,14.096086333333332,-83.7,-85.55
1733053307651056969,1733053307650735378,5,-0.36,-0.46,1.97,14.071071333333334,-83.53,-84.44
1733053307751064920,1733053307750780344,5,-0.36,-0.46,1.97,14.046056,-83.96,-86.35
1733053307850771463,1733053307850533485,5,-0.36,-0.46,1.97,14.033548666666666,-85.17,-87.97
1733053307950722656,1733053307950443744,5,-0.36,-0.46,1.97,13.996025666666666,-84.12,-88.72
1733053308051342768,1733053308051171302,5,-0.36,-0.46,1.97,13.977264,-84.65,-87.01
1733053308450759167,1733053308450609683,5,-0.36,-0.46,1.97,13.920979666666668,-86.46,-90.23
1733053308550777149,1733053308550544023,5,-0.36,-0.46,1.97,13.889710666666666,-84.24,-87.51
1733053308650571355,1733053308650400161,5,-0.36,-0.46,1.97,13.864695333333332,-83.0,-85.45
1733053308750310712,1733053308750167846,5,-0.36,-0.46,1.97,13.845934,-82.95,-84.78
1733053308850155560,1733053308850059747,5,-0.36,-0.46,1.97,13.814665,-80.8,-82.61
1733053308950146930,1733053308950020790,5,-0.36,-0.46,1.97,13.770888666666666,-80.86,-82.51
1733053309049922164,1733053309049716711,5,-0.36,-0.46,1.97,13.745873333333334,-81.09,-83.15
1733053309149619744,1733053309149442672,5,-0.36,-0.46,1.97,13.752127,-81.92,-82.62
1733053309250631150,1733053309250374317,5,-0.36,-0.46,1.97,13.752127000000002,-80.9,-81.08
1733053309350923796,1733053309350640296,5,-0.36,-0.46,1.97,13.770888333333332,-80.53,-81.04
1733053309450133295,1733053309450050592,5,-0.36,-0.46,1.97,13.783396000000002,-80.59,-80.95
1733053309550068455,1733053309549941062,5,-0.36,-0.46,1.97,13.802157,-81.31,-81.48
1733053309650852682,1733053309650342464,5,-0.36,-0.46,1.97,13.795903000000001,-81.47,-81.38
1733053309749833750,1733053309749530553,5,-0.36,-0.46,1.97,13.764634000000001,-81.53,-81.52
1733053309850052953,1733053309849624633,5,-0.36,-0.46,1.97,13.733365,-81.15,-81.29
1733053309950067276,1733053309949845314,5,-0.36,-0.46,1.97,13.695842333333333,-81.45,-81.33
1733053310048133372,1733053310047901630,5,-0.36,-0.46,1.97,13.677081000000001,-81.27,-81.4
1733053310149300007,1733053310149031877,5,-0.36,-0.46,1.97,13.652066,-81.65,-81.48
1733053310250562095,1733053310250274419,5,-0.36,-0.46,1.97,13.620797000000001,-81.07,-82.22
1733053310349869279,1733053310349643468,5,-0.36,-0.46,1.97,13.570766333333333,-81.58,-82.55
1733053310450009176,1733053310449914455,5,-0.36,-0.46,1.97,13.526989666666665,-81.45,-82.15
1733053310549344695,1733053310549121618,5,-0.36,-0.46,1.97,13.470705666666667,-81.48,-81.72
1733053310648167721,1733053310647913932,5,-0.36,-0.46,1.97,13.445690333333333,-81.78,-81.91
1733053310748206828,1733053310747889518,5,-0.36,-0.46,1.97,13.389406000000001,-83.62,-83.79
1733053310849373238,1733053310849043607,5,-0.36,-0.46,1.97,13.345629,-82.15,-83.21
1733053310949254076,1733053310949001312,5,-0.36,-0.46,1.97,13.264329666666669,-82.85,-83.4
1733053311049198423,1733053311048986911,5,-0.36,-0.46,1.97,13.214298999999999,-83.26,-84.56
1733053311149297236,1733053311149192333,5,-0.36,-0.46,1.97,13.132999666666665,-86.17,-88.32
1733053311249316852,1733053311249050140,5,-0.36,-0.46,1.97,13.057954,-84.48,-87.45
1733053311349395188,1733053311349077224,5,-0.36,-0.46,1.97,12.920370333333333,-84.66,-90.21
1733053311449128611,1733053311448948144,5,-0.36,-0.46,1.97,12.814055666666668,-84.62,-91.46
1733053311549334268,1733053311549095869,5,-0.36,-0.46,1.97,12.720248333333332,-85.93,-89.62
1733053311649557560,1733053311649121284,5,-0.36,-0.46,1.97,12.638949000000002,-84.15,-87.88
1733053311749322822,1733053311749149799,5,-0.36,-0.46,1.97,12.576410666666668,-83.6,-86.21
1733053311850315745,1733053311849972963,5,-0.36,-0.46,1.97,12.507618666666666,-86.49,-88.08
1733053312051319501,1733053312051125764,5,-0.36,-0.46,1.97,12.470095666666666,-81.67,-82.15
1733053312151423380,1733053312151238441,5,-0.36,-0.46,1.97,12.388796333333334,-80.23,-82.13
1733053312251315996,1733053312251189470,5,-0.36,-0.46,1.97,12.294989666666666,-79.99,-81.17
1733053312353072496,1733053312352776765,5,-0.36,-0.46,1.97,12.176167000000001,-80.17,-81.27
1733053312451182019,1733053312451002359,5,-0.36,-0.46,1.97,12.088613666666665,-79.85,-81.32
1733053312551182395,1733053312550915956,5,-0.36,-0.46,1.97,11.994806333333335,-79.81,-81.31
1733053312650210504,1733053312649966955,5,-0.36,-0.46,1.97,11.919761,-79.49,-80.73
1733053312749406498,1733053312749098539,5,-0.36,-0.46,1.97,11.813445999999999,-79.56,-80.69
1733053312849518881,1733053312849126815,5,-0.36,-0.46,1.97,11.719638666666668,-80.45,-81.42
1733053312949556331,1733053312949220895,5,-0.36,-0.46,1.97,11.613324,-80.06,-81.32
1733053313049350404,1733053313049159049,5,-0.36,-0.46,1.97,11.519517,-81.52,-82.58
1733053313148128322,1733053313147886991,5,-0.36,-0.46,1.97,11.394441,-80.27,-81.21
1733053313248264746,1733053313247898578,5,-0.36,-0.46,1.97,11.288126,-80.39,-83.06
1733053313348641428,1733053313347924232,5,-0.36,-0.46,1.97,11.188065,-81.31,-84.92
1733053313448133798,1733053313447852611,5,-0.36,-0.46,1.97,11.094258000000002,-82.25,-84.79
1733053313548176421,1733053313547876119,5,-0.36,-0.46,1.97,11.000451,-81.34,-83.66
1733053313648675727,1733053313647989273,5,-0.36,-0.46,1.97,10.887882333333332,-81.22,-83.92
1733053313748293437,1733053313747885465,5,-0.36,-0.46,1.97,10.794075,-82.85,-84.71
1733053313848112049,1733053313847940444,5,-0.36,-0.46,1.97,10.687759999999999,-80.69,-81.81
1733053313948344497,1733053313947887897,5,-0.36,-0.46,1.97,10.587698999999999,-80.76,-81.37
1733053314049281255,1733053314049116134,5,-0.36,-0.46,1.97,10.443861333333333,-80.81,-81.47
1733053314149444723,1733053314149201869,5,-0.36,-0.46,1.97,10.325039333333335,-81.15,-82.47
1733053314248545881,1733053314248005390,5,-0.36,-0.46,1.97,10.206217333333333,-80.58,-81.41
1733053314348320644,1733053314347910165,5,-0.36,-0.46,1.97,10.137425333333333,-80.38,-80.88
1733053314448248474,1733053314447883605,5,-0.36,-0.46,1.97,10.024856333333334,-80.58,-80.98
1733053314548134168,1733053314547887086,5,-0.36,-0.46,1.97,9.906033666666666,-80.52,-80.89
1733053314648528169,1733053314647912502,5,-0.36,-0.46,1.97,9.724674,-82.55,-82.91
1733053314748253290,1733053314747984647,5,-0.36,-0.46,1.97,9.612105666666666,-81.44,-82.57
1733053314848131697,1733053314847886800,5,-0.36,-0.46,1.97,9.468268,-84.0,-86.64
1733053315349469802,1733053315349179029,5,-0.36,-0.46,1.97,8.980470333333335,-80.59,-81.23
1733053315449006803,1733053315448895215,5,-0.36,-0.46,1.97,8.880409666666667,-80.6,-81.33
1733053315549809036,1733053315549675703,5,-0.36,-0.46,1.97,8.749079666666667,-80.51,-80.77
1733053315648223713,1733053315647903680,5,-0.36,-0.46,1.97,8.642764999999999,-80.52,-81.22
1733053315749396881,1733053315749044895,5,-0.36,-0.46,1.97,8.548957666666666,-80.7,-81.48
1733053315850065902,1733053315849892616,5,-0.36,-0.46,1.97,8.417628,-81.63,-83.38
1733053315949163807,1733053315949076414,5,-0.36,-0.46,1.97,8.298805333333334,-81.69,-84.45
1733053316049285291,1733053316049111843,5,-0.36,-0.46,1.97,8.173729,-80.92,-83.11
1733053316149355123,1733053316149131059,5,-0.36,-0.46,1.97,8.086175333333335,-81.42,-82.38
1733053316248189138,1733053316247911453,5,-0.36,-0.46,1.97,7.979860333333335,-80.37,-80.86
1733053316348237052,1733053316347905397,5,-0.36,-0.46,1.97,7.867291666666667,-81.25,-81.4
1733053316450774091,1733053316450576066,5,-0.36,-0.46,1.97,7.7609770000000005,-80.74,-81.97
1733053316551672971,1733053316551370859,5,-0.36,-0.46,1.97,7.623393333333333,-81.79,-85.14
1733053316650877707,1733053316650755167,5,-0.36,-0.46,1.97,7.473302,-81.84,-86.62
1733053316751116626,1733053316750948190,5,-0.36,-0.46,1.97,7.354479333333333,-80.74,-82.41
1733053316851522778,1733053316851321935,5,-0.36,-0.46,1.97,7.260672,-80.56,-81.62
1733053316950286498,1733053316949738502,5,-0.36,-0.46,1.97,7.185626333333333,-82.57,-82.61
1733053317051068280,1733053317050851345,5,-0.36,-0.46,1.97,7.0793116666666664,-81.14,-84.04
1733053317150819803,1733053317150671958,5,-0.36,-0.46,1.97,6.935474333333333,-81.18,-89.27
1733053317251100860,1733053317250911951,5,-0.36,-0.46,1.97,6.791636666666666,-81.21,-86.87
1733053317350895266,1733053317350657463,5,-0.36,-0.46,1.97,6.716591,-81.02,-82.49
1733053317450917981,1733053317450701236,5,-0.36,-0.46,1.97,6.660306666666667,-80.86,-82.04
1733053317551016104,1733053317550867557,5,-0.36,-0.46,1.97,6.572753333333334,-80.89,-84.5
1733053317650871809,1733053317650715827,5,-0.36,-0.46,1.97,6.403900333333333,-81.49,-89.32
1733053317751308789,1733053317751138925,5,-0.36,-0.46,1.97,6.253809,-81.54,-87.57
1733053317851550802,1733053317851341962,5,-0.36,-0.46,1.97,6.1412406666666675,-80.75,-84.07
1733053317951110095,1733053317950861454,5,-0.36,-0.46,1.97,6.041179666666667,-81.86,-82.01
1733053318050761326,1733053318050530910,5,-0.36,-0.46,1.97,5.903595666666667,-81.67,-84.57
1733053318151084505,1733053318150894641,5,-0.36,-0.46,1.97,5.784773,-80.85,-84.82
1733053318251155379,1733053318250874996,5,-0.36,-0.46,1.97,5.659697,-80.0,-83.87
1733053318381126216,1733053318380855560,5,-0.36,-0.46,1.97,5.597159,-80.16,-81.88
1733053318450509681,1733053318450343370,5,-0.36,-0.46,1.97,5.497098333333334,-80.53,-81.92
1733053318551311813,1733053318551122903,5,-0.36,-0.46,1.97,5.4095450000000005,-80.27,-82.12
1733053318650505773,1733053318650357007,5,-0.36,-0.46,1.97,5.284468666666666,-79.73,-81.64
1733053318751179422,1733053318750972509,5,-0.36,-0.46,1.97,5.171900000000001,-79.93,-80.92
1733053318851329281,1733053318851035594,5,-0.36,-0.46,1.97,5.053077666666667,-79.89,-80.76
1733053318951386920,1733053318951233863,5,-0.36,-0.46,1.97,4.940509333333334,-79.07,-81.04
1733053319050525178,1733053319050353765,5,-0.36,-0.46,1.97,4.846702333333333,-79.9,-81.81
1733053319150038790,1733053319149781227,5,-0.36,-0.46,1.97,4.734133666666667,-79.73,-80.75
1733053319250127686,1733053319249870777,5,-0.36,-0.46,1.97,4.6153113333333335,-80.03,-80.81
1733053319350017465,1733053319349848031,5,-0.36,-0.46,1.97,4.508996333333333,-79.17,-80.79
1733053319450112853,1733053319449914455,5,-0.36,-0.46,1.97,4.408935333333333,-78.83,-81.7
1733053319550129527,1733053319549908161,5,-0.36,-0.46,1.97,4.358904666666667,-79.05,-80.87
1733053319650283857,1733053319650090932,5,-0.36,-0.46,1.97,4.290113,-78.72,-81.51
1733053319750266196,1733053319749744176,5,-0.36,-0.46,1.97,4.208813666666667,-78.86,-81.04
1733053319848172084,1733053319847901344,5,-0.36,-0.46,1.97,4.102499,-78.82,-80.85
1733053319948309954,1733053319947917938,5,-0.36,-0.46,1.97,4.021199333333333,-78.77,-80.74
1733053320050422491,1733053320047916889,5,-0.36,-0.46,1.97,3.9836763333333334,-78.85,-80.83
1733053320149294695,1733053320149011611,5,-0.36,-0.46,1.97,3.964915,-78.7,-80.47
1733053320249419301,1733053320249165058,5,-0.36,-0.46,1.97,3.8961230000000007,-79.22,-80.8
1733053320349382836,1733053320349183320,5,-0.36,-0.46,1.97,3.814823666666667,-79.09,-80.39
1733053320749097780,1733053320748992681,5,-0.36,-0.46,1.97,3.802316,-79.19,-80.58
1733053320850018089,1733053320849872112,5,-0.36,-0.46,1.97,3.7585393333333332,-79.18,-80.53
1733053320949656550,1733053320949516534,5,-0.36,-0.46,1.97,3.739778,-78.92,-80.54
1733053321049560547,1733053321049028635,5,-0.36,-0.46,1.97,3.7147626666666667,-79.05,-80.94
1733053321149383860,1733053321149209737,5,-0.36,-0.46,1.97,3.771047,-79.31,-80.5
1733053321249702438,1733053321249541997,5,-0.36,-0.46,1.97,3.8273313333333334,-79.12,-80.61
1733053321349877008,1733053321347890615,5,-0.36,-0.46,1.97,3.8898696666666672,-79.08,-80.56
1733053321449273967,1733053321449010372,5,-0.36,-0.46,1.97,3.9336463333333334,-78.78,-80.45
1733053321549920727,1733053321549540281,5,-0.36,-0.46,1.97,3.9961843333333333,-79.26,-80.99
1733053321648180088,1733053321647900104,5,-0.36,-0.46,1.97,4.033707,-79.31,-80.98
1733053321748275439,1733053321747900009,5,-0.36,-0.46,1.97,4.089991333333334,-79.22,-80.63
1733053321848430245,1733053321847917318,5,-0.36,-0.46,1.97,4.133768000000001,-79.35,-80.59
1733053321948346642,1733053321947949647,5,-0.36,-0.46,1.97,4.183798666666667,-78.95,-80.62
1733053322048183731,1733053322047871589,5,-0.36,-0.46,1.97,4.321382333333333,-79.46,-80.71
1733053322148370846,1733053322147891998,5,-0.36,-0.46,1.97,4.383920333333333,-79.19,-80.52
1733053322248489302,1733053322247927188,5,-0.36,-0.46,1.97,4.458966,-79.58,-80.63
1733053322348274705,1733053322347892761,5,-0.36,-0.46,1.97,4.5277579999999995,-78.92,-80.53
1733053322549767124,1733053322549335956,5,-0.36,-0.46,1.97,4.640326666666667,-79.95,-80.55
1733053322649247415,1733053322649159431,5,-0.36,-0.46,1.97,4.746641333333334,-80.12,-81.22
1733053322749392376,1733053322749157190,5,-0.36,-0.46,1.97,4.840448333333334,-79.6,-81.21
1733053322849317576,1733053322849118947,5,-0.36,-0.46,1.97,4.915494,-79.42,-81.17
1733053322949248381,1733053322949006080,5,-0.36,-0.46,1.97,4.978032,-79.15,-81.06
1733053323049338895,1733053323049101591,5,-0.36,-0.46,1.97,5.034316333333334,-79.51,-80.55
1733053323151360371,1733053323151055335,5,-0.36,-0.46,1.97,5.121869666666666,-79.78,-80.79
1733053323248165373,1733053323247911930,5,-0.36,-0.46,1.97,5.234438333333333,-79.29,-80.55
1733053323348456760,1733053323347944736,5,-0.36,-0.46,1.97,5.340752999999999,-78.85,-80.75
1733053323448310561,1733053323447908878,5,-0.36,-0.46,1.97,5.447067666666666,-78.94,-81.11
1733053323548364423,1733053323547902107,5,-0.36,-0.46,1.97,5.540875,-78.84,-81.28
1733053323648334223,1733053323647925615,5,-0.36,-0.46,1.97,5.615920666666667,-79.33,-80.77
1733053323748345714,1733053323747956275,5,-0.36,-0.46,1.97,5.684712666666667,-79.61,-80.62
1733053323848356757,1733053323847927331,5,-0.36,-0.46,1.97,5.766012,-79.17,-81.3
1733053323948226315,1733053323947932243,5,-0.36,-0.46,1.97,5.884834333333333,-79.35,-81.83
1733053324048206666,1733053324047911167,5,-0.36,-0.46,1.97,5.984894999999999,-79.13,-81.02
1733053324148212483,1733053324147906303,5,-0.36,-0.46,1.97,6.072448333333334,-79.31,-80.77
1733053324248273473,1733053324247925519,5,-0.36,-0.46,1.97,6.153748,-79.57,-80.44
1733053324348283191,1733053324347905874,5,-0.36,-0.46,1.97,6.266316666666667,-79.89,-81.93
1733053324448206760,1733053324447922706,5,-0.36,-0.46,1.97,6.391393,-79.91,-83.09
1733053324548113412,1733053324547888278,5,-0.36,-0.46,1.97,6.528976666666666,-79.57,-82.01
1733053324648440039,1733053324647973537,5,-0.36,-0.46,1.97,6.654053,-79.25,-81.03
1733053324748266191,1733053324747916936,5,-0.36,-0.46,1.97,6.754113999999999,-80.43,-81.49
1733053324848040834,1733053324847926616,5,-0.36,-0.46,1.97,6.847921333333333,-79.75,-81.11
1733053324948218456,1733053324947887182,5,-0.36,-0.46,1.97,6.891698000000001,-79.88,-81.02
1733053325048341776,1733053325047926902,5,-0.36,-0.46,1.97,6.991758999999999,-79.79,-83.31
1733053325149134112,1733053325147896766,5,-0.36,-0.46,1.97,7.110581333333333,-78.85,-81.11
1733053325248253990,1733053325247892379,5,-0.36,-0.46,1.97,7.248165,-79.69,-80.83
1733053325348172539,1733053325347881555,5,-0.36,-0.46,1.97,7.373241,-79.35,-80.53
1733053325448246911,1733053325447903156,5,-0.36,-0.46,1.97,7.467048000000001,-79.46,-80.65
1733053325548240653,1733053325547922372,5,-0.36,-0.46,1.97,7.610885666666667,-80.08,-82.5
1733053325648156739,1733053325647899389,5,-0.36,-0.46,1.97,7.717200333333333,-80.19,-82.99
1733053325748148385,1733053325747902631,5,-0.36,-0.46,1.97,7.867291999999999,-79.63,-81.41
1733053325848273184,1733053325847957849,5,-0.36,-0.46,1.97,7.961099333333333,-80.18,-81.15
1733053325948131830,1733053325947925090,5,-0.36,-0.46,1.97,8.067414333333334,-80.13,-80.73
1733053326049254229,1733053326049070835,5,-0.36,-0.46,1.97,8.154967666666666,-79.77,-80.59
1733053326149570940,1733053326149265050,5,-0.36,-0.46,1.97,8.280043666666666,-80.99,-81.7
1733053326249207830,1733053326249032974,5,-0.36,-0.46,1.97,8.411373666666668,-81.38,-81.71
1733053326349451976,1733053326349153041,5,-0.36,-0.46,1.97,8.53645,-81.04,-82.82
1733053326449382964,1733053326449161052,5,-0.36,-0.46,1.97,8.655272333333333,-79.99,-81.63
1733053326549204958,1733053326548960685,5,-0.36,-0.46,1.97,8.767840999999999,-79.12,-80.82
1733053326648115029,1733053326647903203,5,-0.36,-0.46,1.97,8.899170666666667,-80.65,-81.61
1733053326748125756,1733053326747893095,5,-0.36,-0.46,1.97,9.080531333333333,-85.27,-86.15
1733053326848147422,1733053326847897529,5,-0.36,-0.46,1.97,9.299414666666665,-84.89,-87.24
1733053326950681112,1733053326950530767,5,-0.36,-0.46,1.97,9.45576,-84.9,-88.26
1733053327050977222,1733053327050775289,5,-0.36,-0.46,1.97,9.580836333333334,-83.22,-84.71
1733053327150763931,1733053327150587797,5,-0.36,-0.46,1.97,9.680897,-84.98,-85.85
1733053327250510067,1733053327250393152,5,-0.36,-0.46,1.97,9.793465666666668,-86.99,-89.66
1733053327350564020,1733053327350410699,5,-0.36,-0.46,1.97,9.874764999999998,-87.92,-90.25
1733053327450818227,1733053327450671434,5,-0.36,-0.46,1.97,9.899780333333332,-90.95,-98.3
1733053327550423790,1733053327550295591,5,-0.36,-0.46,1.97,9.987333666666666,-86.09,-90.49
