%time,field.stamp,field.id,field.x,field.y,field.z,field.distanceFromTag,field.rssi,field.rssi_fp
1730041400747687898,1730041400747455596,3,2.5775,-0.87,1.97,6.153748333333333,-80.17,-81.16
1730041400846488163,1730041400846063375,3,2.5775,-0.87,1.97,6.153748333333333,-79.7,-80.77
1730041400948257393,1730041400948034048,3,2.5775,-0.87,1.97,6.147494333333333,-79.65,-80.58
1730041401049119962,1730041401048855543,3,2.5775,-0.87,1.97,6.153748333333333,-80.18,-81.22
1730041401148608795,1730041401148353576,3,2.5775,-0.87,1.97,6.166256,-80.01,-81.18
1730041401248551510,1730041401248332023,3,2.5775,-0.87,1.97,6.191271333333333,-79.61,-80.94
1730041401348723001,1730041401348544597,3,2.5775,-0.87,1.97,6.178763666666666,-80.11,-81.19
1730041401449146592,1730041401448852300,3,2.5775,-0.87,1.97,6.191271,-80.28,-81.75
1730041401548358652,1730041401548221111,3,2.5775,-0.87,1.97,6.1600019999999995,-79.41,-80.5
1730041401648274739,1730041401648124456,3,2.5775,-0.87,1.97,6.166255666666667,-79.72,-81.02
1730041401750168555,1730041401749843597,3,2.5775,-0.87,1.97,6.166255666666667,-80.34,-81.17
1730041401849315420,1730041401848973274,3,2.5775,-0.87,1.97,6.185016999999999,-79.96,-81.0
1730041401949194371,1730041401948932886,3,2.5775,-0.87,1.97,6.197524666666666,-79.98,-81.47
1730041402048739568,1730041402048626184,3,2.5775,-0.87,1.97,6.185017333333334,-79.71,-80.84
1730041402148995823,1730041402148784875,3,2.5775,-0.87,1.97,6.185017333333334,-79.77,-80.74
1730041402249598417,1730041402249323606,3,2.5775,-0.87,1.97,6.185017333333334,-80.38,-81.13
1730041402346465376,1730041402346004486,3,2.5775,-0.87,1.97,6.197524666666666,-79.9,-81.82
1730041402446402362,1730041402446045637,3,2.5775,-0.87,1.97,6.172509333333333,-79.48,-80.45
1730041402550230951,1730041402550071001,3,2.5775,-0.87,1.97,6.166255666666667,-80.64,-81.1
1730041402649826022,1730041402649512052,3,2.5775,-0.87,1.97,6.147494333333333,-79.58,-80.62
1730041402749114191,1730041402748909711,3,2.5775,-0.87,1.97,6.172509666666667,-79.81,-81.0
1730041402848959129,1730041402848802328,3,2.5775,-0.87,1.97,6.1600019999999995,-79.79,-81.08
1730041402950054915,1730041402949815273,3,2.5775,-0.87,1.97,6.1600019999999995,-80.32,-81.03
1730041403046447177,1730041403046010255,3,2.5775,-0.87,1.97,6.1287329999999995,-80.01,-81.35
1730041403146359567,1730041403146048069,3,2.5775,-0.87,1.97,6.128733,-79.49,-80.65
1730041403247633449,1730041403247289657,3,2.5775,-0.87,1.97,6.128733,-79.51,-80.62
1730041403349036452,1730041403348658323,3,2.5775,-0.87,1.97,6.153748333333333,-79.6,-81.1
1730041403448649966,1730041403448424100,3,2.5775,-0.87,1.97,6.166256,-79.59,-80.89
1730041403548269700,1730041403548135519,3,2.5775,-0.87,1.97,6.178763666666666,-79.87,-81.02
1730041403648036082,1730041403647939443,3,2.5775,-0.87,1.97,6.166256,-79.52,-80.54
1730041403748612927,1730041403748251676,3,2.5775,-0.87,1.97,6.153748333333333,-79.73,-80.81
1730041403847572911,1730041403847232103,3,2.5775,-0.87,1.97,6.147494666666667,-79.49,-80.5
1730041403946302083,1730041403946020126,3,2.5775,-0.87,1.97,6.160002333333334,-79.77,-81.0
1730041404048226259,1730041404048012256,3,2.5775,-0.87,1.97,6.153748333333333,-79.54,-80.57
1730041404148364489,1730041404148133277,3,2.5775,-0.87,1.97,6.141240666666666,-80.11,-81.26
1730041404248841120,1730041404248565435,3,2.5775,-0.87,1.97,6.153748,-80.66,-81.01
1730041404348442020,1730041404348128795,3,2.5775,-0.87,1.97,6.166255666666667,-79.93,-81.08
1730041404448313411,1730041404448228359,3,2.5775,-0.87,1.97,6.178763333333333,-80.0,-81.01
1730041404549066361,1730041404548763990,3,2.5775,-0.87,1.97,6.172509666666667,-79.44,-80.59
1730041404648673718,1730041404648378372,3,2.5775,-0.87,1.97,6.178763666666666,-79.86,-81.07
1730041404748196668,1730041404748016595,3,2.5775,-0.87,1.97,6.172509666666667,-80.1,-80.83
1730041404848138348,1730041404847976922,3,2.5775,-0.87,1.97,6.191271,-79.59,-80.76
1730041404948901751,1730041404948724746,3,2.5775,-0.87,1.97,6.191271,-79.72,-81.05
1730041405048736455,1730041405048533678,3,2.5775,-0.87,1.97,6.197525,-79.55,-81.01
1730041405149156395,1730041405148976087,3,2.5775,-0.87,1.97,6.178763666666666,-80.07,-80.7
1730041405248333142,1730041405248106002,3,2.5775,-0.87,1.97,6.185017333333334,-79.78,-80.55
1730041405347309947,1730041405347204685,3,2.5775,-0.87,1.97,6.203778666666667,-79.73,-80.81
1730041405447532318,1730041405447226047,3,2.5775,-0.87,1.97,6.203778666666667,-79.5,-80.94
1730041405646405537,1730041405646037578,3,2.5775,-0.87,1.97,6.210032333333333,-79.83,-80.96
1730041406046448602,1730041406046035766,3,2.5775,-0.87,1.97,6.153748333333333,-79.65,-80.72
1730041406148110057,1730041406147941827,3,2.5775,-0.87,1.97,6.166255666666667,-79.6,-81.88
1730041406248653578,1730041406248293638,3,2.5775,-0.87,1.97,6.178763333333333,-79.56,-80.74
1730041406350935926,1730041406349946022,3,2.5775,-0.87,1.97,6.178763333333333,-79.58,-80.98
1730041406478064513,1730041406477789163,3,2.5775,-0.87,1.97,6.1600019999999995,-80.01,-80.92
1730041406546357529,1730041406546072244,3,2.5775,-0.87,1.97,6.178763333333333,-79.85,-81.22
1730041406648215775,1730041406648134469,3,2.5775,-0.87,1.97,6.178763333333333,-79.59,-80.89
1730041406748490500,1730041406748126983,3,2.5775,-0.87,1.97,6.197524666666666,-79.71,-81.36
1730041406848140183,1730041406847607612,3,2.5775,-0.87,1.97,6.185017333333334,-79.74,-80.97
1730041406947550481,1730041406947200775,3,2.5775,-0.87,1.97,6.197524666666666,-79.94,-81.12
1730041407047381367,1730041407047214031,3,2.5775,-0.87,1.97,6.191271,-80.68,-81.76
1730041407147631803,1730041407147292137,3,2.5775,-0.87,1.97,6.197524666666666,-79.95,-81.23
1730041407249068828,1730041407248835086,3,2.5775,-0.87,1.97,6.191271,-79.98,-81.21
1730041407348194021,1730041407347764015,3,2.5775,-0.87,1.97,6.191271,-79.58,-81.05
1730041407447651869,1730041407447394132,3,2.5775,-0.87,1.97,6.178763333333333,-79.36,-80.76
1730041407547654693,1730041407547370910,3,2.5775,-0.87,1.97,6.1600019999999995,-79.73,-80.91
1730041407647511952,1730041407647274494,3,2.5775,-0.87,1.97,6.141240666666666,-79.75,-80.77
1730041407747520059,1730041407747434854,3,2.5775,-0.87,1.97,6.134987,-79.63,-80.9
1730041407847283996,1730041407847123622,3,2.5775,-0.87,1.97,6.153748333333333,-80.81,-80.99
1730041407947409953,1730041407947165966,3,2.5775,-0.87,1.97,6.166256,-79.85,-80.98
1730041408046211339,1730041408046040773,3,2.5775,-0.87,1.97,6.172509666666667,-79.58,-81.13
1730041408146551643,1730041408146079301,3,2.5775,-0.87,1.97,6.185017333333334,-79.74,-81.19
1730041408249545383,1730041408249323606,3,2.5775,-0.87,1.97,6.185017333333334,-79.87,-80.89
1730041408348558120,1730041408348267316,3,2.5775,-0.87,1.97,6.197525,-79.89,-81.03
1730041408448421259,1730041408448264122,3,2.5775,-0.87,1.97,6.178763666666666,-80.05,-80.85
1730041408549558988,1730041408549272537,3,2.5775,-0.87,1.97,6.185017333333334,-79.64,-80.78
1730041408646702493,1730041408646025896,3,2.5775,-0.87,1.97,6.178763666666666,-79.73,-80.77
1730041408746360735,1730041408746032238,3,2.5775,-0.87,1.97,6.178763666666666,-79.87,-80.97
1730041408846708467,1730041408846002101,3,2.5775,-0.87,1.97,6.166256,-79.85,-80.98
1730041408946424542,1730041408946033000,3,2.5775,-0.87,1.97,6.178763333333333,-80.7,-81.38
1730041409046549530,1730041409046012639,3,2.5775,-0.87,1.97,6.191270666666667,-79.84,-81.48
1730041409146463282,1730041409146076679,3,2.5775,-0.87,1.97,6.185016999999999,-79.52,-80.58
1730041409246534169,1730041409246002912,3,2.5775,-0.87,1.97,6.172509666666667,-80.04,-80.76
1730041409348661914,1730041409348421812,3,2.5775,-0.87,1.97,6.160002333333334,-79.81,-80.65
1730041409448540014,1730041409448377132,3,2.5775,-0.87,1.97,6.185017333333334,-79.59,-80.79
1730041409548816235,1730041409548655271,3,2.5775,-0.87,1.97,6.185017333333334,-80.16,-81.1
1730041409649008462,1730041409648793697,3,2.5775,-0.87,1.97,6.178763333333333,-79.45,-81.0
1730041409746451355,1730041409746042251,3,2.5775,-0.87,1.97,6.1287329999999995,-80.05,-81.21
1730041409846528880,1730041409846035242,3,2.5775,-0.87,1.97,6.103717666666667,-79.59,-80.47
1730041409946762166,1730041409946065425,3,2.5775,-0.87,1.97,6.078702333333333,-79.59,-80.64
1730041410046955775,1730041410046121358,3,2.5775,-0.87,1.97,6.084956000000001,-80.09,-81.17
1730041410146574084,1730041410146033048,3,2.5775,-0.87,1.97,6.047433000000001,-79.98,-80.9
1730041410246443713,1730041410246024608,3,2.5775,-0.87,1.97,6.022417999999999,-80.25,-81.15
1730041410346585416,1730041410346016168,3,2.5775,-0.87,1.97,5.978641333333333,-79.32,-80.83
1730041410948185533,1730041410947982549,3,2.5775,-0.87,1.97,5.791027333333333,-80.7,-83.2
1730041411048207774,1730041411048027753,3,2.5775,-0.87,1.97,5.722235333333334,-79.53,-80.98
1730041411148237068,1730041411148001432,3,2.5775,-0.87,1.97,5.659697,-79.26,-80.73
1730041411248602672,1730041411248336315,3,2.5775,-0.87,1.97,5.584651333333333,-79.54,-80.72
1730041411348508728,1730041411348288059,3,2.5775,-0.87,1.97,5.5346210000000005,-79.8,-80.73
1730041411447600257,1730041411447259902,3,2.5775,-0.87,1.97,5.4720830000000005,-79.21,-80.66
1730041411547465500,1730041411547223091,3,2.5775,-0.87,1.97,5.422052666666666,-79.53,-81.76
1730041411647537594,1730041411647298812,3,2.5775,-0.87,1.97,5.365768333333334,-79.1,-80.61
1730041411847443733,1730041411847174167,3,2.5775,-0.87,1.97,5.328245333333332,-78.86,-81.68
1730041411947702304,1730041411947301387,3,2.5775,-0.87,1.97,5.284468666666666,-79.32,-80.82
1730041412047944039,1730041412047512531,3,2.5775,-0.87,1.97,5.215676666666666,-79.65,-80.79
1730041412147396343,1730041412147275447,3,2.5775,-0.87,1.97,5.134377333333333,-79.48,-80.43
1730041412247518966,1730041412247304439,3,2.5775,-0.87,1.97,5.065585333333334,-78.99,-80.55
1730041412347630557,1730041412347360610,3,2.5775,-0.87,1.97,5.04057,-78.81,-80.91
1730041412447363083,1730041412447183370,3,2.5775,-0.87,1.97,5.009301,-78.74,-80.98
1730041412548784599,1730041412548317909,3,2.5775,-0.87,1.97,4.959270666666668,-79.11,-82.55
1730041412648796983,1730041412648502111,3,2.5775,-0.87,1.97,4.871717666666666,-78.95,-80.66
1730041412748092469,1730041412747904539,3,2.5775,-0.87,1.97,4.802925666666667,-79.37,-80.43
1730041412848328519,1730041412848195552,3,2.5775,-0.87,1.97,4.72788,-78.92,-80.7
1730041412948747836,1730041412948556900,3,2.5775,-0.87,1.97,4.6778493333333335,-78.55,-80.6
1730041413048390448,1730041413048113584,3,2.5775,-0.87,1.97,4.627819,-78.51,-81.37
1730041413147644244,1730041413147186517,3,2.5775,-0.87,1.97,4.577788333333333,-79.2,-81.06
1730041413247554779,1730041413247231006,3,2.5775,-0.87,1.97,4.508996666666667,-78.5,-80.44
1730041413346531515,1730041413346025943,3,2.5775,-0.87,1.97,4.440204666666667,-79.51,-80.96
1730041413446608404,1730041413446010589,3,2.5775,-0.87,1.97,4.365158999999999,-79.31,-80.88
1730041413546345273,1730041413546015501,3,2.5775,-0.87,1.97,4.327636,-78.69,-80.57
1730041413646521979,1730041413646051883,3,2.5775,-0.87,1.97,4.258844,-78.72,-80.92
1730041413746826613,1730041413746044635,3,2.5775,-0.87,1.97,4.196306,-78.85,-80.9
1730041413846439400,1730041413846018075,3,2.5775,-0.87,1.97,4.121260333333333,-79.06,-80.93
1730041413946670388,1730041413946064472,3,2.5775,-0.87,1.97,4.052468666666667,-78.99,-81.07
1730041414047757165,1730041414047328948,3,2.5775,-0.87,1.97,4.008692,-78.9,-80.7
1730041414247849564,1730041414247608661,3,2.5775,-0.87,1.97,3.946154,-78.91,-81.04
1730041414647361270,1730041414647242784,3,2.5775,-0.87,1.97,3.7335243333333334,-79.0,-80.81
1730041414748987590,1730041414748805046,3,2.5775,-0.87,1.97,3.689747666666667,-79.13,-80.93
1730041414846423874,1730041414846016407,3,2.5775,-0.87,1.97,3.6709860000000005,-78.54,-80.55
1730041414946426130,1730041414946042060,3,2.5775,-0.87,1.97,3.6397166666666667,-79.06,-80.93
1730041415047565810,1730041415047486305,3,2.5775,-0.87,1.97,3.6084476666666667,-78.68,-80.77
1730041415148381338,1730041415147384643,3,2.5775,-0.87,1.97,3.5834326666666665,-79.16,-80.77
1730041415246195759,1730041415246009826,3,2.5775,-0.87,1.97,3.558417666666667,-79.4,-80.66
1730041415346341136,1730041415345997810,3,2.5775,-0.87,1.97,3.552163666666667,-78.95,-80.53
1730041415446627391,1730041415446051359,3,2.5775,-0.87,1.97,3.533402,-79.35,-80.78
1730041415546352972,1730041415545995235,3,2.5775,-0.87,1.97,3.533402,-79.21,-80.65
1730041415646405479,1730041415645993947,3,2.5775,-0.87,1.97,3.5083870000000004,-79.02,-81.1
1730041415747255169,1730041415747050762,3,2.5775,-0.87,1.97,3.4958793333333333,-79.28,-80.56
1730041415847742264,1730041415847300052,3,2.5775,-0.87,1.97,3.477117666666667,-79.48,-81.03
1730041415948730785,1730041415948623657,3,2.5775,-0.87,1.97,3.470863666666667,-79.21,-80.62
1730041416048843239,1730041416048568248,3,2.5775,-0.87,1.97,3.470863666666667,-79.67,-81.01
1730041416148546735,1730041416148385524,3,2.5775,-0.87,1.97,3.4646100000000004,-79.0,-80.61
1730041416249289064,1730041416248952865,3,2.5775,-0.87,1.97,3.477117666666667,-79.5,-81.33
1730041416349002825,1730041416348759651,3,2.5775,-0.87,1.97,3.470864,-79.33,-81.03
1730041416448445821,1730041416448134422,3,2.5775,-0.87,1.97,3.4833716666666668,-79.38,-80.66
1730041416548450725,1730041416548199653,3,2.5775,-0.87,1.97,3.502133,-80.15,-81.31
1730041416648627619,1730041416648325920,3,2.5775,-0.87,1.97,3.533402,-79.45,-80.76
1730041416748256450,1730041416747969388,3,2.5775,-0.87,1.97,3.5584173333333333,-79.36,-81.13
1730041416848955864,1730041416848604440,3,2.5775,-0.87,1.97,3.5896863333333333,-79.66,-81.14
1730041416949200700,1730041416948961496,3,2.5775,-0.87,1.97,3.6147016666666665,-79.23,-80.83
1730041417049063180,1730041417048719167,3,2.5775,-0.87,1.97,3.6647319999999994,-79.06,-80.5
1730041417148762438,1730041417148156166,3,2.5775,-0.87,1.97,3.708508666666667,-79.23,-80.63
1730041417248151496,1730041417247951984,3,2.5775,-0.87,1.97,3.7585390000000003,-79.22,-81.01
1730041417348057269,1730041417347843170,3,2.5775,-0.87,1.97,3.8023156666666664,-79.01,-80.49
1730041417448257483,1730041417448014497,3,2.5775,-0.87,1.97,3.852346333333333,-79.56,-81.1
1730041417548171167,1730041417547954082,3,2.5775,-0.87,1.97,3.914884666666667,-78.88,-80.65
1730041417649110301,1730041417648771047,3,2.5775,-0.87,1.97,3.964915,-79.58,-80.72
1730041417749481723,1730041417749182224,3,2.5775,-0.87,1.97,4.027453,-78.89,-80.86
1730041417848372968,1730041417848138093,3,2.5775,-0.87,1.97,4.0837373333333336,-78.54,-81.14
1730041417948168807,1730041417948015928,3,2.5775,-0.87,1.97,4.152529333333334,-78.99,-80.91
1730041418048403444,1730041418048152208,3,2.5775,-0.87,1.97,4.227575,-78.97,-80.78
1730041418148650994,1730041418148211479,3,2.5775,-0.87,1.97,4.296366666666667,-78.62,-80.81
1730041418248087613,1730041418247946739,3,2.5775,-0.87,1.97,4.358905,-78.51,-80.74
1730041418348171161,1730041418347989320,3,2.5775,-0.87,1.97,4.427696999999999,-78.95,-81.02
1730041418448440262,1730041418448246717,3,2.5775,-0.87,1.97,4.515250333333333,-78.92,-80.61
1730041418548438665,1730041418548297166,3,2.5775,-0.87,1.97,4.609057333333333,-78.99,-80.7
1730041418648514276,1730041418648283958,3,2.5775,-0.87,1.97,4.702864666666667,-78.73,-80.84
1730041418748258204,1730041418748013973,3,2.5775,-0.87,1.97,4.771656666666666,-78.58,-80.69
1730041418848083687,1730041418847879171,3,2.5775,-0.87,1.97,4.865463666666667,-78.5,-80.48
1730041418948140605,1730041418947861433,3,2.5775,-0.87,1.97,4.909240333333333,-79.32,-80.71
1730041419048725669,1730041419048344135,3,2.5775,-0.87,1.97,4.99054,-78.55,-80.83
1730041419148259099,1730041419148083448,3,2.5775,-0.87,1.97,5.053078,-78.65,-81.01
1730041419548789106,1730041419548599004,3,2.5775,-0.87,1.97,5.4095450000000005,-78.42,-80.52
1730041419649251365,1730041419649006843,3,2.5775,-0.87,1.97,5.465829333333333,-78.74,-81.11
1730041419748895897,1730041419748764276,3,2.5775,-0.87,1.97,5.559636666666667,-78.81,-80.71
1730041419947348936,1730041419947124004,3,2.5775,-0.87,1.97,5.672205000000001,-79.64,-80.97
1730041420047357603,1730041420047107934,3,2.5775,-0.87,1.97,5.809788666666667,-78.75,-80.5
1730041420147524574,1730041420147417306,3,2.5775,-0.87,1.97,5.941118666666667,-78.72,-80.83
1730041420277910241,1730041420277605772,3,2.5775,-0.87,1.97,6.016164333333333,-78.85,-80.62
1730041420347319562,1730041420347159862,3,2.5775,-0.87,1.97,6.109971333333334,-79.09,-80.51
1730041420447360375,1730041420447273254,3,2.5775,-0.87,1.97,6.191270666666667,-79.4,-80.78
1730041420548390873,1730041420548131227,3,2.5775,-0.87,1.97,6.328854666666667,-79.2,-80.61
1730041420649418665,1730041420649152994,3,2.5775,-0.87,1.97,6.460185,-81.44,-81.34
1730041420749098595,1730041420748854160,3,2.5775,-0.87,1.97,6.604022666666666,-79.08,-81.65
1730041420848333826,1730041420848056077,3,2.5775,-0.87,1.97,1.7197976666666666,-79.16,-81.29
1730041420948193481,1730041420948040962,3,2.5775,-0.87,1.97,1.8010970000000004,-78.96,-81.68
1730041421048357273,1730041421048150777,3,2.5775,-0.87,1.97,1.8698890000000004,-78.95,-80.77
1730041421148817359,1730041421148652791,3,2.5775,-0.87,1.97,6.935474333333333,-79.56,-80.93
1730041421248711894,1730041421248472213,3,2.5775,-0.87,1.97,7.0480426666666665,-79.18,-80.84
1730041421349395595,1730041421349133014,3,2.5775,-0.87,1.97,7.1668650000000005,-80.69,-80.76
1730041421449785795,1730041421449487447,3,2.5775,-0.87,1.97,7.285687666666667,-79.32,-81.15
1730041421546666093,1730041421546103239,3,2.5775,-0.87,1.97,7.366987333333334,-79.08,-81.03
1730041421646386413,1730041421646031856,3,2.5775,-0.87,1.97,7.4670483333333335,-79.23,-81.16
1730041421746426468,1730041421746034145,3,2.5775,-0.87,1.97,7.5796166666666664,-79.5,-81.94
1730041421846376753,1730041421846028089,3,2.5775,-0.87,1.97,7.704693,-79.44,-80.59
1730041421946931427,1730041421946048021,3,2.5775,-0.87,1.97,7.823515333333333,-80.56,-81.16
1730041422046587612,1730041422046068906,3,2.5775,-0.87,1.97,7.9360843333333335,-80.48,-81.01
1730041422146299209,1730041422146023511,3,2.5775,-0.87,1.97,8.054906666666668,-79.97,-81.07
1730041422246308156,1730041422246028900,3,2.5775,-0.87,1.97,8.148714,-79.38,-80.74
1730041422347581262,1730041422347227573,3,2.5775,-0.87,1.97,8.248774666666666,-80.24,-82.96
1730041422447485534,1730041422447206974,3,2.5775,-0.87,1.97,8.355089666666666,-80.26,-81.1
1730041422547412217,1730041422547265052,3,2.5775,-0.87,1.97,8.473912,-79.77,-80.94
1730041422647412684,1730041422647164821,3,2.5775,-0.87,1.97,8.580226666666666,-79.86,-81.09
1730041422747380562,1730041422747147321,3,2.5775,-0.87,1.97,8.692795333333335,-79.92,-80.72
1730041422847487556,1730041422847255468,3,2.5775,-0.87,1.97,8.811617666666667,-80.1,-80.7
1730041422949839681,1730041422949513673,3,2.5775,-0.87,1.97,8.924186333333333,-80.03,-80.93
1730041423049289307,1730041423049094200,3,2.5775,-0.87,1.97,9.024247,-79.96,-81.02
1730041423149386598,1730041423149156570,3,2.5775,-0.87,1.97,9.124308000000001,-80.32,-80.86
1730041423249314081,1730041423249168395,3,2.5775,-0.87,1.97,9.211861333333333,-80.61,-81.52
1730041423349308490,1730041423349062442,3,2.5775,-0.87,1.97,9.330683666666667,-80.43,-83.09
1730041423449154237,1730041423449012756,3,2.5775,-0.87,1.97,9.436998333333333,-80.68,-83.38
1730041423548885217,1730041423548722982,3,2.5775,-0.87,1.97,9.580836,-80.7,-80.84
1730041423650693489,1730041423650337696,3,2.5775,-0.87,1.97,9.693404666666666,-80.66,-81.22
1730041423749124701,1730041423748950004,3,2.5775,-0.87,1.97,9.824734666666666,-80.19,-81.21
1730041423849441184,1730041423849354028,3,2.5775,-0.87,1.97,9.906034333333332,-79.83,-81.02
1730041423949034544,1730041423948877811,3,2.5775,-0.87,1.97,10.043618333333333,-81.52,-81.67
1730041424048786659,1730041424048648118,3,2.5775,-0.87,1.97,10.143679333333333,-81.69,-82.37
1730041424149420985,1730041424149097919,3,2.5775,-0.87,1.97,10.256248,-79.97,-80.89
1730041424249433789,1730041424249212503,3,2.5775,-0.87,1.97,10.325039666666667,-79.58,-81.09
1730041424349335283,1730041424349120616,3,2.5775,-0.87,1.97,10.437607999999999,-80.51,-80.85
1730041424449121772,1730041424448954105,3,2.5775,-0.87,1.97,10.568937666666667,-80.93,-81.02
1730041424849083562,1730041424848933935,3,2.5775,-0.87,1.97,11.050481333333332,-83.23,-84.31
1730041424949794398,1730041424949590682,3,2.5775,-0.87,1.97,11.200572666666666,-83.3,-84.62
1730041425049543228,1730041425049308061,3,2.5775,-0.87,1.97,11.300633333333332,-80.45,-81.03
1730041425149339920,1730041425149207115,3,2.5775,-0.87,1.97,11.413202,-80.7,-81.27
1730041425250046400,1730041425249768495,3,2.5775,-0.87,1.97,11.507009333333334,-81.15,-81.38
1730041425349247735,1730041425349073171,3,2.5775,-0.87,1.97,11.625832,-80.17,-80.67
1730041425449327727,1730041425449137449,3,2.5775,-0.87,1.97,11.732146666666665,-80.2,-81.2
1730041425548944105,1730041425548733472,3,2.5775,-0.87,1.97,11.825953999999998,-80.43,-80.68
1730041425648830814,1730041425648715734,3,2.5775,-0.87,1.97,11.951029999999998,-80.39,-80.91
1730041425749330765,1730041425749116182,3,2.5775,-0.87,1.97,12.069852333333332,-80.51,-81.1
1730041425849198939,1730041425849080562,3,2.5775,-0.87,1.97,12.176167,-80.7,-81.5
1730041425948935521,1730041425948648214,3,2.5775,-0.87,1.97,12.288735666666668,-82.26,-84.62
1730041426049142981,1730041426048944234,3,2.5775,-0.87,1.97,12.413812,-81.32,-82.08
1730041426149967428,1730041426149752616,3,2.5775,-0.87,1.97,12.538888,-80.77,-81.41
1730041426549302431,1730041426548995018,3,2.5775,-0.87,1.97,13.045446666666665,-81.35,-81.29
1730041426649473151,1730041426649252176,3,2.5775,-0.87,1.97,13.208045333333333,-82.99,-82.74
1730041426749233434,1730041426749074697,3,2.5775,-0.87,1.97,13.364390333333334,-82.67,-84.26
1730041426849323583,1730041426849008560,3,2.5775,-0.87,1.97,13.458197666666665,-80.46,-80.81
1730041426946499215,1730041426946011543,3,2.5775,-0.87,1.97,13.533243333333333,-80.21,-80.95
1730041427046683026,1730041427046039819,3,2.5775,-0.87,1.97,13.620796666666665,-80.18,-81.08
1730041427146578482,1730041427146051406,3,2.5775,-0.87,1.97,13.739619,-79.92,-81.8
1730041427547598644,1730041427547288656,3,2.5775,-0.87,1.97,14.183639666666666,-80.98,-81.45
1730041427647429076,1730041427647197723,3,2.5775,-0.87,1.97,14.308715999999999,-81.49,-81.27
1730041427747450892,1730041427747197389,3,2.5775,-0.87,1.97,14.408777,-81.83,-82.0
1730041427847422440,1730041427847299814,3,2.5775,-0.87,1.97,14.540106999999999,-81.71,-81.73
1730041427947388177,1730041427947157144,3,2.5775,-0.87,1.97,14.658929,-82.66,-83.12
1730041428047409493,1730041428047217845,3,2.5775,-0.87,1.97,14.790258999999999,-81.68,-82.25
1730041428147274602,1730041428147079229,3,2.5775,-0.87,1.97,14.902827333333335,-82.16,-83.92
1730041428247468229,1730041428247144937,3,2.5775,-0.87,1.97,15.015396333333333,-86.31,-86.92
1730041428378586391,1730041428378104686,3,2.5775,-0.87,1.97,15.121711,-83.55,-84.44
1730041428546451000,1730041428546032190,3,2.5775,-0.87,1.97,15.234279666666666,-82.81,-82.86
1730041428646478516,1730041428646012306,3,2.5775,-0.87,1.97,15.328086666666666,-81.76,-83.05
1730041428746428437,1730041428746012210,3,2.5775,-0.87,1.97,15.440655333333334,-82.13,-83.27
1730041428846520992,1730041428846023797,3,2.5775,-0.87,1.97,15.559477666666666,-82.7,-83.19
1730041428946740180,1730041428946080684,3,2.5775,-0.87,1.97,15.684553666666666,-81.81,-82.88
1730041429046561795,1730041429046072721,3,2.5775,-0.87,1.97,15.815883666666666,-80.7,-81.36
1730041429146410226,1730041429146070957,3,2.5775,-0.87,1.97,15.928452333333334,-81.99,-82.13
1730041429246499791,1730041429246054649,3,2.5775,-0.87,1.97,16.059782333333334,-81.26,-81.29
1730041429346445884,1730041429346002340,3,2.5775,-0.87,1.97,16.184858000000002,-81.2,-81.29
1730041429446478398,1730041429446058511,3,2.5775,-0.87,1.97,16.297426333333334,-80.2,-80.84
1730041429547152070,1730041429546088457,3,2.5775,-0.87,1.97,16.409995,-80.45,-80.65
1730041429646547399,1730041429646022796,3,2.5775,-0.87,1.97,16.535071333333335,-82.33,-83.79
1730041429746447804,1730041429746041774,3,2.5775,-0.87,1.97,9.974825666666668,-82.66,-83.47
1730041429846639225,1730041429846025943,3,2.5775,-0.87,1.97,10.087394,-80.58,-80.77
1730041429946697324,1730041429946028947,3,2.5775,-0.87,1.97,10.199962333333334,-83.11,-84.31
1730041430046425598,1730041430046042203,3,2.5775,-0.87,1.97,16.991598666666665,-81.12,-81.41
1730041430146561170,1730041430146035432,3,2.5775,-0.87,1.97,17.104167333333333,-80.94,-81.26
1730041430246608521,1730041430246029138,3,2.5775,-0.87,1.97,17.204228666666666,-80.94,-80.91
1730041430346357805,1730041430346020936,3,2.5775,-0.87,1.97,17.335558666666667,-81.69,-81.53
1730041430447774667,1730041430447512388,3,2.5775,-0.87,1.97,17.448127,-81.02,-81.32
1730041430547451969,1730041430547053337,3,2.5775,-0.87,1.97,17.554441333333333,-80.96,-81.45
1730041430647730513,1730041430647412776,3,2.5775,-0.87,1.97,17.66701,-81.16,-81.16
1730041430747882004,1730041430747613191,3,2.5775,-0.87,1.97,17.804593666666666,-81.71,-83.58
1730041430848034266,1730041430847673654,3,2.5775,-0.87,1.97,17.92967,-84.63,-84.9
1730041430947615659,1730041430947408914,3,2.5775,-0.87,1.97,18.048492666666668,-82.63,-83.6
1730041431048297731,1730041431048170089,3,2.5775,-0.87,1.97,18.173569,-85.35,-85.79
1730041431148326777,1730041431148121595,3,2.5775,-0.87,1.97,18.286137666666665,-86.5,-87.56
1730041431248181719,1730041431247981071,3,2.5775,-0.87,1.97,18.404959666666667,-87.52,-87.96
1730041431348226932,1730041431348007917,3,2.5775,-0.87,1.97,18.498766666666665,-83.26,-82.52
1730041431448498874,1730041431448316574,3,2.5775,-0.87,1.97,18.605081666666663,-86.45,-86.64
1730041431548341404,1730041431548202276,3,2.5775,-0.87,1.97,18.71139666666667,-88.25,-90.2
1730041431646375995,1730041431646069765,3,2.5775,-0.87,1.97,18.823965333333334,-85.21,-86.59
1730041431747990337,1730041431747884511,3,2.5775,-0.87,1.97,18.942787333333335,-85.0,-85.68
1730041431949201829,1730041431948985099,3,2.5775,-0.87,1.97,19.086625,-86.02,-85.91
1730041432049587878,1730041432049301147,3,2.5775,-0.87,1.97,19.249224,-86.32,-87.18
1730041432148554428,1730041432148320198,3,2.5775,-0.87,1.97,19.430585,-84.73,-86.5
1730041432248467052,1730041432248211383,3,2.5775,-0.87,1.97,19.574422666666667,-83.73,-83.46
1730041433149038925,1730041433148870468,3,2.5775,-0.87,1.97,20.618808333333334,-81.42,-81.28
1730041433248527684,1730041433248313665,3,2.5775,-0.87,1.97,20.731377,-80.98,-81.3
1730041433379086012,1730041433378784418,3,2.5775,-0.87,1.97,20.862706666666664,-81.68,-81.49
1730041433448225342,1730041433448051691,3,2.5775,-0.87,1.97,20.969021666666666,-81.4,-81.76
1730041433548659906,1730041433548497438,3,2.5775,-0.87,1.97,21.081590000000002,-81.56,-81.37
1730041433648958949,1730041433648750066,3,2.5775,-0.87,1.97,21.181650666666666,-81.45,-82.13
1730041433749323351,1730041433749007701,3,2.5775,-0.87,1.97,21.306727,-81.21,-81.91
1730041433848921635,1730041433848684310,3,2.5775,-0.87,1.97,21.425549666666665,-80.75,-81.11
1730041433949155166,1730041433948903322,3,2.5775,-0.87,1.97,21.563134,-81.39,-81.55
1730041434048959067,1730041434048766136,3,2.5775,-0.87,1.97,21.675702666666666,-80.94,-81.07
1730041434148228340,1730041434148056507,3,2.5775,-0.87,1.97,21.78827133333333,-81.14,-80.95
1730041434248618912,1730041434248408794,3,2.5775,-0.87,1.97,21.913347666666667,-83.39,-82.99
1730041434348082289,1730041434347935914,3,2.5775,-0.87,1.97,22.044677333333336,-81.47,-81.5
1730041434448092503,1730041434447901248,3,2.5775,-0.87,1.97,22.15099166666667,-81.02,-81.53
1730041434548161077,1730041434547870159,3,2.5775,-0.87,1.97,22.26356,-84.07,-83.18
1730041434648945795,1730041434648720741,3,2.5775,-0.87,1.97,22.37612866666667,-81.73,-81.53
1730041434748862448,1730041434748622179,3,2.5775,-0.87,1.97,22.519966333333333,-80.96,-81.4
1730041434848722911,1730041434848469018,3,2.5775,-0.87,1.97,22.657549666666668,-81.09,-82.48
1730041434948623510,1730041434948360204,3,2.5775,-0.87,1.97,22.801387333333334,-81.34,-81.01
1730041435048082112,1730041435047918796,3,2.5775,-0.87,1.97,22.926463666666667,-81.35,-81.28
1730041435148293237,1730041435148098468,3,2.5775,-0.87,1.97,23.01401733333334,-81.42,-81.16
1730041435248253370,1730041435248049736,3,2.5775,-0.87,1.97,23.101571000000003,-81.77,-81.92
1730041435348812001,1730041435348504066,3,2.5775,-0.87,1.97,14.846542999999999,-87.96,-100.62
1730041435449083550,1730041435448968648,3,2.5775,-0.87,1.97,14.965365333333333,-83.61,-83.68
1730041435548927316,1730041435548646450,3,2.5775,-0.87,1.97,15.090440999999998,-81.72,-81.82
1730041435648809830,1730041435648593902,3,2.5775,-0.87,1.97,23.570606,-82.07,-81.8
1730041435748884283,1730041435748725175,3,2.5775,-0.87,1.97,23.689428666666668,-86.07,-85.18
1730041435848885108,1730041435848681449,3,2.5775,-0.87,1.97,23.795743333333334,-86.31,-86.35
1730041435948874125,1730041435948694944,3,2.5775,-0.87,1.97,23.902058333333333,-82.54,-82.41
1730041436048065494,1730041436047899723,3,2.5775,-0.87,1.97,24.01462666666667,-82.04,-81.83
1730041436148213110,1730041436148079633,3,2.5775,-0.87,1.97,24.145956666666667,-82.22,-83.62
1730041436248066766,1730041436247877359,3,2.5775,-0.87,1.97,24.271033,-84.0,-85.43
1730041436347945627,1730041436347694635,3,2.5775,-0.87,1.97,24.383601666666664,-82.32,-82.34
1730041436449158598,1730041436449019670,3,2.5775,-0.87,1.97,24.502424333333334,-82.71,-83.9
1730041436548355093,1730041436548258066,3,2.5775,-0.87,1.97,24.621246333333335,-83.28,-85.13
1730041436648609148,1730041436648396253,3,2.5775,-0.87,1.97,24.752576333333334,-83.88,-86.03
1730041436748035882,1730041436747893333,3,2.5775,-0.87,1.97,24.871398666666664,-83.96,-84.08
1730041436848257236,1730041436847974300,3,2.5775,-0.87,1.97,24.965206,-83.19,-85.6
1730041436948130867,1730041436947971343,3,2.5775,-0.87,1.97,25.052759,-83.83,-85.01
1730041437048155874,1730041437047803401,3,2.5775,-0.87,1.97,25.146565999999996,-84.0,-84.2
1730041437148449621,1730041437148066997,3,2.5775,-0.87,1.97,25.277895666666666,-84.38,-86.31
1730041437248276971,1730041437248139381,3,2.5775,-0.87,1.97,25.41547966666667,-85.26,-88.21
1730041437348482770,1730041437348041296,3,2.5775,-0.87,1.97,25.546809666666665,-84.98,-85.95
1730041437449065999,1730041437448578596,3,2.5775,-0.87,1.97,25.659378333333333,-84.65,-86.52
1730041437548125938,1730041437547927141,3,2.5775,-0.87,1.97,25.76569333333333,-85.08,-90.74
1730041437648230752,1730041437647929668,3,2.5775,-0.87,1.97,25.865754666666664,-84.82,-88.26
1730041437846575907,1730041437846070766,3,2.5775,-0.87,1.97,26.00959233333333,-85.11,-88.41
1730041437946641477,1730041437946140527,3,2.5775,-0.87,1.97,26.165937,-85.72,-88.71
1730041438147821906,1730041438147438526,3,2.5775,-0.87,1.97,26.353550666666663,-85.52,-89.27
1730041438349103903,1730041438348902702,3,2.5775,-0.87,1.97,26.553672666666667,-85.03,-90.69
1730041439147035448,1730041439146060943,3,2.5775,-0.87,1.97,27.704374666666666,-83.46,-86.31
1730041439246437159,1730041439246017456,3,2.5775,-0.87,1.97,27.835704333333336,-83.51,-83.92
1730041439349203780,1730041439349124193,3,2.5775,-0.87,1.97,27.954526333333334,-83.44,-83.5
1730041439449093462,1730041439448952436,3,2.5775,-0.87,1.97,28.060840666666667,-83.49,-83.81
1730041439546385134,1730041439546020507,3,2.5775,-0.87,1.97,28.16715566666667,-84.02,-85.32
1730041439646338384,1730041439646025180,3,2.5775,-0.87,1.97,28.279724333333334,-83.33,-84.58
1730041439746602791,1730041439746029138,3,2.5775,-0.87,1.97,28.41105466666667,-83.39,-82.93
1730041439849010082,1730041439848875522,3,2.5775,-0.87,1.97,28.536130333333332,-83.02,-84.58
1730041439949302227,1730041439949058055,3,2.5775,-0.87,1.97,28.648699000000004,-83.39,-83.64
1730041440049312369,1730041440049163818,3,2.5775,-0.87,1.97,28.76126766666667,-82.96,-84.79
1730041440149748689,1730041440149530410,3,2.5775,-0.87,1.97,28.880090666666664,-82.3,-84.47
1730041440249381695,1730041440249133825,3,2.5775,-0.87,1.97,29.011421000000002,-82.21,-82.31
1730041440348910315,1730041440348683595,3,2.5775,-0.87,1.97,29.130242999999997,-83.01,-82.98
1730041440449224363,1730041440449032306,3,2.5775,-0.87,1.97,29.242811333333332,-82.02,-82.76
1730041440548620946,1730041440548472642,3,2.5775,-0.87,1.97,29.361633333333334,-84.33,-85.39
1730041440649709211,1730041440649491786,3,2.5775,-0.87,1.97,29.480455333333335,-82.45,-84.1
1730041440748456086,1730041440748130559,3,2.5775,-0.87,1.97,29.599277333333333,-81.65,-81.7
1730041440848605631,1730041440848343133,3,2.5775,-0.87,1.97,29.705592333333332,-82.62,-82.44
1730041440948661654,1730041440948477745,3,2.5775,-0.87,1.97,29.811907333333334,-82.47,-83.05
1730041441048942823,1730041441048633098,3,2.5775,-0.87,1.97,29.924476,-81.87,-82.81
1730041441148866982,1730041441148782730,3,2.5775,-0.87,1.97,30.049552333333335,-82.69,-84.41
1730041441248144926,1730041441247769594,3,2.5775,-0.87,1.97,30.174628666666667,-81.46,-81.51
1730041441348313420,1730041441348046064,3,2.5775,-0.87,1.97,30.305959333333334,-81.72,-81.45
1730041441448168950,1730041441447967052,3,2.5775,-0.87,1.97,30.424781333333332,-81.96,-82.11
1730041441548200616,1730041441548004865,3,2.5775,-0.87,1.97,30.549857666666668,-81.26,-81.66
1730041441648164386,1730041441648000717,3,2.5775,-0.87,1.97,30.674933333333332,-81.53,-81.36
1730041441778688644,1730041441778514862,3,2.5775,-0.87,1.97,30.806263333333334,-81.4,-82.58
1730041441848258524,1730041441848179340,3,2.5775,-0.87,1.97,30.912577666666667,-81.06,-81.27
1730041441948111284,1730041441947914600,3,2.5775,-0.87,1.97,31.012639000000004,-82.14,-82.94
1730041442048521897,1730041442048287153,3,2.5775,-0.87,1.97,31.118954000000002,-81.79,-83.88
1730041442246478054,1730041442246087074,3,2.5775,-0.87,1.97,23.908312666666664,-83.75,-101.8
1730041442346607062,1730041442346012353,3,2.5775,-0.87,1.97,24.077164999999997,-81.24,-81.26
1730041442446433830,1730041442446035146,3,2.5775,-0.87,1.97,24.246017333333338,-82.8,-82.41
1730041442546706917,1730041442546038627,3,2.5775,-0.87,1.97,31.750587999999997,-82.5,-84.14
1730041442646420103,1730041442646029472,3,2.5775,-0.87,1.97,31.856903000000003,-81.61,-81.8
1730041442746491543,1730041442746024131,3,2.5775,-0.87,1.97,31.956964,-81.3,-81.21
1730041442849678596,1730041442849466085,3,2.5775,-0.87,1.97,32.075786,-81.65,-81.94
1730041442948367739,1730041442948190689,3,2.5775,-0.87,1.97,32.20086233333333,-82.04,-82.69
1730041443048145305,1730041443047950506,3,2.5775,-0.87,1.97,32.332192,-81.95,-82.05
1730041443148459038,1730041443148242712,3,2.5775,-0.87,1.97,32.44476133333333,-81.61,-83.78
1730041443248144088,1730041443247919559,3,2.5775,-0.87,1.97,32.563584,-82.3,-83.43
1730041443348383319,1730041443348117589,3,2.5775,-0.87,1.97,32.68240666666667,-81.85,-81.75
1730041443448076567,1730041443447894096,3,2.5775,-0.87,1.97,32.79497466666667,-82.0,-82.28
1730041443548272188,1730041443547972679,3,2.5775,-0.87,1.97,32.907542666666664,-83.03,-83.17
1730041443648189290,1730041443647993564,3,2.5775,-0.87,1.97,33.02636566666667,-82.13,-84.3
1730041443748201082,1730041443748045206,3,2.5775,-0.87,1.97,33.14518833333333,-82.7,-83.37
1730041443948338748,1730041443948172330,3,2.5775,-0.87,1.97,33.32029566666666,-82.21,-84.58
1730041444347644708,1730041444347344636,3,2.5775,-0.87,1.97,33.858122,-83.06,-82.83
1730041444447528608,1730041444447194814,3,2.5775,-0.87,1.97,33.97694366666667,-83.93,-85.12
1730041444549675813,1730041444549444437,3,2.5775,-0.87,1.97,34.07700466666667,-83.5,-83.78
1730041444646330440,1730041444646034479,3,2.5775,-0.87,1.97,34.20208066666667,-83.65,-85.79
1730041445047444468,1730041445047229766,3,2.5775,-0.87,1.97,34.69613366666667,-85.73,-87.3
1730041445147524534,1730041445147239446,3,2.5775,-0.87,1.97,34.80870133333334,-85.46,-87.82
1730041445247331972,1730041445247098445,3,2.5775,-0.87,1.97,34.92126933333333,-87.22,-87.81
1730041445347355681,1730041445347154378,3,2.5775,-0.87,1.97,35.02133,-86.95,-89.89
1730041445447271551,1730041445447106122,3,2.5775,-0.87,1.97,35.108883666666664,-86.5,-87.55
1730041445547479588,1730041445547211170,3,2.5775,-0.87,1.97,35.22145266666667,-85.44,-89.41
1730041445647629759,1730041445647361993,3,2.5775,-0.87,1.97,35.34027533333333,-85.35,-87.36
1730041445747924478,1730041445747593641,3,2.5775,-0.87,1.97,35.477859,-86.34,-86.76
1730041445848210537,1730041445847901105,3,2.5775,-0.87,1.97,35.590427,-85.94,-87.4
1730041445947341753,1730041445947235822,3,2.5775,-0.87,1.97,35.721757000000004,-85.85,-88.2
1730041446047736048,1730041446047537326,3,2.5775,-0.87,1.97,35.815564,-87.48,-89.24
1730041446147408799,1730041446147132396,3,2.5775,-0.87,1.97,35.93438666666666,-86.8,-87.84
1730041446247378246,1730041446247201204,3,2.5775,-0.87,1.97,36.03444733333333,-87.18,-90.11
1730041446347383782,1730041446347073793,3,2.5775,-0.87,1.97,36.159523666666665,-87.23,-90.46
1730041446447509006,1730041446447354316,3,2.5775,-0.87,1.97,36.272093,-87.46,-89.21
1730041446547677196,1730041446547292470,3,2.5775,-0.87,1.97,36.39716933333333,-87.73,-88.23
1730041446648001977,1730041446647791624,3,2.5775,-0.87,1.97,36.52224566666666,-88.09,-91.16
1730041446777793426,1730041446777498722,3,2.5775,-0.87,1.97,36.647320666666666,-87.94,-88.4
1730041446847516810,1730041446847106218,3,2.5775,-0.87,1.97,36.772397000000005,-90.58,-93.71
1730041446947654647,1730041446947363615,3,2.5775,-0.87,1.97,36.89747333333333,-89.44,-90.71
1730041447047388570,1730041447047206401,3,2.5775,-0.87,1.97,37.003788666666665,-88.62,-91.4
1730041447147762415,1730041447147137880,3,2.5775,-0.87,1.97,37.11635666666667,-88.48,-89.06
1730041447247926304,1730041447247428417,3,2.5775,-0.87,1.97,37.23517933333333,-89.12,-89.27
1730041447346649216,1730041447346006631,3,2.5775,-0.87,1.97,37.36025566666667,-88.8,-89.11
1730041447446405360,1730041447445999383,3,2.5775,-0.87,1.97,37.49158533333334,-88.66,-91.43
1730041447546767247,1730041447546030521,3,2.5775,-0.87,1.97,37.59789966666667,-89.01,-91.68
1730041447649588105,1730041447649312973,3,2.5775,-0.87,1.97,37.71672133333333,-89.42,-90.76
1730041447749360833,1730041447749129295,3,2.5775,-0.87,1.97,37.82929066666667,-93.18,-92.25
1730041447849685410,1730041447849429607,3,2.5775,-0.87,1.97,37.954367,-88.86,-90.87
1730041447949195454,1730041447948963165,3,2.5775,-0.87,1.97,38.098205,-88.58,-88.7
1730041448049280521,1730041448049147605,3,2.5775,-0.87,1.97,38.192012,-88.23,-89.27
1730041448149190026,1730041448149024486,3,2.5775,-0.87,1.97,38.323342000000004,-88.87,-90.88
1730041448249445220,1730041448249224662,3,2.5775,-0.87,1.97,38.423403,-88.05,-88.59
1730041448349131051,1730041448348974704,3,2.5775,-0.87,1.97,38.573495,-89.07,-89.75
1730041448449819948,1730041448449440479,3,2.5775,-0.87,1.97,38.686063999999995,-88.73,-89.23
1730041448649822588,1730041448649526834,3,2.5775,-0.87,1.97,38.80488666666667,-87.58,-88.24
1730041448749868003,1730041448749636411,3,2.5775,-0.87,1.97,38.917454666666664,-87.73,-89.83
1730041448849537893,1730041448849261522,3,2.5775,-0.87,1.97,39.04878466666667,-87.76,-89.52
1730041448949202314,1730041448948978900,3,2.5775,-0.87,1.97,39.18011466666667,-91.96,-92.08
1730041449747653470,1730041449747462987,3,2.5775,-0.87,1.97,40.16196133333333,-87.26,-87.12
1730041449849973797,1730041449849788904,3,2.5775,-0.87,1.97,40.280784000000004,-86.37,-86.0
1730041449946207752,1730041449946024179,3,2.5775,-0.87,1.97,40.393352,-87.17,-86.87
1730041450046714502,1730041450046082496,3,2.5775,-0.87,1.97,40.505921,-85.77,-88.43
1730041450146443121,1730041450146083593,3,2.5775,-0.87,1.97,40.61223533333333,-86.31,-86.55
1730041450248870958,1730041450248701095,3,2.5775,-0.87,1.97,40.72480433333333,-85.87,-86.79
1730041450449224758,1730041450449057340,3,2.5775,-0.87,1.97,40.86864133333333,-85.44,-85.29
1730041450548922046,1730041450548786163,3,2.5775,-0.87,1.97,41.043748666666666,-86.06,-87.39
1730041450649306199,1730041450649084329,3,2.5775,-0.87,1.97,41.20009433333333,-86.4,-86.3
1730041450748737000,1730041450748586416,3,2.5775,-0.87,1.97,41.33142433333333,-85.58,-85.81
1730041450848863147,1730041450848703384,3,2.5775,-0.87,1.97,41.443992333333334,-86.05,-86.76
1730041450948799227,1730041450948680877,3,2.5775,-0.87,1.97,41.581575666666666,-85.34,-86.91
1730041451047419743,1730041451047296285,3,2.5775,-0.87,1.97,41.70039833333333,-85.55,-86.34
1730041451147930575,1730041451147667646,3,2.5775,-0.87,1.97,41.83172833333333,-85.55,-85.15
1730041451248595843,1730041451248311042,3,2.5775,-0.87,1.97,41.94429733333333,-84.64,-86.18
1730041451348819862,1730041451348415374,3,2.5775,-0.87,1.97,42.06937366666667,-85.27,-87.44
1730041451448539999,1730041451448283672,3,2.5775,-0.87,1.97,42.18194266666667,-87.27,-88.04
1730041451548405632,1730041451548226594,3,2.5775,-0.87,1.97,42.30076433333334,-84.49,-84.14
1730041451648484028,1730041451648278713,3,2.5775,-0.87,1.97,42.425840666666666,-84.4,-86.78
1730041451778364703,1730041451777854681,3,2.5775,-0.87,1.97,42.54466333333334,-85.01,-86.2
1730041451847502579,1730041451847292900,3,2.5775,-0.87,1.97,42.65723233333333,-85.71,-87.06
1730041451948379363,1730041451947260618,3,2.5775,-0.87,1.97,42.76354666666666,-83.91,-83.56
1730041452047979582,1730041452047478199,3,2.5775,-0.87,1.97,42.888622999999995,-84.88,-86.92
1730041452148046778,1730041452147654771,3,2.5775,-0.87,1.97,43.019952999999994,-84.23,-86.03
1730041452247654200,1730041452247302055,3,2.5775,-0.87,1.97,43.13877566666667,-84.94,-84.84
1730041452347446527,1730041452347200155,3,2.5775,-0.87,1.97,43.25134366666666,-84.08,-83.9
1730041452448535845,1730041452448324918,3,2.5775,-0.87,1.97,43.357657999999994,-84.15,-86.6
1730041452549350270,1730041452549089908,3,2.5775,-0.87,1.97,43.46397233333334,-84.96,-86.18
1730041452649339036,1730041452649037122,3,2.5775,-0.87,1.97,43.595302,-86.18,-86.2
1730041452749305541,1730041452749068498,3,2.5775,-0.87,1.97,43.720378333333336,-84.34,-84.21
1730041452848844486,1730041452848718166,3,2.5775,-0.87,1.97,43.857963000000005,-83.57,-82.83
1730041452948977444,1730041452948851346,3,2.5775,-0.87,1.97,43.97053233333333,-84.01,-84.77
1730041453048257496,1730041453048102855,3,2.5775,-0.87,1.97,44.089355000000005,-83.45,-84.02
1730041453147599410,1730041453147331953,3,2.5775,-0.87,1.97,44.195669333333335,-84.5,-85.56
1730041453248279501,1730041453247995138,3,2.5775,-0.87,1.97,44.30823733333333,-83.99,-84.05
1730041453347684502,1730041453347326517,3,2.5775,-0.87,1.97,44.420805333333334,-84.4,-86.09
1730041453447117565,1730041453446967840,3,2.5775,-0.87,1.97,44.54588166666667,-84.05,-85.21
1730041453546302855,1730041453546069622,3,2.5775,-0.87,1.97,44.658450666666674,-85.74,-86.59
1730041453647442273,1730041453647164821,3,2.5775,-0.87,1.97,44.77727333333333,-84.4,-85.26
1730041453747366460,1730041453747019052,3,2.5775,-0.87,1.97,44.90860333333334,-83.71,-85.44
1730041453848142659,1730041453847887277,3,2.5775,-0.87,1.97,45.027426,-83.73,-83.8
1730041453948219312,1730041453947972059,3,2.5775,-0.87,1.97,45.15250233333333,-84.05,-83.6
1730041454046315892,1730041454046032905,3,2.5775,-0.87,1.97,45.25881666666667,-84.4,-84.03
1730041454147178112,1730041454146914005,3,2.5775,-0.87,1.97,45.371384666666664,-85.34,-86.69
1730041454247580300,1730041454247364044,3,2.5775,-0.87,1.97,45.49020733333333,-84.5,-84.09
1730041454346610675,1730041454346085309,3,2.5775,-0.87,1.97,45.596522666666665,-84.11,-85.73
1730041454447249704,1730041454447022676,3,2.5775,-0.87,1.97,45.72785266666667,-84.34,-83.9
1730041454547193164,1730041454547015428,3,2.5775,-0.87,1.97,45.827913333333335,-83.64,-83.04
1730041454647375138,1730041454647150993,3,2.5775,-0.87,1.97,45.959243333333326,-83.67,-84.9
1730041454748533982,1730041454748312234,3,2.5775,-0.87,1.97,46.059304,-83.34,-82.99
1730041454848373857,1730041454848098278,3,2.5775,-0.87,1.97,46.196887333333336,-82.99,-82.5
1730041454947967122,1730041454947809457,3,2.5775,-0.87,1.97,46.315708666666666,-82.8,-82.18
1730041455047916729,1730041455047780275,3,2.5775,-0.87,1.97,46.453293333333335,-85.87,-85.63
1730041455148131801,1730041455147913455,3,2.5775,-0.87,1.97,46.54084700000001,-84.53,-85.31
1730041455248343509,1730041455248127460,3,2.5775,-0.87,1.97,46.628400666666664,-83.74,-83.31
1730041455348261840,1730041455348067283,3,2.5775,-0.87,1.97,46.70344600000001,-83.46,-83.39
1730041455446444805,1730041455446044445,3,2.5775,-0.87,1.97,46.75973066666666,-83.81,-83.3
1730041455546335347,1730041455546042680,3,2.5775,-0.87,1.97,46.778492666666665,-84.17,-84.24
1730041455646445695,1730041455646087884,3,2.5775,-0.87,1.97,46.753477,-86.16,-86.2
1730041455746472759,1730041455746076345,3,2.5775,-0.87,1.97,46.74722366666666,-85.7,-85.23
1730041455847604949,1730041455847429275,3,2.5775,-0.87,1.97,46.759730999999995,-84.3,-84.17
1730041455947530101,1730041455947391033,3,2.5775,-0.87,1.97,46.816015666666665,-84.27,-85.48
1730041456346264333,1730041456346042871,3,2.5775,-0.87,1.97,46.92232966666666,-83.8,-85.02
1730041456446418769,1730041456446044921,3,2.5775,-0.87,1.97,46.928583333333336,-84.85,-85.25
1730041456546328210,1730041456546048879,3,2.5775,-0.87,1.97,46.928583333333336,-82.81,-84.32
1730041456646583631,1730041456646013975,3,2.5775,-0.87,1.97,46.91607466666667,-82.61,-82.07
1730041456747813303,1730041456747554540,3,2.5775,-0.87,1.97,46.903567333333335,-82.54,-82.34
1730041456846563010,1730041456846031427,3,2.5775,-0.87,1.97,46.891060333333336,-82.69,-84.17
1730041456948354239,1730041456948165893,3,2.5775,-0.87,1.97,46.87229966666666,-82.14,-84.0
1730041457047711834,1730041457047465324,3,2.5775,-0.87,1.97,46.87229966666666,-82.12,-84.08
1730041457146333001,1730041457146027326,3,2.5775,-0.87,1.97,46.859792666666664,-82.38,-82.32
1730041457247548850,1730041457247142076,3,2.5775,-0.87,1.97,46.86604633333334,-82.01,-82.1
1730041457346523818,1730041457346049785,3,2.5775,-0.87,1.97,46.859792999999996,-83.49,-84.27
1730041457449443261,1730041457449339389,3,2.5775,-0.87,1.97,46.859792999999996,-82.25,-84.37
1730041457548753924,1730041457548469305,3,2.5775,-0.87,1.97,46.86604666666667,-82.0,-84.25
1730041457648339404,1730041457648185491,3,2.5775,-0.87,1.97,46.872299999999996,-82.17,-82.11
1730041457748769458,1730041457748602628,3,2.5775,-0.87,1.97,46.86604499999999,-81.82,-82.15
1730041457848298423,1730041457848046302,3,2.5775,-0.87,1.97,46.85353766666666,-81.96,-84.56
1730041457948036386,1730041457947933912,3,2.5775,-0.87,1.97,46.847284333333334,-82.2,-82.38
1730041458048261427,1730041458048075437,3,2.5775,-0.87,1.97,46.85353933333332,-82.04,-82.03
1730041458148265671,1730041458148071527,3,2.5775,-0.87,1.97,46.85353933333332,-85.05,-85.32
1730041458248256602,1730041458248039722,3,2.5775,-0.87,1.97,46.859792666666664,-82.07,-83.55
1730041458348621109,1730041458348331451,3,2.5775,-0.87,1.97,46.859792666666664,-82.69,-82.82
1730041458448458889,1730041458448271989,3,2.5775,-0.87,1.97,46.841030999999994,-81.99,-82.47
1730041458549005033,1730041458548755645,3,2.5775,-0.87,1.97,46.84103100000001,-82.21,-83.61
1730041458646480058,1730041458646018743,3,2.5775,-0.87,1.97,46.834776,-81.94,-81.75
1730041458746450546,1730041458746024131,3,2.5775,-0.87,1.97,46.85353766666666,-83.46,-84.01
1730041458846563081,1730041458845998764,3,2.5775,-0.87,1.97,46.859791333333334,-82.49,-84.03
1730041458946447161,1730041458946029663,3,2.5775,-0.87,1.97,46.86604633333334,-82.62,-84.5
1730041459046340090,1730041459046035051,3,2.5775,-0.87,1.97,46.85353799999999,-83.17,-83.87
1730041459146522086,1730041459146018981,3,2.5775,-0.87,1.97,46.841030999999994,-81.93,-81.69
1730041459246207132,1730041459246020317,3,2.5775,-0.87,1.97,46.841030999999994,-83.6,-83.45
1730041459346545139,1730041459346070051,3,2.5775,-0.87,1.97,46.847286,-81.78,-82.0
1730041459446623463,1730041459446057796,3,2.5775,-0.87,1.97,46.847286,-82.72,-84.02
1730041459746470758,1730041459746034145,3,2.5775,-0.87,1.97,46.847286,-82.57,-83.89
1730041459847351993,1730041459847161531,3,2.5775,-0.87,1.97,46.859792999999996,-83.8,-84.7
1730041459947346550,1730041459947088479,3,2.5775,-0.87,1.97,46.87855366666667,-82.36,-83.99
1730041460047731254,1730041460047513008,3,2.5775,-0.87,1.97,46.884807,-82.85,-83.75
1730041460147207067,1730041460146877527,3,2.5775,-0.87,1.97,46.87855333333332,-81.92,-81.66
1730041460247481965,1730041460247180938,3,2.5775,-0.87,1.97,46.866046000000004,-81.98,-81.7
1730041460348139784,1730041460347924709,3,2.5775,-0.87,1.97,46.87229966666666,-82.91,-82.87
1730041460447519134,1730041460447259426,3,2.5775,-0.87,1.97,46.878553333333336,-82.27,-83.79
1730041460548224282,1730041460547937393,3,2.5775,-0.87,1.97,46.897314,-81.83,-81.72
1730041460748433596,1730041460748161792,3,2.5775,-0.87,1.97,46.92232966666666,-82.48,-83.37
1730041460846357413,1730041460846060514,3,2.5775,-0.87,1.97,46.93483666666666,-83.0,-84.07
1730041461448139331,1730041461447932481,3,2.5775,-0.87,1.97,46.953597333333335,-81.77,-81.61
1730041461548497300,1730041461548253774,3,2.5775,-0.87,1.97,46.978612999999996,-81.9,-83.91
1730041461648356967,1730041461648244142,3,2.5775,-0.87,1.97,46.99112133333333,-82.35,-82.19
1730041461748437296,1730041461748188734,3,2.5775,-0.87,1.97,46.99112133333333,-82.61,-84.7
1730041461848394724,1730041461848141670,3,2.5775,-0.87,1.97,47.00362833333333,-82.12,-82.05
1730041462248399678,1730041462248120784,3,2.5775,-0.87,1.97,47.07242166666666,-82.58,-82.9
1730041462348431129,1730041462347337245,3,2.5775,-0.87,1.97,47.078675000000004,-83.22,-84.72
1730041462447784216,1730041462447475433,3,2.5775,-0.87,1.97,47.109944000000006,-82.0,-82.07
1730041462548726932,1730041462548464536,3,2.5775,-0.87,1.97,47.128706,-82.96,-84.41
1730041462649686848,1730041462649443387,3,2.5775,-0.87,1.97,47.166228666666676,-83.9,-85.74
1730041462746431074,1730041462746015071,3,2.5775,-0.87,1.97,47.184989333333334,-82.14,-81.91
1730041462847367489,1730041462847124814,3,2.5775,-0.87,1.97,47.20374999999999,-82.0,-82.23
1730041462948265060,1730041462948060750,3,2.5775,-0.87,1.97,47.222511999999995,-82.1,-84.35
1730041463048390414,1730041463048144102,3,2.5775,-0.87,1.97,47.24752766666666,-82.52,-82.79
1730041463146321178,1730041463146020174,3,2.5775,-0.87,1.97,47.266289666666665,-81.76,-81.93
1730041463247178428,1730041463247001886,3,2.5775,-0.87,1.97,47.29755866666667,-82.16,-82.07
1730041463347330561,1730041463347162961,3,2.5775,-0.87,1.97,47.31632066666666,-83.55,-83.96
1730041463447456087,1730041463447288990,3,2.5775,-0.87,1.97,47.36635033333334,-82.12,-81.99
1730041463547804053,1730041463547598838,3,2.5775,-0.87,1.97,47.372603999999995,-81.72,-82.22
1730041463647834298,1730041463647669076,3,2.5775,-0.87,1.97,47.403873000000004,-81.7,-82.08
1730041463747399141,1730041463747240543,3,2.5775,-0.87,1.97,47.416381333333334,-82.56,-83.3
1730041463846511083,1730041463846044778,3,2.5775,-0.87,1.97,47.460157333333335,-82.64,-82.65
1730041463948183238,1730041463947944879,3,2.5775,-0.87,1.97,47.49142633333333,-82.08,-84.19
1730041464047835354,1730041464047511816,3,2.5775,-0.87,1.97,47.522695666666664,-82.19,-83.87
1730041464148839072,1730041464148606061,3,2.5775,-0.87,1.97,47.54771133333333,-81.8,-83.72
1730041464247369755,1730041464247122764,3,2.5775,-0.87,1.97,47.57272566666666,-81.71,-81.75
1730041464346324710,1730041464346009969,3,2.5775,-0.87,1.97,47.59774099999999,-82.51,-84.11
1730041464449320029,1730041464448795318,3,2.5775,-0.87,1.97,47.62275666666667,-82.55,-82.8
1730041464549005569,1730041464548865556,3,2.5775,-0.87,1.97,47.647772,-83.02,-84.27
1730041464649797537,1730041464649627208,3,2.5775,-0.87,1.97,47.672786333333335,-82.1,-83.68
1730041464749358364,1730041464749251842,3,2.5775,-0.87,1.97,47.704055333333336,-82.39,-82.1
1730041464846572060,1730041464846028089,3,2.5775,-0.87,1.97,47.73532433333333,-82.01,-83.92
1730041464946582129,1730041464946016788,3,2.5775,-0.87,1.97,47.77910166666667,-82.65,-82.12
1730041465046566173,1730041465046030282,3,2.5775,-0.87,1.97,47.810370666666664,-81.9,-82.32
1730041465147572570,1730041465147230863,3,2.5775,-0.87,1.97,47.872909,-84.44,-85.6
1730041465247753137,1730041465247398138,3,2.5775,-0.87,1.97,47.904178333333334,-81.67,-81.65
1730041465347665840,1730041465347278833,3,2.5775,-0.87,1.97,47.929194,-82.29,-83.51
1730041465447672719,1730041465447300434,3,2.5775,-0.87,1.97,47.941701,-82.13,-84.17
1730041465547563787,1730041465547368764,3,2.5775,-0.87,1.97,47.941701,-82.46,-82.22
1730041465646773664,1730041465646022558,3,2.5775,-0.87,1.97,47.966715,-82.9,-83.99
1730041465746817201,1730041465746030569,3,2.5775,-0.87,1.97,47.985477,-83.0,-82.8
1730041465846337556,1730041465846022367,3,2.5775,-0.87,1.97,48.016746000000005,-82.44,-82.48
1730041465948888324,1730041465948607206,3,2.5775,-0.87,1.97,48.041761666666666,-82.27,-83.93
1730041466049145665,1730041466048924922,3,2.5775,-0.87,1.97,48.04801533333333,-82.32,-82.16
1730041466149001325,1730041466148808717,3,2.5775,-0.87,1.97,48.07302933333333,-82.7,-84.2
1730041466648408617,1730041466648189544,3,2.5775,-0.87,1.97,48.166836666666676,-84.04,-84.61
1730041466749121669,1730041466748928785,3,2.5775,-0.87,1.97,48.173090333333334,-82.39,-82.16
1730041466846270500,1730041466846029996,3,2.5775,-0.87,1.97,48.179345000000005,-82.31,-83.83
1730041466946204016,1730041466946030616,3,2.5775,-0.87,1.97,48.191853333333334,-83.67,-84.9
1730041467047693891,1730041467047383546,3,2.5775,-0.87,1.97,48.21061533333333,-82.01,-81.84
1730041467148268094,1730041467147962093,3,2.5775,-0.87,1.97,48.229376,-83.09,-83.02
1730041467246516966,1730041467246024131,3,2.5775,-0.87,1.97,48.23562966666666,-82.44,-83.97
1730041467346405418,1730041467346015930,3,2.5775,-0.87,1.97,48.241883333333334,-82.72,-84.01
1730041467754330976,1730041467752323627,3,2.5775,-0.87,1.97,48.204360666666666,-83.84,-84.47
1730041467848321560,1730041467848154783,3,2.5775,-0.87,1.97,48.166838000000006,-84.13,-84.37
1730041467948193434,1730041467948013305,3,2.5775,-0.87,1.97,48.14182366666666,-84.07,-84.21
1730041468048547366,1730041468048360347,3,2.5775,-0.87,1.97,48.09179266666666,-84.01,-84.04
1730041468146442938,1730041468146053314,3,2.5775,-0.87,1.97,48.079284,-85.4,-84.85
1730041468247696308,1730041468247318744,3,2.5775,-0.87,1.97,48.05426833333333,-84.06,-85.39
1730041468347402438,1730041468347189903,3,2.5775,-0.87,1.97,48.04801466666667,-84.57,-84.11
1730041468446326693,1730041468446030855,3,2.5775,-0.87,1.97,48.02300066666667,-84.22,-84.77
1730041468547494250,1730041468547188997,3,2.5775,-0.87,1.97,48.004239000000005,-84.68,-83.79
1730041468647579189,1730041468647057056,3,2.5775,-0.87,1.97,47.997985666666665,-84.14,-85.5
1730041468746584316,1730041468746037244,3,2.5775,-0.87,1.97,47.997985666666665,-84.05,-83.6
1730041468846366509,1730041468846023321,3,2.5775,-0.87,1.97,47.991732000000006,-84.47,-84.25
1730041468946402134,1730041468946066856,3,2.5775,-0.87,1.97,47.972970000000004,-85.87,-85.52
1730041469047113413,1730041469046934366,3,2.5775,-0.87,1.97,47.935446000000006,-84.18,-83.34
1730041469146295096,1730041469146017551,3,2.5775,-0.87,1.97,47.92919233333333,-84.27,-85.56
1730041469248036170,1730041469247876167,3,2.5775,-0.87,1.97,47.91043033333333,-84.13,-83.28
1730041469346411779,1730041469346065998,3,2.5775,-0.87,1.97,47.879161333333336,-86.02,-85.99
1730041469447722862,1730041469447423219,3,2.5775,-0.87,1.97,47.82287666666667,-84.14,-83.39
1730041469546705126,1730041469546056509,3,2.5775,-0.87,1.97,47.785354000000005,-84.79,-86.21
1730041469647441955,1730041469647104978,3,2.5775,-0.87,1.97,47.74157766666667,-85.2,-86.16
1730041469747446929,1730041469747172117,3,2.5775,-0.87,1.97,47.71030866666666,-85.49,-84.52
1730041469846478949,1730041469846091270,3,2.5775,-0.87,1.97,47.65402533333333,-84.81,-85.41
1730041469948645527,1730041469948376178,3,2.5775,-0.87,1.97,47.61650266666666,-84.08,-83.37
1730041470047773044,1730041470047165632,3,2.5775,-0.87,1.97,47.553964666666666,-83.97,-83.12
1730041470147601484,1730041470147439718,3,2.5775,-0.87,1.97,47.510187333333334,-83.98,-84.65
1730041470246448465,1730041470246033668,3,2.5775,-0.87,1.97,47.453903,-83.66,-82.86
1730041470346672485,1730041470346097469,3,2.5775,-0.87,1.97,47.39136466666667,-84.22,-84.41
1730041470446367688,1730041470446041345,3,2.5775,-0.87,1.97,47.29755733333334,-86.34,-86.44
1730041470546410131,1730041470546048879,3,2.5775,-0.87,1.97,47.222511999999995,-84.21,-85.22
1730041470646370327,1730041470646024465,3,2.5775,-0.87,1.97,47.15372033333333,-84.34,-83.84
1730041470746536342,1730041470746064186,3,2.5775,-0.87,1.97,47.09743566666666,-83.73,-83.68
1730041470846531459,1730041470846060037,3,2.5775,-0.87,1.97,47.03489733333333,-86.54,-85.47
1730041470946376886,1730041470946021318,3,2.5775,-0.87,1.97,46.95985199999999,-83.74,-82.94
1730041471046318788,1730041471046032905,3,2.5775,-0.87,1.97,46.891060333333336,-87.75,-87.18
1730041471146296122,1730041471146024703,3,2.5775,-0.87,1.97,46.80976033333334,-84.02,-85.32
1730041471246389634,1730041471246037006,3,2.5775,-0.87,1.97,46.74096866666667,-84.75,-84.25
1730041471346413290,1730041471346027612,3,2.5775,-0.87,1.97,46.659670000000006,-84.27,-83.49
1730041471446528117,1730041471446074008,3,2.5775,-0.87,1.97,46.58462466666666,-84.17,-86.24
1730041471546416463,1730041471546042203,3,2.5775,-0.87,1.97,46.497071,-84.21,-85.55
1730041471747707190,1730041471746999979,3,2.5775,-0.87,1.97,46.37824833333334,-84.35,-83.51
1730041471947446836,1730041471947200775,3,2.5775,-0.87,1.97,46.240665,-83.83,-84.97
1730041472348542922,1730041472348428964,3,2.5775,-0.87,1.97,45.79038933333334,-85.81,-85.2
1730041472478751797,1730041472478559017,3,2.5775,-0.87,1.97,45.70283700000001,-84.21,-85.52
1730041472548148776,1730041472547982454,3,2.5775,-0.87,1.97,45.596522666666665,-84.92,-84.86
1730041472647164198,1730041472646992444,3,2.5775,-0.87,1.97,45.47144633333334,-84.27,-85.03
1730041472748706469,1730041472748460292,3,2.5775,-0.87,1.97,45.365130666666666,-84.05,-84.98
1730041472846288653,1730041472846055030,3,2.5775,-0.87,1.97,45.28383066666667,-83.73,-85.15
1730041472946287638,1730041472946028709,3,2.5775,-0.87,1.97,45.20253066666667,-83.92,-85.09
1730041473046323734,1730041473046021223,3,2.5775,-0.87,1.97,45.102470000000004,-83.41,-82.67
1730041473146491297,1730041473146052122,3,2.5775,-0.87,1.97,44.989902,-84.39,-84.04
1730041473246471881,1730041473246040105,3,2.5775,-0.87,1.97,44.877334,-83.98,-83.48
1730041473346332044,1730041473346066236,3,2.5775,-0.87,1.97,44.77727333333333,-84.2,-83.79
1730041473446585138,1730041473446063280,3,2.5775,-0.87,1.97,44.670959,-83.71,-85.14
1730041473546338937,1730041473546029090,3,2.5775,-0.87,1.97,44.57089833333333,-84.66,-84.79
1730041473646669001,1730041473646053791,3,2.5775,-0.87,1.97,44.45833033333333,-84.1,-83.5
1730041473746530293,1730041473746044397,3,2.5775,-0.87,1.97,44.345761333333336,-83.72,-83.37
1730041473846395906,1730041473846127510,3,2.5775,-0.87,1.97,44.233192,-85.39,-84.4
1730041473946382541,1730041473946035146,3,2.5775,-0.87,1.97,44.13313,-86.05,-86.41
1730041474046329880,1730041474046022176,3,2.5775,-0.87,1.97,44.033069000000005,-85.46,-84.66
1730041474347476822,1730041474347146034,3,2.5775,-0.87,1.97,43.87047033333334,-84.32,-83.59
1730041474447515337,1730041474447355031,3,2.5775,-0.87,1.97,43.68911066666667,-85.01,-86.28
1730041474547180613,1730041474546951532,3,2.5775,-0.87,1.97,43.520258333333324,-84.12,-85.49
1730041474647554442,1730041474647266626,3,2.5775,-0.87,1.97,43.395182,-85.18,-84.31
1730041474747376116,1730041474747192621,3,2.5775,-0.87,1.97,43.28886633333334,-85.67,-85.05
1730041474847917934,1730041474847519397,3,2.5775,-0.87,1.97,43.188805333333335,-86.56,-87.52
1730041474947344923,1730041474947110891,3,2.5775,-0.87,1.97,43.11375999999999,-84.91,-84.67
1730041475047401371,1730041475047138452,3,2.5775,-0.87,1.97,43.04496833333334,-85.3,-84.76
1730041475147836356,1730041475147683620,3,2.5775,-0.87,1.97,42.969922,-86.78,-86.31
1730041475246445302,1730041475246059417,3,2.5775,-0.87,1.97,42.888622,-88.5,-88.17
1730041475346311159,1730041475346065521,3,2.5775,-0.87,1.97,42.80106833333334,-90.42,-92.31
1730041475446213743,1730041475446024894,3,2.5775,-0.87,1.97,42.751038666666666,-90.86,-91.46
1730041475648043134,1730041475647770404,3,2.5775,-0.87,1.97,42.70100866666667,-90.81,-92.89
1730041475748077464,1730041475747797012,3,2.5775,-0.87,1.97,42.669740999999995,-89.96,-90.73
1730041475848161371,1730041475847950696,3,2.5775,-0.87,1.97,42.62596333333334,-90.17,-91.89
1730041475947876466,1730041475947771310,3,2.5775,-0.87,1.97,42.644724,-92.55,-93.04
1730041476048352183,1730041476048085927,3,2.5775,-0.87,1.97,42.644724,-90.64,-90.72
