%time,field.header.seq,field.header.stamp,field.header.frame_id,field.status.status,field.status.service,field.latitude,field.longitude,field.altitude,field.position_covariance0,field.position_covariance1,field.position_covariance2,field.position_covariance3,field.position_covariance4,field.position_covariance5,field.position_covariance6,field.position_covariance7,field.position_covariance8,field.position_covariance_type
1730041400451849836,44044,1730041400374772185,gps,2,0,37.555212999999995,127.0451306,49.898,0.00019600000000000002,0.0,0.0,0.0,0.00019600000000000002,0.0,0.0,0.0,0.0001,2
1730041400573762714,44045,1730041400499772188,gps,2,0,37.555212999999995,127.0451306,49.898,0.00019600000000000002,0.0,0.0,0.0,0.00019600000000000002,0.0,0.0,0.0,0.0001,2
1730041400692790455,44046,1730041400624772192,gps,2,0,37.555212999999995,127.04513069999999,49.897,0.00019600000000000002,0.0,0.0,0.0,0.00019600000000000002,0.0,0.0,0.0,0.0001,2
1730041400816981901,44047,1730041400749772196,gps,2,0,37.555212999999995,127.0451306,49.891,0.00019600000000000002,0.0,0.0,0.0,0.00019600000000000002,0.0,0.0,0.0,0.0001,2
1730041400941899370,44048,1730041400874772199,gps,2,0,37.555212999999995,127.0451306,49.889,0.00019600000000000002,0.0,0.0,0.0,0.00019600000000000002,0.0,0.0,0.0,0.00012099999999999999,2
1730041401071994025,44049,1730041400999772204,gps,2,0,37.555212999999995,127.0451306,49.894,0.00019600000000000002,0.0,0.0,0.0,0.00019600000000000002,0.0,0.0,0.0,0.0001,2
1730041401188545545,44050,1730041401124772206,gps,2,0,37.555212999999995,127.0451306,49.896,0.00019600000000000002,0.0,0.0,0.0,0.00019600000000000002,0.0,0.0,0.0,0.0001,2
1730041401317939382,44051,1730041401249772210,gps,2,0,37.555212999999995,127.0451306,49.896,0.00019600000000000002,0.0,0.0,0.0,0.00019600000000000002,0.0,0.0,0.0,0.0001,2
1730041401443953485,44052,1730041401374772213,gps,2,0,37.555212999999995,127.04513069999999,49.901,0.00019600000000000002,0.0,0.0,0.0,0.00019600000000000002,0.0,0.0,0.0,0.0001,2
1730041401572936675,44053,1730041401499772217,gps,2,0,37.555212999999995,127.0451306,49.892,0.00019600000000000002,0.0,0.0,0.0,0.00019600000000000002,0.0,0.0,0.0,0.0001,2
1730041401692489263,44054,1730041401624772220,gps,2,0,37.555212999999995,127.04513069999999,49.894,0.00019600000000000002,0.0,0.0,0.0,0.00019600000000000002,0.0,0.0,0.0,0.0001,2
1730041401816703490,44055,1730041401749772224,gps,2,0,37.555212999999995,127.0451306,49.898,0.00019600000000000002,0.0,0.0,0.0,0.00019600000000000002,0.0,0.0,0.0,0.0001,2
1730041401943714043,44056,1730041401874772227,gps,2,0,37.555212999999995,127.04513069999999,49.899,0.00019600000000000002,0.0,0.0,0.0,0.00019600000000000002,0.0,0.0,0.0,0.0001,2
1730041402069031274,44057,1730041401999772232,gps,2,0,37.555212999999995,127.0451306,49.897,0.00019600000000000002,0.0,0.0,0.0,0.00019600000000000002,0.0,0.0,0.0,0.0001,2
1730041402192066819,44058,1730041402124772234,gps,2,0,37.555212999999995,127.04513069999999,49.892,0.00019600000000000002,0.0,0.0,0.0,0.00019600000000000002,0.0,0.0,0.0,0.0001,2
1730041402316110472,44059,1730041402249772238,gps,2,0,37.555212999999995,127.0451306,49.897,0.00019600000000000002,0.0,0.0,0.0,0.00019600000000000002,0.0,0.0,0.0,0.0001,2
1730041402444027865,44060,1730041402374772241,gps,2,0,37.555212999999995,127.04513069999999,49.899,0.00019600000000000002,0.0,0.0,0.0,0.00019600000000000002,0.0,0.0,0.0,0.0001,2
1730041402571110217,44061,1730041402499772245,gps,2,0,37.555212999999995,127.0451306,49.895,0.00019600000000000002,0.0,0.0,0.0,0.00019600000000000002,0.0,0.0,0.0,0.00012099999999999999,2
1730041402692450030,44062,1730041402624772248,gps,2,0,37.555212999999995,127.04513069999999,49.902,0.00019600000000000002,0.0,0.0,0.0,0.00019600000000000002,0.0,0.0,0.0,0.00012099999999999999,2
1730041402815462583,44063,1730041402749772252,gps,2,0,37.555212999999995,127.0451306,49.897,0.00019600000000000002,0.0,0.0,0.0,0.00019600000000000002,0.0,0.0,0.0,0.00012099999999999999,2
1730041402941734319,44064,1730041402874772255,gps,2,0,37.555212999999995,127.0451306,49.905,0.00019600000000000002,0.0,0.0,0.0,0.00019600000000000002,0.0,0.0,0.0,0.00012099999999999999,2
1730041403067891372,44065,1730041402999772259,gps,2,0,37.555212999999995,127.0451306,49.888,0.00019600000000000002,0.0,0.0,0.0,0.00019600000000000002,0.0,0.0,0.0,0.00012099999999999999,2
1730041403192173298,44066,1730041403124772262,gps,2,0,37.555213099999996,127.0451306,49.895,0.00019600000000000002,0.0,0.0,0.0,0.00019600000000000002,0.0,0.0,0.0,0.000144,2
1730041403325043776,44067,1730041403249772265,gps,2,0,37.555212999999995,127.0451306,49.887,0.00019600000000000002,0.0,0.0,0.0,0.00019600000000000002,0.0,0.0,0.0,0.000144,2
1730041403447247315,44068,1730041403374772269,gps,2,0,37.555212999999995,127.04513069999999,49.89,0.00019600000000000002,0.0,0.0,0.0,0.00019600000000000002,0.0,0.0,0.0,0.00012099999999999999,2
1730041403575484826,44069,1730041403499772272,gps,2,0,37.555212999999995,127.04513069999999,49.905,0.00019600000000000002,0.0,0.0,0.0,0.00019600000000000002,0.0,0.0,0.0,0.0001,2
1730041403696828049,44070,1730041403624772276,gps,2,0,37.5552129,127.0451308,49.909,0.00019600000000000002,0.0,0.0,0.0,0.00019600000000000002,0.0,0.0,0.0,0.0001,2
1730041403816906303,44071,1730041403749772279,gps,2,0,37.555212999999995,127.0451308,49.917,0.00019600000000000002,0.0,0.0,0.0,0.00019600000000000002,0.0,0.0,0.0,0.00012099999999999999,2
1730041403938018728,44072,1730041403874772283,gps,2,0,37.555212999999995,127.0451308,49.909,0.00019600000000000002,0.0,0.0,0.0,0.00019600000000000002,0.0,0.0,0.0,0.00012099999999999999,2
1730041404072089895,44073,1730041403999772288,gps,2,0,37.555212999999995,127.04513069999999,49.905,0.00019600000000000002,0.0,0.0,0.0,0.00019600000000000002,0.0,0.0,0.0,0.00012099999999999999,2
1730041404194863245,44074,1730041404124772290,gps,2,0,37.555212999999995,127.04513069999999,49.894,0.00019600000000000002,0.0,0.0,0.0,0.00019600000000000002,0.0,0.0,0.0,0.0001,2
1730041404317968259,44075,1730041404249772294,gps,2,0,37.555212999999995,127.0451306,49.905,0.00019600000000000002,0.0,0.0,0.0,0.00019600000000000002,0.0,0.0,0.0,0.000144,2
1730041404442645897,44076,1730041404374772297,gps,2,0,37.555212999999995,127.04513069999999,49.905,0.00019600000000000002,0.0,0.0,0.0,0.00019600000000000002,0.0,0.0,0.0,0.000144,2
1730041404572918952,44077,1730041404499772301,gps,2,0,37.555212999999995,127.04513069999999,49.917,0.00019600000000000002,0.0,0.0,0.0,0.00019600000000000002,0.0,0.0,0.0,0.000225,2
1730041404691258626,44078,1730041404624772304,gps,2,0,37.555213099999996,127.04513069999999,49.905,0.00019600000000000002,0.0,0.0,0.0,0.00019600000000000002,0.0,0.0,0.0,0.000225,2
1730041404810833145,44079,1730041404749772308,gps,2,0,37.555212999999995,127.04513069999999,49.901,0.00019600000000000002,0.0,0.0,0.0,0.00019600000000000002,0.0,0.0,0.0,0.000225,2
1730041404940273961,44080,1730041404874772311,gps,2,0,37.555212999999995,127.04513069999999,49.904,0.00019600000000000002,0.0,0.0,0.0,0.00019600000000000002,0.0,0.0,0.0,0.000256,2
1730041405068846583,44081,1730041404999772316,gps,2,0,37.5552129,127.0451308,49.902,0.00019600000000000002,0.0,0.0,0.0,0.00019600000000000002,0.0,0.0,0.0,0.000256,2
1730041405192565353,44082,1730041405124772319,gps,2,0,37.5552129,127.0451308,49.898,0.00019600000000000002,0.0,0.0,0.0,0.00019600000000000002,0.0,0.0,0.0,0.000256,2
1730041405316559217,44083,1730041405249772322,gps,2,0,37.555212999999995,127.04513069999999,49.896,0.00019600000000000002,0.0,0.0,0.0,0.00019600000000000002,0.0,0.0,0.0,0.000225,2
1730041405441021737,44084,1730041405374772326,gps,2,0,37.5552129,127.0451306,49.884,0.00019600000000000002,0.0,0.0,0.0,0.00019600000000000002,0.0,0.0,0.0,0.000225,2
1730041405571502885,44085,1730041405499772329,gps,2,0,37.5552129,127.04513069999999,49.886,0.00019600000000000002,0.0,0.0,0.0,0.00019600000000000002,0.0,0.0,0.0,0.000225,2
1730041405687884144,44086,1730041405624772333,gps,2,0,37.555212999999995,127.04513069999999,49.887,0.00019600000000000002,0.0,0.0,0.0,0.00019600000000000002,0.0,0.0,0.0,0.000256,2
1730041405816270919,44087,1730041405749772337,gps,2,0,37.5552129,127.0451306,49.888,0.00019600000000000002,0.0,0.0,0.0,0.00019600000000000002,0.0,0.0,0.0,0.000225,2
1730041405942077262,44088,1730041405874772340,gps,2,0,37.555212999999995,127.0451306,49.887,0.00019600000000000002,0.0,0.0,0.0,0.00019600000000000002,0.0,0.0,0.0,0.000225,2
1730041406071865970,44089,1730041405999772345,gps,2,0,37.555212999999995,127.04513069999999,49.887,0.00019600000000000002,0.0,0.0,0.0,0.00019600000000000002,0.0,0.0,0.0,0.00019600000000000002,2
1730041406192463066,44090,1730041406124772347,gps,2,0,37.555212999999995,127.0451306,49.895,0.00019600000000000002,0.0,0.0,0.0,0.00019600000000000002,0.0,0.0,0.0,0.000169,2
1730041406318970503,44091,1730041406249772351,gps,2,0,37.5552129,127.0451306,49.9,0.00019600000000000002,0.0,0.0,0.0,0.00019600000000000002,0.0,0.0,0.0,0.000169,2
1730041406445590479,44092,1730041406374772354,gps,2,0,37.555212999999995,127.04513069999999,49.891,0.00019600000000000002,0.0,0.0,0.0,0.00019600000000000002,0.0,0.0,0.0,0.000144,2
1730041406572792355,44093,1730041406499772358,gps,2,0,37.555212999999995,127.0451306,49.901,0.00019600000000000002,0.0,0.0,0.0,0.00019600000000000002,0.0,0.0,0.0,0.000169,2
1730041406695058653,44094,1730041406624772362,gps,2,0,37.555212999999995,127.0451306,49.894,0.00019600000000000002,0.0,0.0,0.0,0.00019600000000000002,0.0,0.0,0.0,0.000144,2
1730041406817734070,44095,1730041406749772365,gps,2,0,37.555212999999995,127.0451306,49.888,0.00019600000000000002,0.0,0.0,0.0,0.00019600000000000002,0.0,0.0,0.0,0.000144,2
1730041406943164443,44096,1730041406874772369,gps,2,0,37.555212999999995,127.0451306,49.889,0.00019600000000000002,0.0,0.0,0.0,0.00019600000000000002,0.0,0.0,0.0,0.000144,2
1730041407073894613,44097,1730041406999772373,gps,2,0,37.555212999999995,127.0451306,49.901,0.00019600000000000002,0.0,0.0,0.0,0.00019600000000000002,0.0,0.0,0.0,0.000144,2
1730041407196407278,44098,1730041407124772376,gps,2,0,37.555212999999995,127.04513069999999,49.901,0.00019600000000000002,0.0,0.0,0.0,0.00019600000000000002,0.0,0.0,0.0,0.00012099999999999999,2
1730041407320192398,44099,1730041407249772379,gps,2,0,37.555212999999995,127.0451306,49.898,0.00019600000000000002,0.0,0.0,0.0,0.00019600000000000002,0.0,0.0,0.0,0.0001,2
1730041407446396773,44100,1730041407374772383,gps,2,0,37.555212999999995,127.04513069999999,49.901,0.00019600000000000002,0.0,0.0,0.0,0.00019600000000000002,0.0,0.0,0.0,0.00012099999999999999,2
1730041407567330067,44101,1730041407499772387,gps,2,0,37.555212999999995,127.0451306,49.897,0.00019600000000000002,0.0,0.0,0.0,0.00019600000000000002,0.0,0.0,0.0,0.0001,2
1730041407693990870,44102,1730041407624772390,gps,2,0,37.555212999999995,127.04513069999999,49.893,0.00019600000000000002,0.0,0.0,0.0,0.00019600000000000002,0.0,0.0,0.0,0.0001,2
1730041407817820174,44103,1730041407749772394,gps,2,0,37.555212999999995,127.04513069999999,49.9,0.00019600000000000002,0.0,0.0,0.0,0.00019600000000000002,0.0,0.0,0.0,0.0001,2
1730041407944055898,44104,1730041407874772397,gps,2,0,37.555212999999995,127.04513069999999,49.898,0.00019600000000000002,0.0,0.0,0.0,0.00019600000000000002,0.0,0.0,0.0,0.0001,2
1730041408074695264,44105,1730041407999772402,gps,2,0,37.555212999999995,127.0451306,49.888,0.00019600000000000002,0.0,0.0,0.0,0.00019600000000000002,0.0,0.0,0.0,0.0001,2
1730041408194942979,44106,1730041408124772405,gps,2,0,37.555212999999995,127.04513069999999,49.894,0.00019600000000000002,0.0,0.0,0.0,0.00019600000000000002,0.0,0.0,0.0,0.0001,2
1730041408319105362,44107,1730041408249772408,gps,2,0,37.555212999999995,127.0451306,49.893,0.00019600000000000002,0.0,0.0,0.0,0.00019600000000000002,0.0,0.0,0.0,0.0001,2
1730041408440615245,44108,1730041408374772412,gps,2,0,37.555212999999995,127.0451306,49.896,0.00019600000000000002,0.0,0.0,0.0,0.00019600000000000002,0.0,0.0,0.0,0.0001,2
1730041408568507553,44109,1730041408499772415,gps,2,0,37.555212999999995,127.04513069999999,49.898,0.00019600000000000002,0.0,0.0,0.0,0.00019600000000000002,0.0,0.0,0.0,0.0001,2
1730041408695677911,44110,1730041408624772419,gps,2,0,37.555212999999995,127.0451306,49.898,0.00019600000000000002,0.0,0.0,0.0,0.00019600000000000002,0.0,0.0,0.0,0.0001,2
1730041408819139043,44111,1730041408749772422,gps,2,0,37.555212999999995,127.0451306,49.894,0.00019600000000000002,0.0,0.0,0.0,0.00019600000000000002,0.0,0.0,0.0,0.0001,2
1730041408945603113,44112,1730041408874772426,gps,2,0,37.555212999999995,127.0451306,49.897,0.00019600000000000002,0.0,0.0,0.0,0.00019600000000000002,0.0,0.0,0.0,0.0001,2
1730041409072888912,44113,1730041408999772431,gps,2,0,37.555212999999995,127.0451306,49.902,0.00019600000000000002,0.0,0.0,0.0,0.00019600000000000002,0.0,0.0,0.0,0.0001,2
1730041409195081995,44114,1730041409124772433,gps,2,0,37.555212999999995,127.04513069999999,49.897,0.00019600000000000002,0.0,0.0,0.0,0.00019600000000000002,0.0,0.0,0.0,0.0001,2
1730041409314120844,44115,1730041409249772437,gps,2,0,37.555212999999995,127.0451306,49.896,0.00019600000000000002,0.0,0.0,0.0,0.00019600000000000002,0.0,0.0,0.0,0.0001,2
1730041409446526924,44116,1730041409374772440,gps,2,0,37.555212999999995,127.04513069999999,49.891,0.00019600000000000002,0.0,0.0,0.0,0.00019600000000000002,0.0,0.0,0.0,0.0001,2
1730041409573954561,44117,1730041409499772444,gps,2,0,37.555212999999995,127.0451308,49.892,0.00019600000000000002,0.0,0.0,0.0,0.00019600000000000002,0.0,0.0,0.0,0.0001,2
1730041409693666226,44118,1730041409624772447,gps,2,0,37.555212999999995,127.04513089999999,49.889,0.00019600000000000002,0.0,0.0,0.0,0.00019600000000000002,0.0,0.0,0.0,0.0001,2
1730041409816949251,44119,1730041409749772451,gps,2,0,37.5552129,127.04513109999999,49.883,0.00019600000000000002,0.0,0.0,0.0,0.00019600000000000002,0.0,0.0,0.0,0.0001,2
1730041409942773884,44120,1730041409874772455,gps,2,0,37.5552128,127.0451315,49.883,0.00019600000000000002,0.0,0.0,0.0,0.00019600000000000002,0.0,0.0,0.0,0.0001,2
1730041410073605241,44121,1730041409999772459,gps,2,0,37.5552127,127.045132,49.881,0.00019600000000000002,0.0,0.0,0.0,0.00019600000000000002,0.0,0.0,0.0,0.0001,2
1730041410190896504,44122,1730041410124772462,gps,2,0,37.5552126,127.0451325,49.886,0.00019600000000000002,0.0,0.0,0.0,0.00019600000000000002,0.0,0.0,0.0,0.0001,2
1730041410318035809,44123,1730041410249772466,gps,2,0,37.555212399999995,127.0451331,49.9,0.00019600000000000002,0.0,0.0,0.0,0.00019600000000000002,0.0,0.0,0.0,0.0001,2
1730041410443712407,44124,1730041410374772469,gps,2,0,37.5552123,127.0451337,49.88,0.00019600000000000002,0.0,0.0,0.0,0.00019600000000000002,0.0,0.0,0.0,0.0001,2
1730041410573877919,44125,1730041410499772473,gps,2,0,37.555212,127.0451343,49.883,0.00019600000000000002,0.0,0.0,0.0,0.00019600000000000002,0.0,0.0,0.0,0.0001,2
1730041410692638014,44126,1730041410624772477,gps,2,0,37.555211799999995,127.0451351,49.877,0.00019600000000000002,0.0,0.0,0.0,0.00019600000000000002,0.0,0.0,0.0,0.0001,2
1730041410814923862,44127,1730041410749772480,gps,2,0,37.5552116,127.0451356,49.864000000000004,0.00019600000000000002,0.0,0.0,0.0,0.00019600000000000002,0.0,0.0,0.0,0.00012099999999999999,2
1730041410939790553,44128,1730041410874772484,gps,2,0,37.5552114,127.0451365,49.869,0.00019600000000000002,0.0,0.0,0.0,0.00019600000000000002,0.0,0.0,0.0,0.00012099999999999999,2
1730041411067965952,44129,1730041410999772488,gps,2,0,37.5552111,127.0451372,49.877,0.00019600000000000002,0.0,0.0,0.0,0.00019600000000000002,0.0,0.0,0.0,0.0001,2
1730041411192046254,44130,1730041411124772491,gps,2,0,37.5552109,127.04513809999999,49.873,0.00019600000000000002,0.0,0.0,0.0,0.00019600000000000002,0.0,0.0,0.0,0.0001,2
1730041411313569873,44131,1730041411249772495,gps,2,0,37.555210599999995,127.04513899999999,49.877,0.00019600000000000002,0.0,0.0,0.0,0.00019600000000000002,0.0,0.0,0.0,0.00012099999999999999,2
1730041411437923347,44132,1730041411374772498,gps,2,0,37.5552104,127.04513999999999,49.879,0.00019600000000000002,0.0,0.0,0.0,0.00019600000000000002,0.0,0.0,0.0,0.0001,2
1730041411571143012,44133,1730041411499772502,gps,2,0,37.5552101,127.045141,49.902,0.00019600000000000002,0.0,0.0,0.0,0.00019600000000000002,0.0,0.0,0.0,0.0001,2
1730041411692030719,44134,1730041411624772506,gps,2,0,37.5552097,127.045142,49.903,0.00019600000000000002,0.0,0.0,0.0,0.00019600000000000002,0.0,0.0,0.0,0.0001,2
1730041411814971633,44135,1730041411749772509,gps,2,0,37.555209399999995,127.04514309999999,49.907000000000004,0.00019600000000000002,0.0,0.0,0.0,0.00019600000000000002,0.0,0.0,0.0,0.0001,2
1730041411938637475,44136,1730041411874772513,gps,2,0,37.5552091,127.0451442,49.919000000000004,0.00019600000000000002,0.0,0.0,0.0,0.00019600000000000002,0.0,0.0,0.0,0.0001,2
1730041412067563303,44137,1730041411999772517,gps,2,0,37.555208799999996,127.0451451,49.911,0.00019600000000000002,0.0,0.0,0.0,0.00019600000000000002,0.0,0.0,0.0,0.0001,2
1730041412190957602,44138,1730041412124772520,gps,2,0,37.5552085,127.04514619999999,49.918,0.00019600000000000002,0.0,0.0,0.0,0.00019600000000000002,0.0,0.0,0.0,0.0001,2
1730041412317149632,44139,1730041412249772524,gps,2,0,37.555208199999996,127.0451473,49.915,0.00019600000000000002,0.0,0.0,0.0,0.00019600000000000002,0.0,0.0,0.0,0.0001,2
1730041412443702628,44140,1730041412374772527,gps,2,0,37.5552079,127.04514839999999,49.910000000000004,0.00019600000000000002,0.0,0.0,0.0,0.00019600000000000002,0.0,0.0,0.0,0.0001,2
1730041412567788034,44141,1730041412499772531,gps,2,0,37.5552075,127.04514959999999,49.921,0.00019600000000000002,0.0,0.0,0.0,0.00019600000000000002,0.0,0.0,0.0,0.0001,2
1730041412693787220,44142,1730041412624772534,gps,2,0,37.5552071,127.0451509,49.928000000000004,0.00019600000000000002,0.0,0.0,0.0,0.00019600000000000002,0.0,0.0,0.0,0.0001,2
1730041412816002094,44143,1730041412749772538,gps,2,0,37.5552068,127.04515199999999,49.932,0.00019600000000000002,0.0,0.0,0.0,0.00019600000000000002,0.0,0.0,0.0,0.0001,2
1730041412937811969,44144,1730041412874772542,gps,2,0,37.5552065,127.0451533,49.932,0.00019600000000000002,0.0,0.0,0.0,0.00019600000000000002,0.0,0.0,0.0,0.0001,2
1730041413070106062,44145,1730041412999772546,gps,2,0,37.5552062,127.04515459999999,49.934,0.00019600000000000002,0.0,0.0,0.0,0.00019600000000000002,0.0,0.0,0.0,0.0001,2
1730041413195114159,44146,1730041413124772549,gps,2,0,37.555205799999996,127.0451559,49.938,0.00019600000000000002,0.0,0.0,0.0,0.00019600000000000002,0.0,0.0,0.0,0.0001,2
1730041413320152725,44147,1730041413249772552,gps,2,0,37.5552055,127.0451571,49.935,0.00019600000000000002,0.0,0.0,0.0,0.00019600000000000002,0.0,0.0,0.0,0.0001,2
1730041413448001524,44148,1730041413374772556,gps,2,0,37.555205099999995,127.0451585,49.94,0.00019600000000000002,0.0,0.0,0.0,0.00019600000000000002,0.0,0.0,0.0,0.0001,2
1730041413569252424,44149,1730041413499772559,gps,2,0,37.5552048,127.04515989999999,49.914,0.00019600000000000002,0.0,0.0,0.0,0.00019600000000000002,0.0,0.0,0.0,0.00012099999999999999,2
1730041413685499213,44150,1730041413624772563,gps,0,0,37.555204499999995,127.04516109999999,49.9,0.0009,0.0,0.0,0.0,0.0009,0.0,0.0,0.0,0.00032399999999999996,2
1730041413802841754,44151,1730041413749772566,gps,0,0,37.5552041,127.0451623,49.885,0.0019359999999999998,0.0,0.0,0.0,0.0019359999999999998,0.0,0.0,0.0,0.0007289999999999999,2
1730041413935079664,44152,1730041413874772570,gps,0,0,37.5552038,127.0451638,49.872,0.0026009999999999996,0.0,0.0,0.0,0.0026009999999999996,0.0,0.0,0.0,0.0013689999999999998,2
1730041414066632560,44153,1730041413999772574,gps,0,0,37.555203399999996,127.045165,49.854,0.0031360000000000003,0.0,0.0,0.0,0.0031360000000000003,0.0,0.0,0.0,0.002304,2
1730041414191079638,44154,1730041414124772577,gps,0,0,37.555203,127.0451664,49.846000000000004,0.0038439999999999998,0.0,0.0,0.0,0.0038439999999999998,0.0,0.0,0.0,0.0033640000000000002,2
1730041414314123477,44155,1730041414249772580,gps,0,0,37.555202699999995,127.0451677,49.837,0.0043560000000000005,0.0,0.0,0.0,0.0043560000000000005,0.0,0.0,0.0,0.0046240000000000005,2
1730041414442778682,44156,1730041414374772584,gps,0,0,37.5552024,127.0451691,49.837,0.004900000000000001,0.0,0.0,0.0,0.004900000000000001,0.0,0.0,0.0,0.005929,2
1730041414568993540,44157,1730041414499772587,gps,0,0,37.5552019,127.04517039999999,49.829,0.005475999999999999,0.0,0.0,0.0,0.005475999999999999,0.0,0.0,0.0,0.007225000000000001,2
1730041414692967755,44158,1730041414624772591,gps,0,0,37.5552017,127.04517179999999,49.806000000000004,0.006084,0.0,0.0,0.0,0.006084,0.0,0.0,0.0,0.008649,2
1730041414821782331,44159,1730041414749772594,gps,0,0,37.5552014,127.0451731,49.774,0.006561,0.0,0.0,0.0,0.006561,0.0,0.0,0.0,0.009801,2
1730041414945392610,44160,1730041414874772598,gps,0,0,37.5552011,127.0451744,49.735,0.007225000000000001,0.0,0.0,0.0,0.007225000000000001,0.0,0.0,0.0,0.011448999999999999,2
1730041415074071804,44161,1730041414999772603,gps,0,0,37.5552008,127.0451758,49.72,0.007568999999999999,0.0,0.0,0.0,0.007568999999999999,0.0,0.0,0.0,0.012544000000000001,2
1730041415196061244,44162,1730041415124772605,gps,0,0,37.5552006,127.04517709999999,49.676,0.0081,0.0,0.0,0.0,0.0081,0.0,0.0,0.0,0.013923999999999999,2
1730041415322670755,44163,1730041415249772609,gps,0,0,37.555200299999996,127.04517849999999,49.641,0.008649,0.0,0.0,0.0,0.008649,0.0,0.0,0.0,0.015375999999999999,2
1730041415448810190,44164,1730041415374772612,gps,0,0,37.5552,127.0451798,49.6,0.009216,0.0,0.0,0.0,0.009216,0.0,0.0,0.0,0.016900000000000002,2
1730041415578028675,44165,1730041415499772615,gps,0,0,37.5551993,127.0451822,49.731,0.0038439999999999998,0.0,0.0,0.0,0.0038439999999999998,0.0,0.0,0.0,0.007568999999999999,2
1730041415705753711,44166,1730041415624772619,gps,0,0,37.5551987,127.04518379999999,49.798,0.0025000000000000005,0.0,0.0,0.0,0.0025000000000000005,0.0,0.0,0.0,0.004489000000000001,2
1730041415827535933,44167,1730041415749772622,gps,0,0,37.555198399999995,127.0451854,49.807,0.0019359999999999998,0.0,0.0,0.0,0.0019359999999999998,0.0,0.0,0.0,0.0033640000000000002,2
1730041415953561040,44168,1730041415874772626,gps,0,0,37.555198,127.04518689999999,49.811,0.0017640000000000002,0.0,0.0,0.0,0.0017640000000000002,0.0,0.0,0.0,0.0029159999999999998,2
1730041416080568336,44169,1730041415999772630,gps,0,0,37.5551977,127.0451884,49.805,0.0016,0.0,0.0,0.0,0.0016,0.0,0.0,0.0,0.0026009999999999996,2
1730041416207952042,44170,1730041416124772633,gps,0,0,37.555197299999996,127.0451899,49.805,0.0016,0.0,0.0,0.0,0.0016,0.0,0.0,0.0,0.0025000000000000005,2
1730041416326513074,44171,1730041416249772636,gps,0,0,37.555197,127.0451914,49.807,0.0016,0.0,0.0,0.0,0.0016,0.0,0.0,0.0,0.0025000000000000005,2
1730041416453957772,44172,1730041416374772640,gps,0,0,37.555196599999995,127.04519289999999,49.801,0.0016,0.0,0.0,0.0,0.0016,0.0,0.0,0.0,0.0025000000000000005,2
1730041416575464096,44173,1730041416499772643,gps,0,0,37.5551963,127.0451944,49.801,0.0016,0.0,0.0,0.0,0.0016,0.0,0.0,0.0,0.0025000000000000005,2
1730041416704847792,44174,1730041416624772647,gps,0,0,37.5551959,127.04519599999999,49.788000000000004,0.0016,0.0,0.0,0.0,0.0016,0.0,0.0,0.0,0.0025000000000000005,2
1730041416827628746,44175,1730041416749772650,gps,0,0,37.555195499999996,127.0451975,49.776,0.0016,0.0,0.0,0.0,0.0016,0.0,0.0,0.0,0.0025000000000000005,2
1730041416955353532,44176,1730041416874772654,gps,0,0,37.5551951,127.045199,49.785000000000004,0.0016,0.0,0.0,0.0,0.0016,0.0,0.0,0.0,0.0026009999999999996,2
1730041417086491446,44177,1730041416999772659,gps,0,0,37.5551946,127.04520049999999,49.783,0.0016,0.0,0.0,0.0,0.0016,0.0,0.0,0.0,0.0026009999999999996,2
1730041417206074586,44178,1730041417124772661,gps,0,0,37.555194199999995,127.04520199999999,49.78,0.001521,0.0,0.0,0.0,0.001521,0.0,0.0,0.0,0.0026009999999999996,2
1730041417327317699,44179,1730041417249772665,gps,0,0,37.5551937,127.0452035,49.782000000000004,0.0016,0.0,0.0,0.0,0.0016,0.0,0.0,0.0,0.0026009999999999996,2
1730041417446235310,44180,1730041417374772668,gps,0,0,37.5551933,127.045205,49.778,0.0016810000000000002,0.0,0.0,0.0,0.0016810000000000002,0.0,0.0,0.0,0.002704,2
1730041417583357320,44181,1730041417499772672,gps,0,0,37.5551928,127.04520649999999,49.772,0.0016810000000000002,0.0,0.0,0.0,0.0016810000000000002,0.0,0.0,0.0,0.002704,2
1730041417706493409,44182,1730041417624772675,gps,0,0,37.555192399999996,127.0452081,49.777,0.0016,0.0,0.0,0.0,0.0016,0.0,0.0,0.0,0.002809,2
1730041417826781183,44183,1730041417749772679,gps,0,0,37.555191799999996,127.04520959999999,49.787,0.0016,0.0,0.0,0.0,0.0016,0.0,0.0,0.0,0.0029159999999999998,2
1730041417950928651,44184,1730041417874772683,gps,0,0,37.5551913,127.0452112,49.794000000000004,0.0016,0.0,0.0,0.0,0.0016,0.0,0.0,0.0,0.003025,2
1730041418078892292,44185,1730041417999772687,gps,0,0,37.5551908,127.0452127,49.802,0.001521,0.0,0.0,0.0,0.001521,0.0,0.0,0.0,0.003025,2
1730041418201090707,44186,1730041418124772690,gps,0,0,37.5551904,127.04521419999999,49.809,0.001521,0.0,0.0,0.0,0.001521,0.0,0.0,0.0,0.0031360000000000003,2
1730041418326033316,44187,1730041418249772693,gps,0,0,37.5551898,127.0452158,49.818,0.0016,0.0,0.0,0.0,0.0016,0.0,0.0,0.0,0.0031360000000000003,2
1730041418453464738,44188,1730041418374772697,gps,0,0,37.555189299999995,127.04521729999999,49.828,0.0016,0.0,0.0,0.0,0.0016,0.0,0.0,0.0,0.0031360000000000003,2
1730041418577424491,44189,1730041418499772700,gps,0,0,37.555188799999996,127.0452189,49.824,0.0016,0.0,0.0,0.0,0.0016,0.0,0.0,0.0,0.0031360000000000003,2
1730041418707183568,44190,1730041418624772704,gps,0,0,37.5551884,127.04522039999999,49.832,0.001521,0.0,0.0,0.0,0.001521,0.0,0.0,0.0,0.0031360000000000003,2
1730041418825498304,44191,1730041418749772707,gps,2,0,37.5551873,127.04522159999999,49.994,0.00019600000000000002,0.0,0.0,0.0,0.00019600000000000002,0.0,0.0,0.0,0.0001,2
1730041418948919700,44192,1730041418874772711,gps,2,0,37.5551868,127.0452231,49.989000000000004,0.00019600000000000002,0.0,0.0,0.0,0.00019600000000000002,0.0,0.0,0.0,0.0001,2
1730041419082800818,44193,1730041418999772715,gps,2,0,37.5551864,127.0452246,49.989000000000004,0.00019600000000000002,0.0,0.0,0.0,0.00019600000000000002,0.0,0.0,0.0,0.0001,2
1730041419202066836,44194,1730041419124772718,gps,2,0,37.555186,127.04522619999999,49.99,0.00019600000000000002,0.0,0.0,0.0,0.00019600000000000002,0.0,0.0,0.0,0.0001,2
1730041419328096646,44195,1730041419249772721,gps,2,0,37.5551856,127.04522779999999,49.99,0.00019600000000000002,0.0,0.0,0.0,0.00019600000000000002,0.0,0.0,0.0,0.0001,2
1730041419453747543,44196,1730041419374772725,gps,2,0,37.555185099999996,127.04522929999999,49.995000000000005,0.00019600000000000002,0.0,0.0,0.0,0.00019600000000000002,0.0,0.0,0.0,0.0001,2
1730041419575547887,44197,1730041419499772728,gps,2,0,37.5551848,127.0452308,49.998,0.00019600000000000002,0.0,0.0,0.0,0.00019600000000000002,0.0,0.0,0.0,0.0001,2
1730041419703722335,44198,1730041419624772732,gps,2,0,37.5551844,127.04523239999999,49.992000000000004,0.00019600000000000002,0.0,0.0,0.0,0.00019600000000000002,0.0,0.0,0.0,0.0001,2
1730041419828482003,44199,1730041419749772735,gps,2,0,37.5551841,127.0452339,49.99,0.00019600000000000002,0.0,0.0,0.0,0.00019600000000000002,0.0,0.0,0.0,0.0001,2
1730041419955990585,44200,1730041419874772739,gps,2,0,37.5551838,127.04523549999999,49.99,0.00019600000000000002,0.0,0.0,0.0,0.00019600000000000002,0.0,0.0,0.0,0.0001,2
1730041420081226342,44201,1730041419999772743,gps,2,0,37.5551834,127.04523719999999,50.0,0.00019600000000000002,0.0,0.0,0.0,0.00019600000000000002,0.0,0.0,0.0,0.0001,2
1730041420192479521,44202,1730041420124772746,gps,2,0,37.555183199999995,127.04523859999999,49.976,0.00019600000000000002,0.0,0.0,0.0,0.00019600000000000002,0.0,0.0,0.0,0.000256,2
1730041420325257065,44203,1730041420249772749,gps,2,0,37.555182699999996,127.0452404,49.992000000000004,0.00019600000000000002,0.0,0.0,0.0,0.00019600000000000002,0.0,0.0,0.0,0.000225,2
1730041420448840818,44204,1730041420374772753,gps,2,0,37.5551824,127.0452419,50.006,0.00019600000000000002,0.0,0.0,0.0,0.00019600000000000002,0.0,0.0,0.0,0.000169,2
1730041420577710931,44205,1730041420499772756,gps,2,0,37.555181999999995,127.0452435,50.007,0.00019600000000000002,0.0,0.0,0.0,0.00019600000000000002,0.0,0.0,0.0,0.00012099999999999999,2
1730041420704012339,44206,1730041420624772760,gps,2,0,37.5551816,127.04524509999999,50.009,0.00019600000000000002,0.0,0.0,0.0,0.00019600000000000002,0.0,0.0,0.0,0.0001,2
1730041420828054263,44207,1730041420749772763,gps,2,0,37.5551811,127.04524669999999,49.998,0.00019600000000000002,0.0,0.0,0.0,0.00019600000000000002,0.0,0.0,0.0,0.0001,2
1730041420951391562,44208,1730041420874772767,gps,2,0,37.5551807,127.0452483,50.007,0.00019600000000000002,0.0,0.0,0.0,0.00019600000000000002,0.0,0.0,0.0,0.0001,2
1730041421079369126,44209,1730041420999772771,gps,2,0,37.555180299999996,127.0452498,50.001,0.00019600000000000002,0.0,0.0,0.0,0.00019600000000000002,0.0,0.0,0.0,0.0001,2
1730041421203120441,44210,1730041421124772774,gps,2,0,37.5551798,127.04525129999999,50.008,0.00019600000000000002,0.0,0.0,0.0,0.00019600000000000002,0.0,0.0,0.0,0.0001,2
1730041421335429853,44211,1730041421249772777,gps,2,0,37.5551792,127.0452529,50.013,0.00019600000000000002,0.0,0.0,0.0,0.00019600000000000002,0.0,0.0,0.0,0.0001,2
1730041421455820287,44212,1730041421374772781,gps,2,0,37.5551787,127.04525439999999,50.018,0.00019600000000000002,0.0,0.0,0.0,0.00019600000000000002,0.0,0.0,0.0,0.0001,2
1730041421577933329,44213,1730041421499772785,gps,2,0,37.5551783,127.045256,50.021,0.00019600000000000002,0.0,0.0,0.0,0.00019600000000000002,0.0,0.0,0.0,0.0001,2
1730041421705150555,44214,1730041421624772788,gps,2,0,37.555177799999996,127.0452576,50.019,0.00019600000000000002,0.0,0.0,0.0,0.00019600000000000002,0.0,0.0,0.0,0.0001,2
1730041421826403406,44215,1730041421749772792,gps,2,0,37.5551773,127.04525919999999,50.017,0.00019600000000000002,0.0,0.0,0.0,0.00019600000000000002,0.0,0.0,0.0,0.0001,2
1730041421947171907,44216,1730041421874772795,gps,2,0,37.5551768,127.0452607,50.014,0.00019600000000000002,0.0,0.0,0.0,0.00019600000000000002,0.0,0.0,0.0,0.0001,2
1730041422084184899,44217,1730041421999772800,gps,2,0,37.5551763,127.04526229999999,50.023,0.00019600000000000002,0.0,0.0,0.0,0.00019600000000000002,0.0,0.0,0.0,0.0001,2
1730041422201796544,44218,1730041422124772802,gps,2,0,37.5551758,127.0452639,50.02,0.00019600000000000002,0.0,0.0,0.0,0.00019600000000000002,0.0,0.0,0.0,0.0001,2
1730041422333094768,44219,1730041422249772806,gps,2,0,37.555175299999995,127.0452655,50.024,0.00019600000000000002,0.0,0.0,0.0,0.00019600000000000002,0.0,0.0,0.0,0.0001,2
1730041422452528802,44220,1730041422374772810,gps,2,0,37.555174799999996,127.045267,50.025,0.00019600000000000002,0.0,0.0,0.0,0.00019600000000000002,0.0,0.0,0.0,0.0001,2
1730041422575607500,44221,1730041422499772813,gps,2,0,37.5551744,127.04526849999999,50.022,0.00019600000000000002,0.0,0.0,0.0,0.00019600000000000002,0.0,0.0,0.0,0.0001,2
1730041422701028172,44222,1730041422624772817,gps,2,0,37.555174,127.04527019999999,50.029,0.00019600000000000002,0.0,0.0,0.0,0.00019600000000000002,0.0,0.0,0.0,0.0001,2
1730041422820022407,44223,1730041422749772820,gps,2,0,37.555173599999996,127.0452718,50.023,0.00019600000000000002,0.0,0.0,0.0,0.00019600000000000002,0.0,0.0,0.0,0.0001,2
1730041422951937556,44224,1730041422874772824,gps,2,0,37.5551732,127.04527329999999,50.027,0.00019600000000000002,0.0,0.0,0.0,0.00019600000000000002,0.0,0.0,0.0,0.0001,2
1730041423082246515,44225,1730041422999772828,gps,2,0,37.5551727,127.0452749,50.026,0.00019600000000000002,0.0,0.0,0.0,0.00019600000000000002,0.0,0.0,0.0,0.0001,2
1730041423202927305,44226,1730041423124772831,gps,2,0,37.555172299999995,127.0452765,50.03,0.00019600000000000002,0.0,0.0,0.0,0.00019600000000000002,0.0,0.0,0.0,0.0001,2
1730041423325587647,44227,1730041423249772835,gps,2,0,37.5551719,127.04527809999999,50.026,0.00019600000000000002,0.0,0.0,0.0,0.00019600000000000002,0.0,0.0,0.0,0.0001,2
1730041423453816695,44228,1730041423374772838,gps,2,0,37.5551714,127.0452797,50.027,0.00019600000000000002,0.0,0.0,0.0,0.00019600000000000002,0.0,0.0,0.0,0.0001,2
1730041423575130147,44229,1730041423499772842,gps,2,0,37.555171,127.0452813,50.028,0.00019600000000000002,0.0,0.0,0.0,0.00019600000000000002,0.0,0.0,0.0,0.0001,2
1730041423696502263,44230,1730041423624772845,gps,2,0,37.5551706,127.04528289999999,50.022,0.00019600000000000002,0.0,0.0,0.0,0.00019600000000000002,0.0,0.0,0.0,0.0001,2
1730041423825997385,44231,1730041423749772849,gps,2,0,37.5551702,127.0452845,50.023,0.00019600000000000002,0.0,0.0,0.0,0.00019600000000000002,0.0,0.0,0.0,0.0001,2
1730041423953187980,44232,1730041423874772853,gps,2,0,37.5551698,127.04528599999999,50.02,0.00019600000000000002,0.0,0.0,0.0,0.00019600000000000002,0.0,0.0,0.0,0.0001,2
1730041424081013445,44233,1730041423999772857,gps,2,0,37.5551694,127.0452875,50.02,0.00019600000000000002,0.0,0.0,0.0,0.00019600000000000002,0.0,0.0,0.0,0.0001,2
1730041424200909011,44234,1730041424124772860,gps,2,0,37.555169,127.0452892,50.024,0.00019600000000000002,0.0,0.0,0.0,0.00019600000000000002,0.0,0.0,0.0,0.0001,2
1730041424331705898,44235,1730041424249772863,gps,2,0,37.5551686,127.04529079999999,50.017,0.00019600000000000002,0.0,0.0,0.0,0.00019600000000000002,0.0,0.0,0.0,0.0001,2
1730041424452618711,44236,1730041424374772867,gps,2,0,37.5551682,127.0452924,50.021,0.00019600000000000002,0.0,0.0,0.0,0.00019600000000000002,0.0,0.0,0.0,0.0001,2
1730041424574620359,44237,1730041424499772870,gps,2,0,37.5551678,127.04529409999999,50.03,0.00019600000000000002,0.0,0.0,0.0,0.00019600000000000002,0.0,0.0,0.0,0.0001,2
1730041424702131475,44238,1730041424624772874,gps,2,0,37.555167399999995,127.04529559999999,50.023,0.00019600000000000002,0.0,0.0,0.0,0.00019600000000000002,0.0,0.0,0.0,0.0001,2
1730041424827475946,44239,1730041424749772877,gps,2,0,37.555167,127.0452972,50.027,0.00019600000000000002,0.0,0.0,0.0,0.00019600000000000002,0.0,0.0,0.0,0.0001,2
1730041424952239529,44240,1730041424874772881,gps,2,0,37.5551665,127.0452988,50.019,0.00019600000000000002,0.0,0.0,0.0,0.00019600000000000002,0.0,0.0,0.0,0.0001,2
1730041425079155669,44241,1730041424999772885,gps,2,0,37.5551661,127.0453003,50.017,0.00019600000000000002,0.0,0.0,0.0,0.00019600000000000002,0.0,0.0,0.0,0.0001,2
1730041425203113058,44242,1730041425124772888,gps,2,0,37.555165599999995,127.04530199999999,50.012,0.00019600000000000002,0.0,0.0,0.0,0.00019600000000000002,0.0,0.0,0.0,0.0001,2
1730041425332921139,44243,1730041425249772891,gps,2,0,37.555165099999996,127.04530349999999,50.008,0.00019600000000000002,0.0,0.0,0.0,0.00019600000000000002,0.0,0.0,0.0,0.0001,2
1730041425451894574,44244,1730041425374772895,gps,2,0,37.5551646,127.0453051,50.006,0.00019600000000000002,0.0,0.0,0.0,0.00019600000000000002,0.0,0.0,0.0,0.0001,2
1730041425572675163,44245,1730041425499772898,gps,2,0,37.5551642,127.0453067,50.007,0.00019600000000000002,0.0,0.0,0.0,0.00019600000000000002,0.0,0.0,0.0,0.0001,2
1730041425701714719,44246,1730041425624772902,gps,2,0,37.5551637,127.04530829999999,50.013,0.00019600000000000002,0.0,0.0,0.0,0.00019600000000000002,0.0,0.0,0.0,0.0001,2
1730041425825319124,44247,1730041425749772905,gps,2,0,37.5551633,127.0453098,50.01,0.00019600000000000002,0.0,0.0,0.0,0.00019600000000000002,0.0,0.0,0.0,0.0001,2
1730041425950667734,44248,1730041425874772909,gps,2,0,37.5551628,127.04531139999999,50.012,0.00019600000000000002,0.0,0.0,0.0,0.00019600000000000002,0.0,0.0,0.0,0.0001,2
1730041426081777075,44249,1730041425999772913,gps,2,0,37.5551624,127.0453129,50.005,0.00019600000000000002,0.0,0.0,0.0,0.00019600000000000002,0.0,0.0,0.0,0.0001,2
1730041426199074020,44250,1730041426124772916,gps,2,0,37.5551619,127.04531449999999,50.01,0.00019600000000000002,0.0,0.0,0.0,0.00019600000000000002,0.0,0.0,0.0,0.0001,2
1730041426323718782,44251,1730041426249772919,gps,2,0,37.555161399999996,127.0453161,50.006,0.00019600000000000002,0.0,0.0,0.0,0.00019600000000000002,0.0,0.0,0.0,0.0001,2
1730041426442758641,44252,1730041426374772923,gps,2,0,37.5551609,127.04531759999999,49.999,0.00019600000000000002,0.0,0.0,0.0,0.00019600000000000002,0.0,0.0,0.0,0.0001,2
1730041426572428053,44253,1730041426499772926,gps,2,0,37.5551603,127.0453192,50.008,0.00019600000000000002,0.0,0.0,0.0,0.00019600000000000002,0.0,0.0,0.0,0.00012099999999999999,2
1730041426698007933,44254,1730041426624772930,gps,2,0,37.5551599,127.0453208,50.0,0.00019600000000000002,0.0,0.0,0.0,0.00019600000000000002,0.0,0.0,0.0,0.0001,2
1730041426822436000,44255,1730041426749772934,gps,2,0,37.5551594,127.04532239999999,50.004,0.00019600000000000002,0.0,0.0,0.0,0.00019600000000000002,0.0,0.0,0.0,0.00012099999999999999,2
1730041426947035556,44256,1730041426874772937,gps,2,0,37.555158899999995,127.0453239,50.004,0.00019600000000000002,0.0,0.0,0.0,0.00019600000000000002,0.0,0.0,0.0,0.00012099999999999999,2
1730041427076855345,44257,1730041426999772942,gps,2,0,37.555158399999996,127.04532549999999,50.008,0.00019600000000000002,0.0,0.0,0.0,0.00019600000000000002,0.0,0.0,0.0,0.000144,2
1730041427197465767,44258,1730041427124772944,gps,2,0,37.5551579,127.045327,50.006,0.00019600000000000002,0.0,0.0,0.0,0.00019600000000000002,0.0,0.0,0.0,0.0001,2
1730041427317600307,44259,1730041427249772948,gps,2,0,37.5551574,127.04532859999999,50.004,0.00019600000000000002,0.0,0.0,0.0,0.00019600000000000002,0.0,0.0,0.0,0.0001,2
1730041427449056397,44260,1730041427374772951,gps,2,0,37.5551569,127.0453301,50.007,0.00019600000000000002,0.0,0.0,0.0,0.00019600000000000002,0.0,0.0,0.0,0.0001,2
1730041427573045887,44261,1730041427499772955,gps,2,0,37.5551564,127.04533169999999,50.002,0.00019600000000000002,0.0,0.0,0.0,0.00019600000000000002,0.0,0.0,0.0,0.0001,2
1730041427698135200,44262,1730041427624772958,gps,2,0,37.555156,127.04533319999999,50.002,0.00019600000000000002,0.0,0.0,0.0,0.00019600000000000002,0.0,0.0,0.0,0.0001,2
1730041427822885365,44263,1730041427749772962,gps,2,0,37.5551556,127.0453349,50.009,0.00019600000000000002,0.0,0.0,0.0,0.00019600000000000002,0.0,0.0,0.0,0.0001,2
1730041427946591331,44264,1730041427874772965,gps,2,0,37.5551552,127.04533649999999,50.011,0.00019600000000000002,0.0,0.0,0.0,0.00019600000000000002,0.0,0.0,0.0,0.0001,2
1730041428077033867,44265,1730041427999772970,gps,2,0,37.5551548,127.045338,50.021,0.00019600000000000002,0.0,0.0,0.0,0.00019600000000000002,0.0,0.0,0.0,0.0001,2
1730041428192967428,44266,1730041428124772972,gps,2,0,37.5551544,127.04533959999999,50.015,0.00019600000000000002,0.0,0.0,0.0,0.00019600000000000002,0.0,0.0,0.0,0.0001,2
1730041428323024813,44267,1730041428249772976,gps,2,0,37.555154,127.04534129999999,50.007,0.00019600000000000002,0.0,0.0,0.0,0.00019600000000000002,0.0,0.0,0.0,0.0001,2
1730041428448532735,44268,1730041428374772979,gps,2,0,37.5551536,127.0453429,50.008,0.00019600000000000002,0.0,0.0,0.0,0.00019600000000000002,0.0,0.0,0.0,0.0001,2
1730041428570947771,44269,1730041428499772983,gps,2,0,37.5551532,127.0453445,50.018,0.00019600000000000002,0.0,0.0,0.0,0.00019600000000000002,0.0,0.0,0.0,0.0001,2
1730041428697072887,44270,1730041428624772986,gps,2,0,37.555152799999995,127.045346,50.01,0.00019600000000000002,0.0,0.0,0.0,0.00019600000000000002,0.0,0.0,0.0,0.0001,2
1730041428823198628,44271,1730041428749772990,gps,2,0,37.5551524,127.0453476,50.009,0.00019600000000000002,0.0,0.0,0.0,0.00019600000000000002,0.0,0.0,0.0,0.0001,2
1730041428948035587,44272,1730041428874772993,gps,2,0,37.555152,127.04534919999999,50.011,0.00019600000000000002,0.0,0.0,0.0,0.00019600000000000002,0.0,0.0,0.0,0.0001,2
1730041429073072120,44273,1730041428999772998,gps,2,0,37.555151599999995,127.0453508,50.008,0.00019600000000000002,0.0,0.0,0.0,0.00019600000000000002,0.0,0.0,0.0,0.00012099999999999999,2
1730041429197779591,44274,1730041429124773000,gps,2,0,37.5551513,127.0453524,50.019,0.00019600000000000002,0.0,0.0,0.0,0.00019600000000000002,0.0,0.0,0.0,0.0001,2
1730041429322481403,44275,1730041429249773004,gps,2,0,37.5551508,127.04535399999999,50.011,0.00019600000000000002,0.0,0.0,0.0,0.00019600000000000002,0.0,0.0,0.0,0.000144,2
1730041429448138272,44276,1730041429374773007,gps,2,0,37.555150399999995,127.0453556,50.012,0.00019600000000000002,0.0,0.0,0.0,0.00019600000000000002,0.0,0.0,0.0,0.00012099999999999999,2
1730041429572634432,44277,1730041429499773011,gps,2,0,37.55515,127.0453572,50.002,0.00019600000000000002,0.0,0.0,0.0,0.00019600000000000002,0.0,0.0,0.0,0.0001,2
1730041429700165035,44278,1730041429624773014,gps,2,0,37.5551496,127.04535879999999,50.009,0.00019600000000000002,0.0,0.0,0.0,0.00019600000000000002,0.0,0.0,0.0,0.00012099999999999999,2
1730041429822169079,44279,1730041429749773018,gps,2,0,37.555149199999995,127.04536039999999,50.005,0.00019600000000000002,0.0,0.0,0.0,0.00019600000000000002,0.0,0.0,0.0,0.0001,2
1730041429947612152,44280,1730041429874773021,gps,2,0,37.5551488,127.045362,50.008,0.00019600000000000002,0.0,0.0,0.0,0.00019600000000000002,0.0,0.0,0.0,0.0001,2
1730041430075728467,44281,1730041429999773026,gps,2,0,37.5551484,127.04536359999999,49.998,0.00019600000000000002,0.0,0.0,0.0,0.00019600000000000002,0.0,0.0,0.0,0.0001,2
1730041430198101594,44282,1730041430124773028,gps,2,0,37.555147999999996,127.0453653,49.999,0.00019600000000000002,0.0,0.0,0.0,0.00019600000000000002,0.0,0.0,0.0,0.0001,2
1730041430326473329,44283,1730041430249773032,gps,2,0,37.5551476,127.0453668,49.997,0.00019600000000000002,0.0,0.0,0.0,0.00019600000000000002,0.0,0.0,0.0,0.0001,2
1730041430449960762,44284,1730041430374773035,gps,2,0,37.5551472,127.0453684,49.994,0.00019600000000000002,0.0,0.0,0.0,0.00019600000000000002,0.0,0.0,0.0,0.0001,2
1730041430574718105,44285,1730041430499773039,gps,2,0,37.5551467,127.04536999999999,49.998,0.00019600000000000002,0.0,0.0,0.0,0.00019600000000000002,0.0,0.0,0.0,0.0001,2
1730041430698049880,44286,1730041430624773042,gps,2,0,37.5551463,127.0453716,50.002,0.00019600000000000002,0.0,0.0,0.0,0.00019600000000000002,0.0,0.0,0.0,0.0001,2
1730041430822116813,44287,1730041430749773046,gps,2,0,37.5551459,127.0453732,49.999,0.00019600000000000002,0.0,0.0,0.0,0.00019600000000000002,0.0,0.0,0.0,0.0001,2
1730041430941986997,44288,1730041430874773049,gps,2,0,37.5551454,127.0453747,49.991,0.00019600000000000002,0.0,0.0,0.0,0.00019600000000000002,0.0,0.0,0.0,0.0001,2
1730041431077016197,44289,1730041430999773054,gps,2,0,37.555144999999996,127.04537619999999,49.997,0.00019600000000000002,0.0,0.0,0.0,0.00019600000000000002,0.0,0.0,0.0,0.000144,2
1730041431197524435,44290,1730041431124773056,gps,2,0,37.5551445,127.04537769999999,49.978,0.00019600000000000002,0.0,0.0,0.0,0.00019600000000000002,0.0,0.0,0.0,0.000169,2
1730041431326048059,44291,1730041431249773060,gps,2,0,37.5551441,127.0453793,49.982,0.00019600000000000002,0.0,0.0,0.0,0.00019600000000000002,0.0,0.0,0.0,0.000144,2
1730041431450173511,44292,1730041431374773063,gps,2,0,37.5551436,127.04538099999999,49.987,0.00019600000000000002,0.0,0.0,0.0,0.00019600000000000002,0.0,0.0,0.0,0.00019600000000000002,2
1730041431573154727,44293,1730041431499773066,gps,2,0,37.555143099999995,127.04538249999999,49.999,0.00019600000000000002,0.0,0.0,0.0,0.00019600000000000002,0.0,0.0,0.0,0.000169,2
1730041431697162027,44294,1730041431624773070,gps,2,0,37.5551427,127.04538409999999,49.994,0.00019600000000000002,0.0,0.0,0.0,0.00019600000000000002,0.0,0.0,0.0,0.000169,2
1730041431816983166,44295,1730041431749773073,gps,2,0,37.5551423,127.0453857,49.997,0.00019600000000000002,0.0,0.0,0.0,0.00019600000000000002,0.0,0.0,0.0,0.000144,2
1730041431948104752,44296,1730041431874773077,gps,2,0,37.5551418,127.04538729999999,49.987,0.00019600000000000002,0.0,0.0,0.0,0.00019600000000000002,0.0,0.0,0.0,0.00012099999999999999,2
1730041432081067323,44297,1730041431999773081,gps,2,0,37.5551414,127.0453888,49.984,0.00019600000000000002,0.0,0.0,0.0,0.00019600000000000002,0.0,0.0,0.0,0.00012099999999999999,2
1730041432198708871,44298,1730041432124773084,gps,2,0,37.5551409,127.04539039999999,49.99,0.00019600000000000002,0.0,0.0,0.0,0.00019600000000000002,0.0,0.0,0.0,0.000144,2
1730041432325139799,44299,1730041432249773088,gps,2,0,37.5551405,127.0453921,49.999,0.00019600000000000002,0.0,0.0,0.0,0.00019600000000000002,0.0,0.0,0.0,0.000144,2
1730041432450200497,44300,1730041432374773091,gps,2,0,37.555140099999996,127.0453936,49.988,0.00019600000000000002,0.0,0.0,0.0,0.00019600000000000002,0.0,0.0,0.0,0.00012099999999999999,2
1730041432574685956,44301,1730041432499773094,gps,2,0,37.5551396,127.04539519999999,49.993,0.00019600000000000002,0.0,0.0,0.0,0.00019600000000000002,0.0,0.0,0.0,0.00012099999999999999,2
1730041432694671743,44302,1730041432624773098,gps,2,0,37.5551391,127.04539679999999,49.991,0.00019600000000000002,0.0,0.0,0.0,0.00019600000000000002,0.0,0.0,0.0,0.000144,2
1730041432827089262,44303,1730041432749773101,gps,2,0,37.5551388,127.0453984,49.991,0.00019600000000000002,0.0,0.0,0.0,0.00019600000000000002,0.0,0.0,0.0,0.00012099999999999999,2
1730041432951672934,44304,1730041432874773105,gps,2,0,37.555138299999996,127.0454,49.996,0.00019600000000000002,0.0,0.0,0.0,0.00019600000000000002,0.0,0.0,0.0,0.00012099999999999999,2
1730041433081182487,44305,1730041432999773109,gps,2,0,37.555138,127.0454015,49.993,0.00019600000000000002,0.0,0.0,0.0,0.00019600000000000002,0.0,0.0,0.0,0.0001,2
1730041433199833818,44306,1730041433124773112,gps,2,0,37.555137599999995,127.0454032,49.991,0.00019600000000000002,0.0,0.0,0.0,0.00019600000000000002,0.0,0.0,0.0,0.00012099999999999999,2
1730041433324901308,44307,1730041433249773115,gps,2,0,37.5551372,127.0454048,49.983000000000004,0.00019600000000000002,0.0,0.0,0.0,0.00019600000000000002,0.0,0.0,0.0,0.00012099999999999999,2
1730041433451667120,44308,1730041433374773119,gps,2,0,37.5551368,127.0454063,49.981,0.00019600000000000002,0.0,0.0,0.0,0.00019600000000000002,0.0,0.0,0.0,0.000144,2
1730041433571060621,44309,1730041433499773122,gps,2,0,37.5551363,127.045408,49.986000000000004,0.00019600000000000002,0.0,0.0,0.0,0.00019600000000000002,0.0,0.0,0.0,0.000144,2
1730041433699179175,44310,1730041433624773126,gps,2,0,37.555135899999996,127.0454096,49.986000000000004,0.00019600000000000002,0.0,0.0,0.0,0.00019600000000000002,0.0,0.0,0.0,0.000169,2
1730041433823685537,44311,1730041433749773129,gps,2,0,37.5551354,127.04541119999999,49.983000000000004,0.00019600000000000002,0.0,0.0,0.0,0.00019600000000000002,0.0,0.0,0.0,0.000169,2
1730041433951041167,44312,1730041433874773133,gps,2,0,37.555135,127.0454127,49.980000000000004,0.00019600000000000002,0.0,0.0,0.0,0.00019600000000000002,0.0,0.0,0.0,0.00019600000000000002,2
1730041434078604456,44313,1730041433999773138,gps,2,0,37.555134599999995,127.04541429999999,49.982,0.00019600000000000002,0.0,0.0,0.0,0.00019600000000000002,0.0,0.0,0.0,0.000169,2
1730041434197814879,44314,1730041434124773140,gps,2,0,37.5551341,127.0454159,49.992000000000004,0.00019600000000000002,0.0,0.0,0.0,0.00019600000000000002,0.0,0.0,0.0,0.000169,2
1730041434323519208,44315,1730041434249773144,gps,2,0,37.5551336,127.0454173,49.985,0.00019600000000000002,0.0,0.0,0.0,0.00019600000000000002,0.0,0.0,0.0,0.000169,2
1730041434449703965,44316,1730041434374773147,gps,2,0,37.555133,127.04541889999999,49.982,0.00019600000000000002,0.0,0.0,0.0,0.00019600000000000002,0.0,0.0,0.0,0.000144,2
1730041434570923739,44317,1730041434499773151,gps,2,0,37.5551326,127.04542049999999,49.986000000000004,0.00019600000000000002,0.0,0.0,0.0,0.00019600000000000002,0.0,0.0,0.0,0.00012099999999999999,2
1730041434697949242,44318,1730041434624773154,gps,2,0,37.5551321,127.04542219999999,49.986000000000004,0.00019600000000000002,0.0,0.0,0.0,0.00019600000000000002,0.0,0.0,0.0,0.000144,2
1730041434822087088,44319,1730041434749773158,gps,2,0,37.555131599999996,127.0454238,49.988,0.00019600000000000002,0.0,0.0,0.0,0.00019600000000000002,0.0,0.0,0.0,0.00012099999999999999,2
1730041434948021342,44320,1730041434874773161,gps,2,0,37.555130999999996,127.0454255,49.978,0.00019600000000000002,0.0,0.0,0.0,0.00019600000000000002,0.0,0.0,0.0,0.000144,2
1730041435078588547,44321,1730041434999773166,gps,2,0,37.5551307,127.0454268,49.983000000000004,0.00019600000000000002,0.0,0.0,0.0,0.00019600000000000002,0.0,0.0,0.0,0.000144,2
1730041435200225274,44322,1730041435124773168,gps,2,0,37.5551303,127.04542839999999,49.984,0.00019600000000000002,0.0,0.0,0.0,0.00019600000000000002,0.0,0.0,0.0,0.000144,2
1730041435325138567,44323,1730041435249773172,gps,2,0,37.5551299,127.04543,49.979,0.00019600000000000002,0.0,0.0,0.0,0.00019600000000000002,0.0,0.0,0.0,0.000144,2
1730041435446973104,44324,1730041435374773175,gps,2,0,37.5551295,127.04543149999999,49.977000000000004,0.00019600000000000002,0.0,0.0,0.0,0.00019600000000000002,0.0,0.0,0.0,0.00019600000000000002,2
1730041435579639121,44325,1730041435499773179,gps,2,0,37.555129199999996,127.0454331,49.969,0.00019600000000000002,0.0,0.0,0.0,0.00019600000000000002,0.0,0.0,0.0,0.00019600000000000002,2
1730041435700254942,44326,1730041435624773182,gps,2,0,37.5551288,127.0454345,49.964,0.00019600000000000002,0.0,0.0,0.0,0.00019600000000000002,0.0,0.0,0.0,0.00019600000000000002,2
1730041435824159872,44327,1730041435749773186,gps,2,0,37.5551284,127.0454359,49.973,0.00019600000000000002,0.0,0.0,0.0,0.00019600000000000002,0.0,0.0,0.0,0.00019600000000000002,2
1730041435948945045,44328,1730041435874773189,gps,2,0,37.555127899999995,127.0454376,49.991,0.00019600000000000002,0.0,0.0,0.0,0.00019600000000000002,0.0,0.0,0.0,0.000225,2
1730041436078943567,44329,1730041435999773194,gps,2,0,37.5551275,127.04543919999999,49.985,0.00019600000000000002,0.0,0.0,0.0,0.00019600000000000002,0.0,0.0,0.0,0.000256,2
1730041436196787012,44330,1730041436124773196,gps,2,0,37.5551269,127.04544089999999,50.0,0.00019600000000000002,0.0,0.0,0.0,0.00019600000000000002,0.0,0.0,0.0,0.000225,2
1730041436317468074,44331,1730041436249773200,gps,2,0,37.5551264,127.0454424,49.994,0.00019600000000000002,0.0,0.0,0.0,0.00019600000000000002,0.0,0.0,0.0,0.000225,2
1730041436448936790,44332,1730041436374773203,gps,2,0,37.555126,127.04544399999999,50.0,0.00019600000000000002,0.0,0.0,0.0,0.00019600000000000002,0.0,0.0,0.0,0.000225,2
1730041436578804444,44333,1730041436499773207,gps,2,0,37.555125499999995,127.0454456,50.016,0.00019600000000000002,0.0,0.0,0.0,0.00019600000000000002,0.0,0.0,0.0,0.00019600000000000002,2
1730041436699229930,44334,1730041436624773210,gps,2,0,37.5551251,127.0454472,50.017,0.00019600000000000002,0.0,0.0,0.0,0.00019600000000000002,0.0,0.0,0.0,0.00019600000000000002,2
1730041436822284963,44335,1730041436749773214,gps,2,0,37.5551247,127.0454487,50.014,0.00019600000000000002,0.0,0.0,0.0,0.00019600000000000002,0.0,0.0,0.0,0.00019600000000000002,2
1730041436946920285,44336,1730041436874773217,gps,2,0,37.555124299999996,127.0454503,50.012,0.00019600000000000002,0.0,0.0,0.0,0.00019600000000000002,0.0,0.0,0.0,0.000225,2
1730041437076098156,44337,1730041436999773222,gps,2,0,37.5551238,127.04545189999999,50.001,0.00019600000000000002,0.0,0.0,0.0,0.00019600000000000002,0.0,0.0,0.0,0.000225,2
1730041437194778316,44338,1730041437124773224,gps,2,0,37.5551234,127.0454535,49.999,0.00019600000000000002,0.0,0.0,0.0,0.00019600000000000002,0.0,0.0,0.0,0.000225,2
1730041437327554512,44339,1730041437249773227,gps,2,0,37.555123,127.0454551,49.999,0.00019600000000000002,0.0,0.0,0.0,0.00019600000000000002,0.0,0.0,0.0,0.000225,2
1730041437453011188,44340,1730041437374773231,gps,2,0,37.555122499999996,127.04545669999999,50.005,0.00019600000000000002,0.0,0.0,0.0,0.00019600000000000002,0.0,0.0,0.0,0.000225,2
1730041437579907929,44341,1730041437499773234,gps,2,0,37.5551221,127.04545829999999,50.018,0.00019600000000000002,0.0,0.0,0.0,0.00019600000000000002,0.0,0.0,0.0,0.00028900000000000003,2
1730041437698065815,44342,1730041437624773238,gps,2,0,37.5551217,127.04545999999999,50.019,0.00019600000000000002,0.0,0.0,0.0,0.00019600000000000002,0.0,0.0,0.0,0.00032399999999999996,2
1730041437822374379,44343,1730041437749773241,gps,2,0,37.555121199999995,127.04546149999999,50.009,0.00019600000000000002,0.0,0.0,0.0,0.00019600000000000002,0.0,0.0,0.0,0.00028900000000000003,2
1730041437949019806,44344,1730041437874773245,gps,2,0,37.555120699999996,127.04546309999999,49.996,0.00019600000000000002,0.0,0.0,0.0,0.00019600000000000002,0.0,0.0,0.0,0.000256,2
1730041438076484248,44345,1730041437999773249,gps,2,0,37.5551203,127.0454647,50.014,0.00019600000000000002,0.0,0.0,0.0,0.00019600000000000002,0.0,0.0,0.0,0.00032399999999999996,2
1730041438199684634,44346,1730041438124773251,gps,2,0,37.5551199,127.0454663,50.028,0.00019600000000000002,0.0,0.0,0.0,0.00019600000000000002,0.0,0.0,0.0,0.00044100000000000004,2
1730041438325336939,44347,1730041438249773255,gps,2,0,37.555119399999995,127.0454678,49.992000000000004,0.00019600000000000002,0.0,0.0,0.0,0.00019600000000000002,0.0,0.0,0.0,0.0004,2
1730041438448167593,44348,1730041438374773258,gps,2,0,37.5551191,127.04546939999999,49.988,0.00019600000000000002,0.0,0.0,0.0,0.00019600000000000002,0.0,0.0,0.0,0.0004,2
1730041438577711660,44349,1730041438499773262,gps,2,0,37.5551186,127.04547099999999,49.981,0.00019600000000000002,0.0,0.0,0.0,0.00019600000000000002,0.0,0.0,0.0,0.000361,2
1730041438697886208,44350,1730041438624773265,gps,2,0,37.5551181,127.04547249999999,49.985,0.00019600000000000002,0.0,0.0,0.0,0.00019600000000000002,0.0,0.0,0.0,0.000361,2
1730041438817336371,44351,1730041438749773269,gps,2,0,37.555117599999996,127.0454742,49.979,0.00019600000000000002,0.0,0.0,0.0,0.00019600000000000002,0.0,0.0,0.0,0.00048399999999999995,2
1730041438942178544,44352,1730041438874773272,gps,2,0,37.5551173,127.0454757,49.972,0.00019600000000000002,0.0,0.0,0.0,0.00019600000000000002,0.0,0.0,0.0,0.000576,2
1730041439070964826,44353,1730041438999773277,gps,2,0,37.5551169,127.0454774,49.96,0.00019600000000000002,0.0,0.0,0.0,0.00019600000000000002,0.0,0.0,0.0,0.00048399999999999995,2
1730041439194220060,44354,1730041439124773279,gps,2,0,37.5551166,127.045479,49.959,0.00019600000000000002,0.0,0.0,0.0,0.00019600000000000002,0.0,0.0,0.0,0.0004,2
1730041439320927747,44355,1730041439249773283,gps,2,0,37.5551162,127.0454805,49.948,0.00019600000000000002,0.0,0.0,0.0,0.00019600000000000002,0.0,0.0,0.0,0.000361,2
1730041439446968314,44356,1730041439374773286,gps,2,0,37.555115799999996,127.0454822,49.954,0.00019600000000000002,0.0,0.0,0.0,0.00019600000000000002,0.0,0.0,0.0,0.00032399999999999996,2
1730041439575198429,44357,1730041439499773290,gps,2,0,37.5551155,127.0454838,49.943,0.00019600000000000002,0.0,0.0,0.0,0.00019600000000000002,0.0,0.0,0.0,0.00032399999999999996,2
1730041439697063911,44358,1730041439624773293,gps,2,0,37.555115099999995,127.04548539999999,49.957,0.00019600000000000002,0.0,0.0,0.0,0.00019600000000000002,0.0,0.0,0.0,0.00028900000000000003,2
1730041439818591661,44359,1730041439749773297,gps,2,0,37.555114599999996,127.045487,49.959,0.00019600000000000002,0.0,0.0,0.0,0.00019600000000000002,0.0,0.0,0.0,0.00028900000000000003,2
1730041439938894279,44360,1730041439874773300,gps,2,0,37.5551143,127.0454886,49.969,0.00019600000000000002,0.0,0.0,0.0,0.00019600000000000002,0.0,0.0,0.0,0.00032399999999999996,2
1730041440075609175,44361,1730041439999773305,gps,2,0,37.5551138,127.04549019999999,49.977000000000004,0.00019600000000000002,0.0,0.0,0.0,0.00019600000000000002,0.0,0.0,0.0,0.00032399999999999996,2
1730041440197125588,44362,1730041440124773308,gps,2,0,37.555113399999996,127.0454918,49.97,0.00019600000000000002,0.0,0.0,0.0,0.00019600000000000002,0.0,0.0,0.0,0.00028900000000000003,2
1730041440320068240,44363,1730041440249773311,gps,2,0,37.5551129,127.0454934,49.981,0.00019600000000000002,0.0,0.0,0.0,0.00019600000000000002,0.0,0.0,0.0,0.00032399999999999996,2
1730041440445705748,44364,1730041440374773314,gps,2,0,37.5551126,127.04549499999999,49.97,0.00019600000000000002,0.0,0.0,0.0,0.00019600000000000002,0.0,0.0,0.0,0.00028900000000000003,2
1730041440574577788,44365,1730041440499773318,gps,2,0,37.555112099999995,127.04549659999999,49.962,0.00019600000000000002,0.0,0.0,0.0,0.00019600000000000002,0.0,0.0,0.0,0.00032399999999999996,2
1730041440694339997,44366,1730041440624773322,gps,2,0,37.5551116,127.0454982,49.969,0.00019600000000000002,0.0,0.0,0.0,0.00019600000000000002,0.0,0.0,0.0,0.00032399999999999996,2
1730041440813660096,44367,1730041440749773325,gps,2,0,37.5551112,127.04549979999999,49.956,0.00019600000000000002,0.0,0.0,0.0,0.00019600000000000002,0.0,0.0,0.0,0.00028900000000000003,2
1730041440945629443,44368,1730041440874773328,gps,2,0,37.5551106,127.0455013,49.975,0.00019600000000000002,0.0,0.0,0.0,0.00019600000000000002,0.0,0.0,0.0,0.00032399999999999996,2
1730041441074874449,44369,1730041440999773333,gps,2,0,37.5551102,127.04550289999999,49.957,0.00019600000000000002,0.0,0.0,0.0,0.00019600000000000002,0.0,0.0,0.0,0.00032399999999999996,2
1730041441197730962,44370,1730041441124773335,gps,2,0,37.555109699999996,127.04550449999999,49.969,0.00019600000000000002,0.0,0.0,0.0,0.00019600000000000002,0.0,0.0,0.0,0.00032399999999999996,2
1730041441321138970,44371,1730041441249773339,gps,2,0,37.555109099999996,127.0455059,49.954,0.00019600000000000002,0.0,0.0,0.0,0.00019600000000000002,0.0,0.0,0.0,0.00032399999999999996,2
1730041441447111864,44372,1730041441374773342,gps,2,0,37.5551086,127.0455075,49.966,0.00019600000000000002,0.0,0.0,0.0,0.00019600000000000002,0.0,0.0,0.0,0.00032399999999999996,2
1730041441576536679,44373,1730041441499773346,gps,2,0,37.5551081,127.045509,49.95,0.00019600000000000002,0.0,0.0,0.0,0.00019600000000000002,0.0,0.0,0.0,0.00032399999999999996,2
1730041441692525934,44374,1730041441624773349,gps,2,0,37.5551077,127.0455106,49.972,0.00019600000000000002,0.0,0.0,0.0,0.00019600000000000002,0.0,0.0,0.0,0.00032399999999999996,2
1730041441819805593,44375,1730041441749773353,gps,2,0,37.555107199999995,127.0455121,49.955,0.00019600000000000002,0.0,0.0,0.0,0.00019600000000000002,0.0,0.0,0.0,0.00028900000000000003,2
1730041441945436262,44376,1730041441874773356,gps,2,0,37.5551068,127.0455137,49.938,0.00019600000000000002,0.0,0.0,0.0,0.00019600000000000002,0.0,0.0,0.0,0.000361,2
1730041442073900589,44377,1730041441999773361,gps,2,0,37.5551063,127.0455152,49.932,0.00019600000000000002,0.0,0.0,0.0,0.00019600000000000002,0.0,0.0,0.0,0.00032399999999999996,2
1730041442196049065,44378,1730041442124773363,gps,2,0,37.5551059,127.04551679999999,49.929,0.00019600000000000002,0.0,0.0,0.0,0.00019600000000000002,0.0,0.0,0.0,0.000361,2
1730041442327803327,44379,1730041442249773366,gps,2,0,37.5551052,127.04551839999999,49.973,0.00019600000000000002,0.0,0.0,0.0,0.00019600000000000002,0.0,0.0,0.0,0.000256,2
1730041442447129545,44380,1730041442374773370,gps,2,0,37.555104799999995,127.04552,49.99,0.00019600000000000002,0.0,0.0,0.0,0.00019600000000000002,0.0,0.0,0.0,0.000169,2
1730041442568272311,44381,1730041442499773373,gps,2,0,37.5551044,127.0455214,49.997,0.00019600000000000002,0.0,0.0,0.0,0.00019600000000000002,0.0,0.0,0.0,0.000169,2
1730041442695916919,44382,1730041442624773377,gps,2,0,37.5551039,127.0455231,50.003,0.00019600000000000002,0.0,0.0,0.0,0.00019600000000000002,0.0,0.0,0.0,0.000169,2
1730041442818624728,44383,1730041442749773380,gps,2,0,37.555103599999995,127.04552469999999,49.999,0.00019600000000000002,0.0,0.0,0.0,0.00019600000000000002,0.0,0.0,0.0,0.000169,2
1730041442943913785,44384,1730041442874773383,gps,2,0,37.5551032,127.04552629999999,49.992000000000004,0.00019600000000000002,0.0,0.0,0.0,0.00019600000000000002,0.0,0.0,0.0,0.00012099999999999999,2
1730041443074046168,44385,1730041442999773388,gps,2,0,37.5551028,127.0455279,49.994,0.00019600000000000002,0.0,0.0,0.0,0.00019600000000000002,0.0,0.0,0.0,0.00012099999999999999,2
1730041443196658998,44386,1730041443124773390,gps,2,0,37.555102399999996,127.0455295,49.993,0.00019600000000000002,0.0,0.0,0.0,0.00019600000000000002,0.0,0.0,0.0,0.00012099999999999999,2
1730041443321222385,44387,1730041443249773393,gps,2,0,37.5551019,127.04553109999999,50.003,0.00019600000000000002,0.0,0.0,0.0,0.00019600000000000002,0.0,0.0,0.0,0.0001,2
