%time,field.stamp,field.id,field.x,field.y,field.z,field.distanceFromTag,field.rssi,field.rssi_fp
1733129523609299006,1733129523608952283,12,0.34,-0.87,0.5,4.496488666666667,-79.09,-80.76
1733129523709424890,1733129523709065675,12,0.34,-0.87,0.5,4.502742666666666,-79.43,-81.04
1733129523809238123,1733129523808945178,12,0.34,-0.87,0.5,4.4964889999999995,-78.6,-80.4
1733129523909444459,1733129523909141063,12,0.34,-0.87,0.5,4.490235333333334,-78.93,-80.99
1733129524009165955,1733129524008804798,12,0.34,-0.87,0.5,4.477727666666667,-78.79,-80.47
1733129524107921956,1733129524107636213,12,0.34,-0.87,0.5,4.471473666666667,-78.82,-80.44
1733129524209030914,1733129524208811044,12,0.34,-0.87,0.5,4.490235,-78.78,-80.44
1733129524308960341,1733129524308708667,12,0.34,-0.87,0.5,4.502742666666666,-78.74,-80.53
1733129524409917884,1733129524409703969,12,0.34,-0.87,0.5,4.502742666666666,-78.68,-80.51
1733129524510007013,1733129524509778022,12,0.34,-0.87,0.5,4.508996666666666,-78.9,-80.55
1733129524610664053,1733129524609862327,12,0.34,-0.87,0.5,4.502742666666666,-78.75,-80.49
1733129524709664304,1733129524709551572,12,0.34,-0.87,0.5,4.490234999999999,-78.83,-80.52
1733129524810134164,1733129524809815883,12,0.34,-0.87,0.5,4.477727333333333,-78.99,-81.04
1733129524909848550,1733129524909632682,12,0.34,-0.87,0.5,4.471473666666667,-79.12,-81.02
1733129525009042368,1733129525008873462,12,0.34,-0.87,0.5,4.471473666666667,-79.13,-80.97
1733129525109171640,1733129525108887434,12,0.34,-0.87,0.5,4.490235,-78.98,-80.88
1733129525209001274,1733129525208750247,12,0.34,-0.87,0.5,4.502742666666666,-79.08,-81.01
1733129525609120299,1733129525608777523,12,0.34,-0.87,0.5,4.4964889999999995,-79.01,-80.84
1733129525709266222,1733129525708937406,12,0.34,-0.87,0.5,4.490235333333334,-78.73,-80.52
1733129525808976010,1733129525808775901,12,0.34,-0.87,0.5,4.483981333333333,-78.97,-80.92
1733129525909092212,1733129525908887147,12,0.34,-0.87,0.5,4.471473666666667,-78.87,-80.77
1733129526009141710,1733129526008854866,12,0.34,-0.87,0.5,4.471473666666667,-78.71,-80.6
1733129526108049293,1733129526107634782,12,0.34,-0.87,0.5,4.490235333333334,-78.72,-80.52
1733129526207918464,1733129526207616806,12,0.34,-0.87,0.5,4.502743,-78.88,-80.79
1733129526307965998,1733129526307627201,12,0.34,-0.87,0.5,4.515250666666667,-78.76,-80.7
1733129526407867690,1733129526407611608,12,0.34,-0.87,0.5,4.502743,-78.9,-80.61
1733129526508061502,1733129526507617950,12,0.34,-0.87,0.5,4.483981333333333,-79.03,-80.98
1733129526608087755,1733129526607618570,12,0.34,-0.87,0.5,4.490234999999999,-78.7,-80.49
1733129526711027803,1733129526710895299,12,0.34,-0.87,0.5,4.471473333333333,-78.71,-80.47
1733129526811044142,1733129526810828685,12,0.34,-0.87,0.5,4.496488666666667,-78.84,-80.52
1733129526910792414,1733129526910574197,12,0.34,-0.87,0.5,4.490234999999999,-78.83,-80.74
1733129527010771777,1733129527010630846,12,0.34,-0.87,0.5,4.4964889999999995,-78.9,-80.48
1733129527110622312,1733129527110440731,12,0.34,-0.87,0.5,4.477727666666667,-78.99,-80.77
1733129527210701520,1733129527210476398,12,0.34,-0.87,0.5,4.471473666666667,-79.17,-81.01
1733129527310868263,1733129527310735702,12,0.34,-0.87,0.5,4.477727333333333,-78.7,-80.46
1733129527409874300,1733129527409738063,12,0.34,-0.87,0.5,4.477727333333333,-78.82,-80.53
1733129527510752506,1733129527510586738,12,0.34,-0.87,0.5,4.483981333333333,-78.96,-80.92
1733129527610560551,1733129527610445261,12,0.34,-0.87,0.5,4.496489,-78.97,-80.77
1733129527710812520,1733129527710547447,12,0.34,-0.87,0.5,4.502742666666666,-78.71,-80.36
1733129527811234458,1733129527811041831,12,0.34,-0.87,0.5,4.490235,-79.18,-80.95
1733129527910295244,1733129527910117149,12,0.34,-0.87,0.5,4.483981333333333,-79.01,-80.56
1733129528010971955,1733129528010758161,12,0.34,-0.87,0.5,4.496489,-79.25,-80.93
1733129528110412897,1733129528110306024,12,0.34,-0.87,0.5,4.490234999999999,-79.53,-80.96
1733129528208081420,1733129528207617282,12,0.34,-0.87,0.5,4.483981,-78.82,-80.47
1733129528307860791,1733129528307635545,12,0.34,-0.87,0.5,4.477727333333333,-78.71,-80.55
1733129528408088256,1733129528407650470,12,0.34,-0.87,0.5,4.490234999999999,-79.14,-80.81
1733129528508251198,1733129528507653713,12,0.34,-0.87,0.5,4.490234999999999,-79.32,-80.85
1733129528608070183,1733129528607616662,12,0.34,-0.87,0.5,4.452712,-79.03,-80.87
1733129528708220969,1733129528707662105,12,0.34,-0.87,0.5,4.446458333333333,-78.63,-80.43
1733129528807903299,1733129528807609558,12,0.34,-0.87,0.5,4.452712333333333,-78.85,-80.77
1733129528908310351,1733129528907625913,12,0.34,-0.87,0.5,4.490235333333334,-79.03,-80.48
1733129529011424137,1733129529011117458,12,0.34,-0.87,0.5,4.515250666666667,-78.69,-80.59
1733129529111497294,1733129529111246585,12,0.34,-0.87,0.5,4.502743,-78.92,-80.77
1733129529211262923,1733129529210938930,12,0.34,-0.87,0.5,4.502743,-78.67,-80.83
1733129529311135712,1733129529310872554,12,0.34,-0.87,0.5,4.471473666666667,-79.3,-81.15
1733129529411001594,1733129529410341024,12,0.34,-0.87,0.5,4.490234999999999,-78.83,-80.63
1733129529511321123,1733129529511182308,12,0.34,-0.87,0.5,4.477727333333333,-78.93,-80.87
1733129529610122000,1733129529609932899,12,0.34,-0.87,0.5,4.496489,-78.76,-80.55
1733129529709995491,1733129529709854602,12,0.34,-0.87,0.5,4.477727666666667,-79.31,-81.13
1733129529809886602,1733129529809761762,12,0.34,-0.87,0.5,4.483981333333333,-78.85,-80.53
1733129529909816985,1733129529909611463,12,0.34,-0.87,0.5,4.477727333333333,-79.16,-81.19
1733129530010596973,1733129530009932041,12,0.34,-0.87,0.5,4.477727333333333,-78.94,-80.69
1733129530108047573,1733129530107620954,12,0.34,-0.87,0.5,4.477727333333333,-79.01,-80.68
1733129530208036952,1733129530207632541,12,0.34,-0.87,0.5,4.483981333333333,-78.84,-80.41
1733129530307919450,1733129530307602405,12,0.34,-0.87,0.5,4.490234999999999,-79.29,-81.18
1733129530410730990,1733129530410520553,12,0.34,-0.87,0.5,4.490234999999999,-78.92,-80.8
1733129530511166990,1733129530510900735,12,0.34,-0.87,0.5,4.483981,-78.73,-80.51
1733129530608036876,1733129530607618570,12,0.34,-0.87,0.5,4.502742666666666,-79.1,-80.45
1733129530708067117,1733129530707625150,12,0.34,-0.87,0.5,4.521504333333333,-79.1,-80.85
1733129530807794862,1733129530807616472,12,0.34,-0.87,0.5,4.527758333333334,-78.97,-80.78
1733129530908066111,1733129530907602787,12,0.34,-0.87,0.5,4.5089966666666665,-78.98,-80.84
1733129531007834030,1733129531007622241,12,0.34,-0.87,0.5,4.490234999999999,-78.83,-80.53
1733129531109284093,1733129531108989477,12,0.34,-0.87,0.5,4.483981,-78.82,-80.48
1733129531308093574,1733129531307604789,12,0.34,-0.87,0.5,4.477727333333333,-78.78,-80.49
1733129531408575147,1733129531407719373,12,0.34,-0.87,0.5,4.477727333333333,-78.79,-80.44
1733129531509196565,1733129531508850574,12,0.34,-0.87,0.5,4.483981333333333,-79.03,-80.78
1733129531609180330,1733129531608892440,12,0.34,-0.87,0.5,4.483981333333333,-78.75,-80.43
1733129531709298963,1733129531709008455,12,0.34,-0.87,0.5,4.477727666666667,-78.93,-80.63
1733129531807968086,1733129531807617902,12,0.34,-0.87,0.5,4.471473666666667,-78.86,-80.62
1733129531909770646,1733129531909525156,12,0.34,-0.87,0.5,4.471473666666667,-79.17,-80.94
1733129532009908286,1733129532009624481,12,0.34,-0.87,0.5,4.483981333333333,-78.86,-80.47
1733129532109684916,1733129532109549760,12,0.34,-0.87,0.5,4.483981333333333,-78.9,-80.44
1733129532210017524,1733129532209763765,12,0.34,-0.87,0.5,4.477727333333333,-79.01,-80.66
1733129532310109071,1733129532309792518,12,0.34,-0.87,0.5,4.483981,-79.11,-80.5
1733129532410965164,1733129532410672187,12,0.34,-0.87,0.5,4.477727333333333,-78.74,-80.42
1733129532510125436,1733129532509840726,12,0.34,-0.87,0.5,4.496489,-79.03,-80.68
1733129532609906582,1733129532609707117,12,0.34,-0.87,0.5,4.483981333333333,-78.84,-80.5
1733129532709832183,1733129532709661006,12,0.34,-0.87,0.5,4.483981333333333,-78.87,-80.49
1733129532809882254,1733129532809731483,12,0.34,-0.87,0.5,4.458966,-78.77,-80.42
1733129532909842921,1733129532909712791,12,0.34,-0.87,0.5,4.433951,-79.15,-80.93
1733129533009955030,1733129533009709358,12,0.34,-0.87,0.5,4.415189666666667,-78.92,-80.39
1733129533109632127,1733129533109533786,12,0.34,-0.87,0.5,4.4026819999999995,-78.8,-80.48
1733129533210449634,1733129533210211277,12,0.34,-0.87,0.5,4.371412666666666,-78.93,-80.49
1733129533309843752,1733129533309668064,12,0.34,-0.87,0.5,4.365158666666667,-79.08,-80.81
1733129533409826566,1733129533409710645,12,0.34,-0.87,0.5,4.352651,-78.99,-80.58
1733129533510647413,1733129533510425567,12,0.34,-0.87,0.5,4.346397333333333,-78.83,-80.56
1733129533607985247,1733129533607615709,12,0.34,-0.87,0.5,4.315128333333333,-79.01,-80.83
1733129533708046771,1733129533707640886,12,0.34,-0.87,0.5,4.290113333333333,-78.94,-80.8
1733129533908951384,1733129533908857345,12,0.34,-0.87,0.5,4.246336666666666,-78.85,-80.69
1733129534010508330,1733129534010263919,12,0.34,-0.87,0.5,4.190052333333333,-78.84,-80.65
1733129534109725983,1733129534109548091,12,0.34,-0.87,0.5,4.133768,-79.07,-81.05
1733129534210476567,1733129534210357189,12,0.34,-0.87,0.5,4.096245,-78.87,-80.72
1733129534309910614,1733129534309595108,12,0.34,-0.87,0.5,4.064976000000001,-78.93,-80.89
1733129534408902287,1733129534408738374,12,0.34,-0.87,0.5,4.0086916666666665,-79.05,-80.57
1733129534511150518,1733129534510865449,12,0.34,-0.87,0.5,3.9711689999999997,-79.1,-81.43
1733129534610634468,1733129534610536336,12,0.34,-0.87,0.5,3.914884666666667,-78.81,-81.25
1733129534710517348,1733129534710298299,12,0.34,-0.87,0.5,3.883615666666667,-79.33,-80.55
1733129534810883065,1733129534810344457,12,0.34,-0.87,0.5,3.839839,-78.82,-80.77
1733129534911222085,1733129534910367250,12,0.34,-0.87,0.5,3.814823666666667,-79.28,-80.68
1733129535011174888,1733129535010875940,12,0.34,-0.87,0.5,3.7773006666666666,-79.13,-80.6
1733129535110702582,1733129535110584735,12,0.34,-0.87,0.5,3.7460316666666666,-79.37,-80.91
1733129535210784755,1733129535210696220,12,0.34,-0.87,0.5,3.7147626666666667,-79.14,-80.73
1733129535310539312,1733129535310299396,12,0.34,-0.87,0.5,3.683493666666667,-78.93,-80.84
1733129535410409612,1733129535410283565,12,0.34,-0.87,0.5,3.645970666666667,-79.16,-81.0
1733129535512080153,1733129535511560201,12,0.34,-0.87,0.5,3.6209553333333333,-79.43,-81.06
1733129535610917311,1733129535610596418,12,0.34,-0.87,0.5,3.6021939999999995,-79.07,-80.44
1733129535710728528,1733129535710500717,12,0.34,-0.87,0.5,3.5896863333333333,-78.94,-80.49
1733129535810538526,1733129535810421705,12,0.34,-0.87,0.5,3.5584173333333333,-79.01,-80.66
1733129535910655232,1733129535910363197,12,0.34,-0.87,0.5,3.5396556666666665,-79.13,-81.04
1733129536011068311,1733129536010890722,12,0.34,-0.87,0.5,3.502133,-78.74,-80.54
1733129536110787088,1733129536110515356,12,0.34,-0.87,0.5,3.4958793333333333,-78.76,-80.41
1733129536210392495,1733129536210247278,12,0.34,-0.87,0.5,3.4708643333333336,-78.91,-80.68
1733129536709774668,1733129536709675788,12,0.34,-0.87,0.5,3.5083866666666665,-78.83,-80.57
1733129536809245581,1733129536808998107,12,0.34,-0.87,0.5,3.5146406666666667,-78.92,-80.64
1733129536908055285,1733129536907642841,12,0.34,-0.87,0.5,3.5146406666666667,-78.81,-80.48
1733129537007973956,1733129537007639884,12,0.34,-0.87,0.5,3.5083866666666665,-79.11,-81.04
1733129537109287972,1733129537108993768,12,0.34,-0.87,0.5,3.533402,-79.03,-80.67
1733129537209258826,1733129537208997964,12,0.34,-0.87,0.5,3.564671333333333,-78.91,-80.88
1733129537309357061,1733129537309018850,12,0.34,-0.87,0.5,3.595940333333333,-78.95,-80.59
1733129537408949891,1733129537408719062,12,0.34,-0.87,0.5,3.627209333333333,-78.75,-80.72
1733129537509741622,1733129537509503126,12,0.34,-0.87,0.5,3.645970666666667,-78.85,-80.8
1733129537608016306,1733129537607619285,12,0.34,-0.87,0.5,3.6709860000000005,-78.34,-80.79
1733129537708042687,1733129537707599878,12,0.34,-0.87,0.5,3.6960010000000003,-78.81,-80.58
1733129537809433476,1733129537809023857,12,0.34,-0.87,0.5,3.7460313333333333,-79.19,-80.58
1733129537910441709,1733129537910193681,12,0.34,-0.87,0.5,3.8023156666666664,-78.76,-81.59
1733129538009005894,1733129538008733034,12,0.34,-0.87,0.5,3.833585,-79.08,-81.14
1733129538108211876,1733129538107625961,12,0.34,-0.87,0.5,3.896123333333333,-78.87,-80.62
1733129538210041505,1733129538209910154,12,0.34,-0.87,0.5,3.9398999999999997,-79.51,-80.85
1733129538309200037,1733129538308886289,12,0.34,-0.87,0.5,4.0086916666666665,-78.78,-80.44
1733129538408046183,1733129538407600164,12,0.34,-0.87,0.5,4.058722,-79.09,-80.98
1733129538508225789,1733129538507616043,12,0.34,-0.87,0.5,4.127514,-78.39,-80.5
1733129538608014914,1733129538607600688,12,0.34,-0.87,0.5,4.183798333333333,-79.25,-80.82
1733129538708025765,1733129538707623720,12,0.34,-0.87,0.5,4.271351666666667,-78.99,-80.56
1733129538807970572,1733129538807532072,12,0.34,-0.87,0.5,4.340143666666666,-79.1,-80.48
1733129538908809925,1733129538907620906,12,0.34,-0.87,0.5,4.4339509999999995,-78.86,-80.77
1733129539007994649,1733129539007610321,12,0.34,-0.87,0.5,4.502743,-79.17,-80.5
1733129539108204348,1733129539107639312,12,0.34,-0.87,0.5,4.5840423333333336,-79.17,-80.66
1733129539208285597,1733129539207630634,12,0.34,-0.87,0.5,4.7216260000000005,-79.51,-81.2
1733129539307955508,1733129539307660341,12,0.34,-0.87,0.5,4.802925666666667,-79.12,-80.71
1733129539408064298,1733129539407642364,12,0.34,-0.87,0.5,4.921748,-79.44,-80.78
1733129539508186234,1733129539507619142,12,0.34,-0.87,0.5,5.003047333333334,-79.04,-80.46
1733129539608151136,1733129539607608318,12,0.34,-0.87,0.5,5.090600333333334,-79.35,-81.1
1733129539707988725,1733129539707644701,12,0.34,-0.87,0.5,5.203169,-79.11,-80.71
1733129539808096816,1733129539807612419,12,0.34,-0.87,0.5,5.296976333333333,-79.14,-80.48
1733129539908005184,1733129539907615661,12,0.34,-0.87,0.5,5.422052666666666,-79.16,-80.48
1733129540008101204,1733129540007625579,12,0.34,-0.87,0.5,5.515859666666667,-79.46,-80.79
1733129540107909004,1733129540107619047,12,0.34,-0.87,0.5,5.615920333333334,-79.18,-80.42
1733129540208031813,1733129540207625150,12,0.34,-0.87,0.5,5.722235,-79.08,-80.75
1733129540307918789,1733129540307615280,12,0.34,-0.87,0.5,5.834803666666667,-78.75,-80.56
1733129540407983541,1733129540407624244,12,0.34,-0.87,0.5,5.953626333333333,-79.08,-80.43
1733129540508000897,1733129540507615804,12,0.34,-0.87,0.5,6.053687333333333,-79.44,-81.04
1733129540607965836,1733129540607626438,12,0.34,-0.87,0.5,6.160002000000001,-79.72,-80.94
1733129540708026605,1733129540707638263,12,0.34,-0.87,0.5,6.266316666666667,-80.01,-81.85
1733129540808048194,1733129540807657957,12,0.34,-0.87,0.5,6.360124,-79.71,-80.61
1733129540907897435,1733129540907621383,12,0.34,-0.87,0.5,6.472692666666667,-79.43,-80.86
1733129541007988130,1733129541007637500,12,0.34,-0.87,0.5,6.5977689999999996,-79.94,-81.19
1733129541107908866,1733129541107625961,12,0.34,-0.87,0.5,6.747860333333333,-79.22,-80.81
1733129541207890983,1733129541207624197,12,0.34,-0.87,0.5,6.860429,-79.2,-80.93
1733129541308003135,1733129541307629108,12,0.34,-0.87,0.5,6.979251333333333,-79.27,-80.77
1733129541408817628,1733129541408729076,12,0.34,-0.87,0.5,7.079312000000001,-79.09,-80.79
1733129541510314972,1733129541509978532,12,0.34,-0.87,0.5,7.204388000000001,-79.12,-80.66
1733129541609790116,1733129541609496355,12,0.34,-0.87,0.5,7.316956333333333,-78.99,-80.44
1733129541710310624,1733129541710129737,12,0.34,-0.87,0.5,7.448286666666667,-79.03,-80.43
1733129541810519961,1733129541810378551,12,0.34,-0.87,0.5,7.548347666666667,-79.27,-80.47
1733129541910489395,1733129541910173892,12,0.34,-0.87,0.5,7.6546623333333335,-79.0,-80.53
1733129542009757191,1733129542009507656,12,0.34,-0.87,0.5,7.748469333333333,-79.33,-80.95
1733129542108000056,1733129542107669353,12,0.34,-0.87,0.5,7.861038000000001,-79.03,-80.65
1733129542207994833,1733129542207632780,12,0.34,-0.87,0.5,7.973606666666666,-79.04,-80.59
1733129542308102787,1733129542307718038,12,0.34,-0.87,0.5,8.092429333333333,-79.06,-80.94
1733129542408152826,1733129542407650470,12,0.34,-0.87,0.5,8.236267,-79.85,-80.94
1733129542508210590,1733129542507681608,12,0.34,-0.87,0.5,8.367597333333334,-79.32,-80.56
1733129542608047896,1733129542607648611,12,0.34,-0.87,0.5,8.511435,-79.31,-81.14
1733129542709763025,1733129542709647893,12,0.34,-0.87,0.5,8.630257333333333,-79.21,-81.53
1733129542807972842,1733129542807627201,12,0.34,-0.87,0.5,8.767841,-79.79,-80.55
1733129543808058751,1733129543807626485,12,0.34,-0.87,0.5,9.974826,-80.25,-81.67
1733129543908081578,1733129543907630681,12,0.34,-0.87,0.5,10.124917666666667,-80.18,-81.51
1733129544010623392,1733129544010419607,12,0.34,-0.87,0.5,10.275008999999999,-79.93,-81.22
1733129544112465407,1733129544112154722,12,0.34,-0.87,0.5,10.393831333333333,-80.03,-81.11
1733129544208060922,1733129544207635164,12,0.34,-0.87,0.5,10.500145999999999,-80.48,-81.13
1733129544310485546,1733129544310305595,12,0.34,-0.87,0.5,10.612714666666667,-81.83,-81.97
1733129544410767951,1733129544410553455,12,0.34,-0.87,0.5,10.744044666666667,-80.4,-81.28
1733129544513142612,1733129544512437820,12,0.34,-0.87,0.5,10.881628333333332,-80.54,-81.78
1733129544641888951,1733129544641700506,12,0.34,-0.87,0.5,10.994196666666666,-80.02,-81.09
1733129544710499402,1733129544710221767,12,0.34,-0.87,0.5,11.08175,-79.83,-80.79
1733129544809203890,1733129544808788537,12,0.34,-0.87,0.5,11.175557333333336,-79.71,-80.84
1733129544909005484,1733129544908742904,12,0.34,-0.87,0.5,11.313141333333334,-79.69,-80.91
1733129545009109844,1733129545008885622,12,0.34,-0.87,0.5,11.438217666666667,-79.34,-80.52
1733129545109740221,1733129545109145164,12,0.34,-0.87,0.5,11.563294,-79.73,-80.8
1733129545210585128,1733129545210425138,12,0.34,-0.87,0.5,11.675862333333335,-79.55,-80.83
1733129545410341929,1733129545410140514,12,0.34,-0.87,0.5,11.869730333333331,-79.7,-80.55
1733129545510257798,1733129545510122776,12,0.34,-0.87,0.5,12.051090333333335,-79.83,-80.51
1733129545610869452,1733129545610659599,12,0.34,-0.87,0.5,12.213689666666667,-79.83,-80.98
1733129545710621121,1733129545710342168,12,0.34,-0.87,0.5,12.31375066666667,-80.04,-81.04
1733129545810495816,1733129545810272216,12,0.34,-0.87,0.5,12.438826999999998,-80.23,-80.8
1733129545910431904,1733129545910233259,12,0.34,-0.87,0.5,12.588918,-80.49,-81.08
1733129546010077827,1733129546009951114,12,0.34,-0.87,0.5,12.713994,-80.01,-80.43
1733129546110086484,1733129546109889030,12,0.34,-0.87,0.5,12.839070333333334,-80.56,-81.06
1733129546210185250,1733129546209959268,12,0.34,-0.87,0.5,12.957893,-79.92,-80.94
1733129546309904750,1733129546309668540,12,0.34,-0.87,0.5,13.082969333333333,-79.72,-80.46
1733129546410329382,1733129546409990549,12,0.34,-0.87,0.5,13.214299333333335,-80.64,-80.93
1733129546510086272,1733129546509771347,12,0.34,-0.87,0.5,13.326867666666667,-79.7,-80.52
1733129546609635558,1733129546609419345,12,0.34,-0.87,0.5,13.458197666666669,-80.32,-80.74
1733129546710045541,1733129546709692001,12,0.34,-0.87,0.5,13.570765999999999,-79.66,-80.78
1733129546809702017,1733129546809484004,12,0.34,-0.87,0.5,13.702096333333335,-79.99,-81.18
1733129546909239967,1733129546908905982,12,0.34,-0.87,0.5,13.839680333333334,-79.95,-80.49
1733129547009204992,1733129547008866071,12,0.34,-0.87,0.5,13.958502666666668,-80.13,-80.64
1733129547109099144,1733129547108870744,12,0.34,-0.87,0.5,14.096086333333334,-80.47,-81.04
1733129547210089151,1733129547209864854,12,0.34,-0.87,0.5,14.202401,-80.04,-81.17
1733129547309718891,1733129547309576749,12,0.34,-0.87,0.5,14.333731333333333,-79.83,-81.0
1733129547409968707,1733129547409548044,12,0.34,-0.87,0.5,14.440046,-80.14,-80.88
1733129547510149786,1733129547509976387,12,0.34,-0.87,0.5,14.577629666666667,-80.26,-80.81
1733129547609096230,1733129547608909606,12,0.34,-0.87,0.5,14.715213333333333,-79.95,-80.48
1733129547709181930,1733129547708833456,12,0.34,-0.87,0.5,14.846543333333335,-80.08,-80.93
1733129547809071530,1733129547808779716,12,0.34,-0.87,0.5,14.977873333333333,-80.33,-81.14
1733129547909035873,1733129547908812284,12,0.34,-0.87,0.5,15.115457,-80.25,-80.77
1733129548009133797,1733129548008876323,12,0.34,-0.87,0.5,15.246787,-80.63,-81.4
1733129548108977921,1733129548108835935,12,0.34,-0.87,0.5,15.371863,-80.33,-80.95
1733129548209142892,1733129548208950996,12,0.34,-0.87,0.5,15.490685666666666,-80.37,-81.15
1733129548309118953,1733129548308839797,12,0.34,-0.87,0.5,15.634523333333334,-81.02,-81.47
1733129548409028763,1733129548408813714,12,0.34,-0.87,0.5,15.778360999999999,-81.18,-81.67
1733129548508995696,1733129548508748531,12,0.34,-0.87,0.5,15.934706,-80.97,-82.81
1733129548608076820,1733129548607628107,12,0.34,-0.87,0.5,16.066035333333332,-81.85,-82.07
1733129548709013586,1733129548708804130,12,0.34,-0.87,0.5,16.197365,-81.45,-83.32
1733129548808972748,1733129548808762788,12,0.34,-0.87,0.5,16.322441333333334,-82.33,-82.76
1733129548909219552,1733129548908875226,12,0.34,-0.87,0.5,16.466279,-82.72,-83.18
1733129549008934728,1733129549008843421,12,0.34,-0.87,0.5,16.591355333333336,-83.03,-83.6
1733129549109714352,1733129549109407186,12,0.34,-0.87,0.5,16.716430999999996,-82.53,-84.81
1733129549210082089,1733129549209866046,12,0.34,-0.87,0.5,16.835253666666663,-83.24,-83.57
1733129549309075604,1733129549308870553,12,0.34,-0.87,0.5,16.972837666666667,-83.38,-85.57
1733129549409101076,1733129549408836364,12,0.34,-0.87,0.5,17.091660333333333,-83.96,-85.15
1733129549509110102,1733129549508764743,12,0.34,-0.87,0.5,17.35432,-86.87,-88.25
1733129549639247172,1733129549638949632,12,0.34,-0.87,0.5,17.498157666666668,-85.91,-87.8
1733129549709208079,1733129549708954334,12,0.34,-0.87,0.5,17.610726333333332,-87.28,-90.01
1733129549809038371,1733129549808778047,12,0.34,-0.87,0.5,17.69828,-87.23,-91.14
1733129549908975244,1733129549908776998,12,0.34,-0.87,0.5,17.760818,-88.44,-94.17
1733129550009348071,1733129550008868694,12,0.34,-0.87,0.5,17.848371,-89.23,-95.72
1733129550107799251,1733129550107612848,12,0.34,-0.87,0.5,17.954685333333334,-93.24,-100.67
1733129550208395816,1733129550207642316,12,0.34,-0.87,0.5,18.035985,-88.8,-98.79
1733129550308116950,1733129550307628393,12,0.34,-0.87,0.5,18.148554,-89.34,-98.92
1733129550408171729,1733129550407634258,12,0.34,-0.87,0.5,18.254869,-88.66,-94.14
1733129550507790466,1733129550507600784,12,0.34,-0.87,0.5,18.46749833333333,-87.34,-91.34
1733129551009123070,1733129551008802413,12,0.34,-0.87,0.5,19.324270333333335,-85.81,-87.14
1733129551110223146,1733129551109965085,12,0.34,-0.87,0.5,19.486869000000002,-85.83,-86.72
1733129551209976566,1733129551209796190,12,0.34,-0.87,0.5,19.593183333333332,-85.03,-85.46
1733129551308909059,1733129551308610916,12,0.34,-0.87,0.5,19.705752,-84.38,-85.35
1733129551409134898,1733129551408858299,12,0.34,-0.87,0.5,19.812067000000003,-84.0,-84.56
1733129551511113334,1733129551510760784,12,0.34,-0.87,0.5,19.918381999999998,-84.2,-84.79
1733129551610858861,1733129551610603332,12,0.34,-0.87,0.5,20.049711666666663,-83.65,-84.14
1733129551710833319,1733129551710561752,12,0.34,-0.87,0.5,20.18729533333333,-83.93,-83.81
1733129551810639585,1733129551810352802,12,0.34,-0.87,0.5,20.32487933333333,-84.05,-84.8
1733129551910597901,1733129551910353899,12,0.34,-0.87,0.5,20.443701666666666,-83.4,-84.51
1733129552010860365,1733129552010598421,12,0.34,-0.87,0.5,20.55627,-83.42,-83.41
1733129552110648207,1733129552110524654,12,0.34,-0.87,0.5,20.6876,-82.93,-84.7
1733129552211071266,1733129552210867166,12,0.34,-0.87,0.5,20.812676333333332,-83.38,-83.18
1733129552310814686,1733129552310307264,12,0.34,-0.87,0.5,20.937752666666665,-83.3,-83.12
1733129552408007589,1733129552407630681,12,0.34,-0.87,0.5,21.044067000000002,-82.4,-82.29
1733129552508075195,1733129552507619380,12,0.34,-0.87,0.5,21.187904333333336,-82.58,-83.66
1733129552608442646,1733129552607643604,12,0.34,-0.87,0.5,21.306726333333334,-82.49,-82.55
1733129552708096770,1733129552707673311,12,0.34,-0.87,0.5,21.438056666666665,-82.44,-82.92
1733129552808041716,1733129552807613849,12,0.34,-0.87,0.5,21.550625333333333,-82.17,-82.37
1733129552907804077,1733129552907640218,12,0.34,-0.87,0.5,21.681956,-82.21,-82.14
1733129553008073568,1733129553007670879,12,0.34,-0.87,0.5,21.807031666666663,-81.66,-81.8
1733129553108140904,1733129553107635736,12,0.34,-0.87,0.5,21.91960033333333,-81.83,-81.72
1733129553210008770,1733129553209803104,12,0.34,-0.87,0.5,22.044676666666664,-81.95,-82.34
1733129553309812313,1733129553309666395,12,0.34,-0.87,0.5,22.157245333333332,-81.82,-82.26
1733129553410198547,1733129553409967184,12,0.34,-0.87,0.5,22.307337,-81.96,-81.63
1733129553509199866,1733129553508857965,12,0.34,-0.87,0.5,22.451173999999998,-81.6,-81.45
1733129553609962570,1733129553609890699,12,0.34,-0.87,0.5,22.576250333333334,-82.15,-82.02
1733129553710050727,1733129553709802389,12,0.34,-0.87,0.5,22.682564666666668,-81.42,-81.93
1733129553809836578,1733129553809490442,12,0.34,-0.87,0.5,22.813895,-82.75,-84.0
1733129553909879142,1733129553909628629,12,0.34,-0.87,0.5,22.95773266666667,-82.04,-81.93
1733129554009777801,1733129554009629249,12,0.34,-0.87,0.5,23.10157033333333,-81.65,-81.52
1733129554109701795,1733129554109506368,12,0.34,-0.87,0.5,23.20788466666667,-81.31,-81.26
1733129554209890637,1733129554209732294,12,0.34,-0.87,0.5,23.314199666666667,-81.81,-81.76
1733129554309817624,1733129554309685707,12,0.34,-0.87,0.5,23.43302233333333,-81.8,-81.63
1733129554409987297,1733129554409853219,12,0.34,-0.87,0.5,23.564352999999997,-81.22,-81.45
1733129554509898454,1733129554509713888,12,0.34,-0.87,0.5,23.714444,-81.92,-82.72
1733129554640269601,1733129554640013933,12,0.34,-0.87,0.5,23.820758333333334,-81.14,-81.61
1733129554709197543,1733129554708913326,12,0.34,-0.87,0.5,23.920818999999998,-81.31,-82.26
1733129554809042698,1733129554808786392,12,0.34,-0.87,0.5,24.045895333333334,-81.51,-82.66
1733129554909355674,1733129554908938646,12,0.34,-0.87,0.5,24.189733,-81.68,-81.62
1733129555009950775,1733129555009878873,12,0.34,-0.87,0.5,24.327316333333332,-81.33,-81.47
1733129555110008764,1733129555109834194,12,0.34,-0.87,0.5,24.446139000000002,-81.32,-81.49
1733129555210135967,1733129555209888935,12,0.34,-0.87,0.5,24.57121533333333,-81.22,-81.44
1733129555309070332,1733129555308796644,12,0.34,-0.87,0.5,24.708799333333335,-80.95,-81.22
1733129555409066525,1733129555408874273,12,0.34,-0.87,0.5,24.846383000000003,-81.5,-83.04
1733129555509130470,1733129555508789300,12,0.34,-0.87,0.5,24.97771333333333,-81.42,-81.53
1733129555609480267,1733129555609048366,12,0.34,-0.87,0.5,25.115297666666663,-81.18,-81.18
1733129555709792638,1733129555709010601,12,0.34,-0.87,0.5,25.252881666666667,-82.1,-81.88
1733129555808991945,1733129555808797597,12,0.34,-0.87,0.5,25.371704000000005,-81.29,-81.62
1733129555910626881,1733129555910398483,12,0.34,-0.87,0.5,25.496779666666665,-81.28,-81.13
1733129556108040466,1733129556107624530,12,0.34,-0.87,0.5,25.653125,-81.4,-81.46
1733129556207997800,1733129556207654714,12,0.34,-0.87,0.5,25.84073933333333,-82.54,-82.93
1733129556308198288,1733129556307621002,12,0.34,-0.87,0.5,26.015846,-81.33,-81.31
1733129556407949206,1733129556407622814,12,0.34,-0.87,0.5,26.172190666666665,-81.92,-81.53
1733129556508099572,1733129556507636070,12,0.34,-0.87,0.5,26.29101266666667,-81.43,-81.26
1733129556608151095,1733129556607640743,12,0.34,-0.87,0.5,26.428596666666664,-81.48,-81.78
1733129556709843558,1733129556709649562,12,0.34,-0.87,0.5,26.547419333333334,-81.17,-82.47
1733129556809981444,1733129556809730529,12,0.34,-0.87,0.5,26.703764666666668,-81.41,-81.22
1733129556909854669,1733129556909564256,12,0.34,-0.87,0.5,26.84760233333333,-81.35,-82.82
1733129557009776671,1733129557009575366,12,0.34,-0.87,0.5,26.966424333333332,-81.98,-82.19
1733129557110167780,1733129557109999656,12,0.34,-0.87,0.5,27.09775433333333,-81.16,-81.04
1733129557209419793,1733129557209230184,12,0.34,-0.87,0.5,27.216576333333336,-81.09,-81.37
1733129557309153944,1733129557308857917,12,0.34,-0.87,0.5,27.347906333333338,-81.56,-81.37
1733129557410940624,1733129557410736560,12,0.34,-0.87,0.5,27.447967000000002,-81.44,-81.77
1733129558007951208,1733129558007622003,12,0.34,-0.87,0.5,28.148393666666667,-81.6,-82.92
1733129558110268223,1733129558109993696,12,0.34,-0.87,0.5,28.310992666666664,-81.74,-81.53
1733129558210162520,1733129558209847927,12,0.34,-0.87,0.5,28.423562000000004,-81.6,-81.99
1733129558310921244,1733129558310778856,12,0.34,-0.87,0.5,28.55489233333333,-82.72,-83.3
1733129558407890167,1733129558407599687,12,0.34,-0.87,0.5,28.69247633333333,-81.44,-81.65
1733129558510300146,1733129558510005712,12,0.34,-0.87,0.5,28.823806333333334,-82.13,-83.08
1733129558607949524,1733129558607672691,12,0.34,-0.87,0.5,28.936374999999998,-81.54,-81.58
1733129558707808333,1733129558707607984,12,0.34,-0.87,0.5,29.067705,-81.64,-82.92
1733129558808256447,1733129558807614564,12,0.34,-0.87,0.5,29.361633333333334,-82.91,-82.49
1733129558907922316,1733129558907613277,12,0.34,-0.87,0.5,29.492963,-81.69,-82.11
1733129559008004594,1733129559007629156,12,0.34,-0.87,0.5,29.611785333333334,-81.82,-81.66
1733129559108113857,1733129559107645511,12,0.34,-0.87,0.5,29.73686166666667,-81.52,-82.67
1733129559208091263,1733129559207646608,12,0.34,-0.87,0.5,29.861938,-81.67,-81.67
1733129559308396240,1733129559307648181,12,0.34,-0.87,0.5,29.98701433333333,-81.42,-81.58
1733129559409225156,1733129559408996582,12,0.34,-0.87,0.5,30.112090666666663,-81.69,-82.3
1733129559509322363,1733129559509060144,12,0.34,-0.87,0.5,30.249674666666667,-81.88,-81.8
1733129559810108822,1733129559809696674,12,0.34,-0.87,0.5,30.449796666666668,-83.38,-84.29
1733129559910959804,1733129559910576820,12,0.34,-0.87,0.5,30.637410666666668,-81.58,-81.86
1733129560010943217,1733129560010188579,12,0.34,-0.87,0.5,30.825025333333333,-81.89,-81.76
1733129560110701007,1733129560110349416,12,0.34,-0.87,0.5,30.950101,-81.63,-82.65
1733129560209721629,1733129560209555149,12,0.34,-0.87,0.5,31.087684999999997,-83.72,-84.24
1733129560310560939,1733129560310402154,12,0.34,-0.87,0.5,31.225268333333332,-82.22,-84.33
1733129560409020588,1733129560408785104,12,0.34,-0.87,0.5,31.356599,-82.37,-82.53
1733129560508878926,1733129560508695125,12,0.34,-0.87,0.5,31.48167533333333,-81.83,-82.84
1733129560609119186,1733129560608865499,12,0.34,-0.87,0.5,31.600497999999998,-81.85,-82.04
1733129560708889185,1733129560708682537,12,0.34,-0.87,0.5,31.725573666666666,-83.03,-83.11
1733129560809023201,1733129560808776140,12,0.34,-0.87,0.5,31.85690333333333,-82.39,-82.54
1733129560909390912,1733129560909050703,12,0.34,-0.87,0.5,31.994486666666663,-81.34,-82.7
1733129561009000419,1733129561008839845,12,0.34,-0.87,0.5,32.125816333333326,-81.36,-82.92
1733129561109161435,1733129561108959913,12,0.34,-0.87,0.5,32.244638333333334,-81.72,-82.23
1733129561209185733,1733129561208795070,12,0.34,-0.87,0.5,32.363461,-82.63,-83.12
1733129561308917904,1733129561308729171,12,0.34,-0.87,0.5,32.494791,-82.35,-82.93
1733129561409151024,1733129561408782482,12,0.34,-0.87,0.5,32.782466666666664,-82.31,-84.06
1733129561510829119,1733129561510628461,12,0.34,-0.87,0.5,32.907543,-82.06,-83.13
1733129561610761306,1733129561610656976,12,0.34,-0.87,0.5,33.02636566666666,-82.98,-83.71
1733129561710350864,1733129561710200309,12,0.34,-0.87,0.5,33.14518833333333,-83.14,-83.34
1733129561810634225,1733129561810428619,12,0.34,-0.87,0.5,33.282773,-82.71,-82.66
1733129561911043799,1733129561910738468,12,0.34,-0.87,0.5,33.414103000000004,-83.11,-83.04
1733129562010681014,1733129562010396480,12,0.34,-0.87,0.5,33.55168633333333,-82.7,-82.7
1733129562109141491,1733129562108779430,12,0.34,-0.87,0.5,33.67050766666667,-82.17,-82.22
1733129562209085885,1733129562208845853,12,0.34,-0.87,0.5,33.78933033333334,-83.1,-82.85
1733129562309052412,1733129562308763504,12,0.34,-0.87,0.5,33.92691366666667,-83.88,-83.69
1733129562408975985,1733129562408874750,12,0.34,-0.87,0.5,34.05824366666666,-82.72,-82.99
1733129562509151646,1733129562508853435,12,0.34,-0.87,0.5,34.20208066666667,-83.92,-84.34
1733129562609314930,1733129562609006643,12,0.34,-0.87,0.5,34.31465,-82.37,-82.6
1733129562708997328,1733129562708739995,12,0.34,-0.87,0.5,34.45223466666667,-83.06,-82.82
1733129562808949427,1733129562808754444,12,0.34,-0.87,0.5,34.583564333333335,-83.62,-83.66
1733129562908839343,1733129562908649206,12,0.34,-0.87,0.5,34.72114766666667,-82.64,-84.6
1733129563008897517,1733129563008640289,12,0.34,-0.87,0.5,34.84622400000001,-82.62,-84.41
1733129563107953351,1733129563107653141,12,0.34,-0.87,0.5,34.965046666666666,-86.53,-86.53
1733129563207886425,1733129563207638025,12,0.34,-0.87,0.5,35.090123,-82.8,-82.58
1733129563308124653,1733129563307670831,12,0.34,-0.87,0.5,35.208944333333335,-83.25,-83.46
1733129563407985115,1733129563407680749,12,0.34,-0.87,0.5,35.346528,-82.71,-82.35
1733129563508171717,1733129563507638216,12,0.34,-0.87,0.5,35.47160433333334,-84.22,-86.04
1733129563607894580,1733129563607667446,12,0.34,-0.87,0.5,35.60918899999999,-83.79,-85.38
1733129563707941196,1733129563707628965,12,0.34,-0.87,0.5,35.72801166666667,-83.89,-84.15
1733129563807854002,1733129563807644844,12,0.34,-0.87,0.5,35.871849999999995,-84.56,-85.58
1733129563908036441,1733129563907707452,12,0.34,-0.87,0.5,36.00318000000001,-84.12,-83.81
1733129564009081414,1733129564008973121,12,0.34,-0.87,0.5,36.134509666666666,-83.47,-83.34
1733129564109751150,1733129564109400272,12,0.34,-0.87,0.5,36.259586,-82.9,-82.6
1733129564208881729,1733129564208774805,12,0.34,-0.87,0.5,36.384662,-83.09,-85.05
1733129564309031105,1733129564308705091,12,0.34,-0.87,0.5,36.515992000000004,-83.76,-83.4
1733129564408146395,1733129564407689571,12,0.34,-0.87,0.5,36.641067,-82.82,-84.15
1733129564508059252,1733129564507651567,12,0.34,-0.87,0.5,36.772397000000005,-84.12,-85.1
1733129564607907030,1733129564607616424,12,0.34,-0.87,0.5,36.891219666666665,-82.75,-83.19
1733129564708016101,1733129564707644224,12,0.34,-0.87,0.5,37.01629566666667,-83.96,-87.0
1733129564808084631,1733129564807609558,12,0.34,-0.87,0.5,37.141372,-82.82,-83.12
1733129564908065804,1733129564907649993,12,0.34,-0.87,0.5,37.285209,-83.82,-84.68
1733129565007931371,1733129565007620334,12,0.34,-0.87,0.5,37.404031999999994,-83.15,-84.43
1733129565111370445,1733129565110908508,12,0.34,-0.87,0.5,37.53536166666667,-84.21,-85.17
1733129565210795976,1733129565210491180,12,0.34,-0.87,0.5,37.660438,-83.73,-83.89
1733129565311260176,1733129565311030864,12,0.34,-0.87,0.5,37.79802133333333,-83.07,-83.31
1733129565609424726,1733129565609157800,12,0.34,-0.87,0.5,38.17950366666667,-82.91,-83.06
1733129565709466856,1733129565709213256,12,0.34,-0.87,0.5,38.38588,-83.84,-83.87
1733129565809892675,1733129565809580802,12,0.34,-0.87,0.5,38.51095633333333,-83.47,-84.56
1733129565909443452,1733129565909194946,12,0.34,-0.87,0.5,38.64228633333334,-83.13,-83.6
1733129566009328908,1733129566008942127,12,0.34,-0.87,0.5,38.77361633333333,-83.52,-83.35
1733129566111914354,1733129566111712932,12,0.34,-0.87,0.5,38.89869266666667,-83.29,-83.32
1733129566211177749,1733129566210960865,12,0.34,-0.87,0.5,39.03002233333333,-83.19,-83.0
1733129566310938420,1733129566310716629,12,0.34,-0.87,0.5,39.161351999999994,-84.05,-84.08
1733129566410635359,1733129566410449981,12,0.34,-0.87,0.5,39.31144266666667,-83.4,-85.54
1733129566511289226,1733129566511008739,12,0.34,-0.87,0.5,39.44902766666667,-84.83,-87.33
1733129566610870280,1733129566610662937,12,0.34,-0.87,0.5,39.56785033333333,-84.19,-83.88
1733129566710875598,1733129566710509538,12,0.34,-0.87,0.5,39.67416600000001,-84.7,-84.43
1733129566810917310,1733129566810658454,12,0.34,-0.87,0.5,39.792987333333336,-84.22,-83.8
1733129566910501542,1733129566910406589,12,0.34,-0.87,0.5,39.91806366666666,-84.51,-84.4
1733129567010758254,1733129567010535717,12,0.34,-0.87,0.5,40.049393333333335,-82.96,-83.05
1733129567110691765,1733129567110500812,12,0.34,-0.87,0.5,40.180723,-83.9,-85.16
1733129567210665519,1733129567210463762,12,0.34,-0.87,0.5,40.31830666666667,-83.59,-84.55
1733129567310589442,1733129567310266256,12,0.34,-0.87,0.5,40.44963666666667,-83.83,-85.3
1733129567410810551,1733129567410576105,12,0.34,-0.87,0.5,40.574713,-83.05,-86.19
1733129567510472043,1733129567510305881,12,0.34,-0.87,0.5,40.70604266666667,-83.61,-83.88
1733129567611637383,1733129567610871076,12,0.34,-0.87,0.5,40.843626,-83.9,-84.7
1733129567710662396,1733129567710409402,12,0.34,-0.87,0.5,40.96870233333333,-83.72,-84.44
1733129567810509979,1733129567810388803,12,0.34,-0.87,0.5,41.093778666666665,-83.71,-84.02
1733129567910633538,1733129567910345077,12,0.34,-0.87,0.5,41.218855,-84.71,-85.48
1733129568010520258,1733129568010238170,12,0.34,-0.87,0.5,41.35643966666667,-83.82,-84.55
1733129568111032307,1733129568110774755,12,0.34,-0.87,0.5,41.494023000000006,-85.62,-85.39
1733129568210719421,1733129568210577011,12,0.34,-0.87,0.5,41.61909933333333,-84.11,-83.79
1733129568310570681,1733129568310402631,12,0.34,-0.87,0.5,41.75042933333334,-85.31,-87.91
1733129568410539985,1733129568410254478,12,0.34,-0.87,0.5,41.88175933333333,-83.54,-83.2
1733129568807831458,1733129568807620525,12,0.34,-0.87,0.5,42.388317666666666,-84.5,-85.75
1733129568907863849,1733129568907636404,12,0.34,-0.87,0.5,42.52590133333333,-85.51,-87.56
1733129569007975624,1733129569007633209,12,0.34,-0.87,0.5,42.65097766666667,-85.55,-85.52
1733129569108043836,1733129569107667922,12,0.34,-0.87,0.5,42.788560999999994,-84.59,-85.54
1733129569210684169,1733129569210411310,12,0.34,-0.87,0.5,42.913637333333334,-84.39,-85.3
1733129569310603267,1733129569310361146,12,0.34,-0.87,0.5,43.04496699999999,-84.51,-85.63
1733129569410531901,1733129569410317659,12,0.34,-0.87,0.5,43.17004333333333,-85.73,-87.63
1733129569511025697,1733129569510797262,12,0.34,-0.87,0.5,43.28261233333333,-84.45,-84.34
1733129569642022617,1733129569641901016,12,0.34,-0.87,0.5,43.41394233333333,-85.63,-86.82
1733129569709738246,1733129569709520816,12,0.34,-0.87,0.5,43.54527233333334,-86.81,-87.71
1733129569809969670,1733129569809656620,12,0.34,-0.87,0.5,43.68285566666666,-85.22,-87.78
1733129569909704875,1733129569909565925,12,0.34,-0.87,0.5,43.81418566666667,-86.98,-86.87
1733129570010498179,1733129570010308265,12,0.34,-0.87,0.5,43.95177033333332,-86.11,-87.19
1733129570111150181,1733129570110986232,12,0.34,-0.87,0.5,44.07684666666666,-85.98,-86.04
1733129570210578136,1733129570210459709,12,0.34,-0.87,0.5,44.195669333333335,-86.22,-86.82
1733129570310572813,1733129570310471057,12,0.34,-0.87,0.5,44.320745666666674,-85.69,-86.89
1733129570410681564,1733129570410432338,12,0.34,-0.87,0.5,44.458329,-86.09,-85.92
1733129570510654064,1733129570510438442,12,0.34,-0.87,0.5,44.58965866666667,-87.56,-87.86
1733129570610492208,1733129570610239267,12,0.34,-0.87,0.5,44.714735,-85.43,-85.07
1733129570707934030,1733129570707623958,12,0.34,-0.87,0.5,44.83981133333333,-86.75,-86.84
1733129570808127775,1733129570807659149,12,0.34,-0.87,0.5,44.96488766666667,-85.61,-86.11
1733129570908087541,1733129570907707929,12,0.34,-0.87,0.5,45.08996266666667,-86.18,-88.07
1733129571008095521,1733129571007706642,12,0.34,-0.87,0.5,45.22129266666666,-85.31,-85.36
1733129571108067087,1733129571107685565,12,0.34,-0.87,0.5,45.35262266666666,-85.34,-85.19
1733129571208053585,1733129571207689046,12,0.34,-0.87,0.5,45.49020733333333,-85.06,-85.3
1733129571307969579,1733129571307610034,12,0.34,-0.87,0.5,45.621537,-85.79,-85.61
1733129571410897136,1733129571410763025,12,0.34,-0.87,0.5,45.734106,-85.79,-86.92
1733129571507929555,1733129571507635593,12,0.34,-0.87,0.5,45.871689333333336,-85.17,-85.31
1733129571610007636,1733129571609797000,12,0.34,-0.87,0.5,46.003019333333334,-85.97,-86.19
1733129571711305677,1733129571711067676,12,0.34,-0.87,0.5,46.15936466666667,-86.01,-86.16
1733129571810703076,1733129571810505867,12,0.34,-0.87,0.5,46.284440999999994,-85.52,-85.36
1733129571909887199,1733129571909742116,12,0.34,-0.87,0.5,46.415771,-85.37,-86.88
1733129572010747997,1733129572010560750,12,0.34,-0.87,0.5,46.54084733333334,-86.4,-86.97
1733129572110074839,1733129572109810113,12,0.34,-0.87,0.5,46.659670000000006,-85.52,-85.68
1733129572208241224,1733129572207724094,12,0.34,-0.87,0.5,46.772239000000006,-85.4,-85.52
1733129572308147776,1733129572307654857,12,0.34,-0.87,0.5,46.903569000000005,-85.75,-85.71
1733129572408097246,1733129572407640933,12,0.34,-0.87,0.5,47.041152333333336,-88.35,-87.85
1733129572509145159,1733129572509034633,12,0.34,-0.87,0.5,47.17873566666666,-85.73,-88.52
1733129572609952199,1733129572609696149,12,0.34,-0.87,0.5,47.303812,-86.01,-88.13
1733129572710010795,1733129572709914445,12,0.34,-0.87,0.5,47.435142000000006,-85.87,-88.58
1733129572808184356,1733129572807619094,12,0.34,-0.87,0.5,47.566472,-85.84,-88.08
1733129572908392775,1733129572907733678,12,0.34,-0.87,0.5,47.69780166666666,-85.12,-86.51
1733129573007882108,1733129573007642507,12,0.34,-0.87,0.5,47.81662433333333,-86.13,-87.57
1733129573109443604,1733129573108824491,12,0.34,-0.87,0.5,47.935447,-85.0,-85.04
1733129573209284611,1733129573208996295,12,0.34,-0.87,0.5,48.054268666666665,-85.83,-86.37
1733129573309250441,1733129573308902740,12,0.34,-0.87,0.5,48.191852000000004,-86.75,-87.84
1733129573409038610,1733129573408930540,12,0.34,-0.87,0.5,48.33569033333333,-87.33,-88.29
1733129573510176782,1733129573509729623,12,0.34,-0.87,0.5,48.59209666666666,-87.33,-86.86
1733129573608127943,1733129573607712268,12,0.34,-0.87,0.5,48.71717166666667,-86.02,-88.71
1733129573708060743,1733129573707623958,12,0.34,-0.87,0.5,48.854756333333334,-87.86,-88.28
1733129574009093748,1733129574008856534,12,0.34,-0.87,0.5,48.99859466666666,-86.5,-86.61
1733129574109949756,1733129574109742879,12,0.34,-0.87,0.5,49.142433000000004,-87.06,-87.89
1733129574210637261,1733129574210245132,12,0.34,-0.87,0.5,49.28627,-86.95,-86.67
1733129574309641543,1733129574309116601,12,0.34,-0.87,0.5,49.38633066666667,-87.13,-87.14
1733129574409009047,1733129574408798217,12,0.34,-0.87,0.5,49.46137566666667,-85.74,-85.37
1733129574508116952,1733129574507619619,12,0.34,-0.87,0.5,49.511406666666666,-84.06,-85.11
1733129574610530906,1733129574610430240,12,0.34,-0.87,0.5,49.567691333333336,-84.69,-84.23
1733129574709392002,1733129574709036588,12,0.34,-0.87,0.5,49.605214,-85.31,-84.9
1733129574907786100,1733129574907608032,12,0.34,-0.87,0.5,49.65524366666667,-84.49,-86.3
1733129575011458990,1733129575011090755,12,0.34,-0.87,0.5,49.67400433333333,-84.77,-85.68
1733129575108457688,1733129575107691764,12,0.34,-0.87,0.5,49.68025933333333,-84.18,-83.94
1733129575207906447,1733129575207624435,12,0.34,-0.87,0.5,49.66775233333333,-88.33,-88.25
1733129575409618125,1733129575409318685,12,0.34,-0.87,0.5,49.65524533333333,-84.2,-83.75
1733129575509036461,1733129575508800506,12,0.34,-0.87,0.5,49.66775233333333,-86.65,-88.73
1733129575608062476,1733129575607606410,12,0.34,-0.87,0.5,49.674005666666666,-84.71,-84.26
1733129575709284230,1733129575709100246,12,0.34,-0.87,0.5,49.680259,-84.62,-85.3
1733129575807972925,1733129575807605028,12,0.34,-0.87,0.5,49.686512666666665,-84.86,-86.47
1733129575909244214,1733129575908954143,12,0.34,-0.87,0.5,49.69276633333333,-85.27,-87.66
1733129576009093746,1733129576008820772,12,0.34,-0.87,0.5,49.69902,-84.81,-86.5
1733129576109882198,1733129576109737396,12,0.34,-0.87,0.5,49.69902,-85.64,-88.48
1733129576210382685,1733129576210082530,12,0.34,-0.87,0.5,49.70527366666666,-84.55,-85.49
1733129576310252613,1733129576310022115,12,0.34,-0.87,0.5,49.69902,-84.63,-87.09
1733129576410855478,1733129576410561800,12,0.34,-0.87,0.5,49.71152833333334,-85.13,-84.61
1733129576509111213,1733129576508717298,12,0.34,-0.87,0.5,49.71152833333334,-84.38,-86.82
1733129576609334446,1733129576609031915,12,0.34,-0.87,0.5,49.72403566666667,-84.51,-84.17
1733129576708122350,1733129576707628011,12,0.34,-0.87,0.5,49.717781,-84.38,-85.8
1733129576809875047,1733129576809764146,12,0.34,-0.87,0.5,49.73028933333333,-85.24,-86.91
1733129576910554190,1733129576910377740,12,0.34,-0.87,0.5,49.736544,-84.36,-83.99
1733129577007800187,1733129577007626533,12,0.34,-0.87,0.5,49.74905233333333,-89.08,-89.68
1733129577109826564,1733129577109622716,12,0.34,-0.87,0.5,49.755305666666665,-84.74,-86.33
1733129577209900965,1733129577209662199,12,0.34,-0.87,0.5,49.755305666666665,-85.16,-85.45
1733129577308068021,1733129577307605028,12,0.34,-0.87,0.5,49.767812666666664,-84.92,-86.05
1733129577407900725,1733129577407625198,12,0.34,-0.87,0.5,49.767812666666664,-84.39,-85.48
1733129577508111427,1733129577507656097,12,0.34,-0.87,0.5,49.78657333333333,-84.4,-84.27
1733129577608958182,1733129577608781337,12,0.34,-0.87,0.5,49.78657333333333,-84.84,-85.49
1733129577710090384,1733129577709856033,12,0.34,-0.87,0.5,49.79282700000001,-84.92,-88.05
1733129577810154288,1733129577810022592,12,0.34,-0.87,0.5,49.79908066666667,-85.02,-84.96
1733129577910138864,1733129577909870624,12,0.34,-0.87,0.5,49.811589,-84.82,-86.6
1733129578007941219,1733129578007644891,12,0.34,-0.87,0.5,49.81784266666667,-85.27,-85.8
1733129578108018528,1733129578107633829,12,0.34,-0.87,0.5,49.83035100000001,-84.38,-86.58
1733129578208288122,1733129578207698345,12,0.34,-0.87,0.5,49.82409633333333,-84.56,-84.9
1733129578308066908,1733129578307601451,12,0.34,-0.87,0.5,49.82409633333333,-85.53,-85.47
1733129578408062666,1733129578407634973,12,0.34,-0.87,0.5,49.82409633333333,-83.98,-83.72
1733129578508003432,1733129578507596015,12,0.34,-0.87,0.5,49.82409633333333,-84.95,-85.08
1733129578609744146,1733129578609497308,12,0.34,-0.87,0.5,49.830351,-84.85,-86.81
1733129578710028405,1733129578709845304,12,0.34,-0.87,0.5,49.824097333333334,-84.04,-83.89
1733129578809331600,1733129578808857679,12,0.34,-0.87,0.5,49.82409733333333,-84.61,-84.49
1733129578908018972,1733129578907641887,12,0.34,-0.87,0.5,49.83035100000001,-84.33,-85.62
1733129579008184110,1733129579007674217,12,0.34,-0.87,0.5,49.82409633333333,-83.01,-82.92
1733129579107979158,1733129579107592105,12,0.34,-0.87,0.5,49.836604666666666,-84.44,-86.82
1733129579210344287,1733129579210042715,12,0.34,-0.87,0.5,49.830351,-84.41,-84.29
1733129579311012659,1733129579310780763,12,0.34,-0.87,0.5,49.849112999999996,-84.76,-84.41
1733129579410319409,1733129579409964323,12,0.34,-0.87,0.5,49.84911300000001,-84.02,-85.49
1733129579510300981,1733129579510076761,12,0.34,-0.87,0.5,49.84285833333333,-85.21,-86.75
1733129579640338037,1733129579639850139,12,0.34,-0.87,0.5,49.81784266666667,-85.21,-85.18
1733129579709744343,1733129579709603548,12,0.34,-0.87,0.5,49.81784266666667,-84.17,-85.41
1733129579809670436,1733129579809541463,12,0.34,-0.87,0.5,49.824097333333334,-84.13,-83.95
1733129579910059976,1733129579909807205,12,0.34,-0.87,0.5,49.84285933333333,-84.94,-86.2
1733129580010034979,1733129580009755849,12,0.34,-0.87,0.5,49.836605666666664,-84.11,-85.84
1733129580110126139,1733129580109982252,12,0.34,-0.87,0.5,49.830351,-84.47,-84.18
1733129580210682742,1733129580210607290,12,0.34,-0.87,0.5,49.81784266666667,-84.13,-84.23
1733129580308028675,1733129580307634115,12,0.34,-0.87,0.5,49.83035,-84.41,-86.3
1733129580407982224,1733129580407643318,12,0.34,-0.87,0.5,49.849112,-83.18,-83.41
1733129580607931692,1733129580607639789,12,0.34,-0.87,0.5,49.86162033333333,-84.14,-85.49
1733129580707918737,1733129580707633495,12,0.34,-0.87,0.5,49.86162033333333,-86.22,-85.73
1733129580807955475,1733129580807595014,12,0.34,-0.87,0.5,49.85536666666667,-83.75,-83.33
1733129580910349502,1733129580910154819,12,0.34,-0.87,0.5,49.85536666666667,-84.76,-84.5
1733129581109090548,1733129581108825922,12,0.34,-0.87,0.5,49.85536666666667,-84.22,-86.92
1733129581208077601,1733129581207658052,12,0.34,-0.87,0.5,49.85536666666667,-85.36,-85.78
1733129581308018162,1733129581307618379,12,0.34,-0.87,0.5,49.86162033333333,-84.89,-84.83
1733129581407897089,1733129581407634973,12,0.34,-0.87,0.5,49.85536666666667,-84.39,-87.06
1733129581508005677,1733129581507590293,12,0.34,-0.87,0.5,49.849112999999996,-84.28,-84.08
1733129581607804039,1733129581607611656,12,0.34,-0.87,0.5,49.849112999999996,-85.36,-87.1
1733129581710350758,1733129581710233449,12,0.34,-0.87,0.5,49.85536666666667,-85.25,-86.15
1733129581810254552,1733129581810178995,12,0.34,-0.87,0.5,49.867874,-84.21,-84.13
1733129581909075289,1733129581908816337,12,0.34,-0.87,0.5,49.87412733333334,-84.84,-87.09
1733129582009228881,1733129582008929967,12,0.34,-0.87,0.5,49.88038066666667,-86.02,-87.81
1733129582108976208,1733129582108776807,12,0.34,-0.87,0.5,49.886633999999994,-85.82,-86.45
1733129582207797978,1733129582207611560,12,0.34,-0.87,0.5,49.89288766666667,-83.63,-85.37
1733129582308116583,1733129582307653427,12,0.34,-0.87,0.5,49.89914133333334,-84.18,-84.98
1733129582408226249,1733129582407616615,12,0.34,-0.87,0.5,49.91165,-84.44,-84.31
1733129582507924665,1733129582507596254,12,0.34,-0.87,0.5,49.930412,-84.61,-84.26
1733129582607885423,1733129582607603311,12,0.34,-0.87,0.5,49.930412,-84.38,-85.58
1733129582708076100,1733129582707597732,12,0.34,-0.87,0.5,49.93666533333334,-84.29,-83.97
1733129582808106919,1733129582807609319,12,0.34,-0.87,0.5,49.92415833333333,-85.16,-86.11
1733129582907952594,1733129582907617568,12,0.34,-0.87,0.5,49.93666666666667,-84.63,-85.53
1733129583008087648,1733129583007638692,12,0.34,-0.87,0.5,49.93666666666667,-84.52,-85.95
1733129583108094699,1733129583107644081,12,0.34,-0.87,0.5,49.94917366666667,-84.41,-84.29
1733129583208009094,1733129583207650899,12,0.34,-0.87,0.5,49.94917366666667,-84.69,-84.81
1733129583308093474,1733129583307604312,12,0.34,-0.87,0.5,49.961681,-87.55,-90.61
1733129583407978115,1733129583407613754,12,0.34,-0.87,0.5,49.980442000000004,-84.15,-83.91
1733129583508228783,1733129583507626056,12,0.34,-0.87,0.5,49.98669533333333,-85.9,-86.16
1733129583607859119,1733129583607677936,12,0.34,-0.87,0.5,49.992948666666656,-86.9,-87.95
1733129583708236903,1733129583707617759,12,0.34,-0.87,0.5,49.992948666666656,-83.91,-85.4
1733129583807965249,1733129583807625055,12,0.34,-0.87,0.5,49.992948666666656,-84.47,-87.11
1733129583908177461,1733129583907621622,12,0.34,-0.87,0.5,49.98044166666667,-84.53,-84.68
1733129584008044904,1733129584007619619,12,0.34,-0.87,0.5,49.974188,-83.95,-85.14
1733129584108042921,1733129584107622146,12,0.34,-0.87,0.5,49.961681,-84.38,-86.7
1733129584308042743,1733129584307622909,12,0.34,-0.87,0.5,49.92415833333333,-83.83,-86.12
1733129584408057623,1733129584407633781,12,0.34,-0.87,0.5,49.86787366666667,-83.93,-83.81
1733129584507928500,1733129584507629394,12,0.34,-0.87,0.5,49.811589000000005,-83.89,-83.53
1733129584608002404,1733129584607620000,12,0.34,-0.87,0.5,49.76781166666667,-85.54,-86.81
1733129584707991925,1733129584707600116,12,0.34,-0.87,0.5,49.749051,-84.89,-86.76
1733129584808026107,1733129584807654857,12,0.34,-0.87,0.5,49.71152833333334,-86.13,-87.09
1733129584907864931,1733129584907614469,12,0.34,-0.87,0.5,49.69276766666667,-84.3,-84.0
1733129585009183568,1733129585008902072,12,0.34,-0.87,0.5,49.65524366666667,-86.46,-86.85
1733129585109395142,1733129585108846426,12,0.34,-0.87,0.5,49.63022833333333,-85.56,-85.11
1733129585209697811,1733129585209506750,12,0.34,-0.87,0.5,49.61146633333333,-85.96,-85.53
1733129585309825950,1733129585309648990,12,0.34,-0.87,0.5,49.59895933333333,-86.57,-87.49
1733129585409954563,1733129585409767150,12,0.34,-0.87,0.5,49.586452,-86.26,-88.6
1733129585509829669,1733129585509670495,12,0.34,-0.87,0.5,49.580198333333335,-86.43,-86.23
1733129585609900986,1733129585609681606,12,0.34,-0.87,0.5,49.57394466666667,-86.03,-86.62
1733129585709921203,1733129585709669113,12,0.34,-0.87,0.5,49.586452,-85.96,-85.54
1733129585809798454,1733129585809122800,12,0.34,-0.87,0.5,49.580198333333335,-87.73,-87.74
1733129586009330576,1733129586009042501,12,0.34,-0.87,0.5,49.598959,-87.45,-89.68
1733129586109097619,1733129586108916997,12,0.34,-0.87,0.5,49.592705333333335,-86.12,-85.83
1733129586209815523,1733129586209602355,12,0.34,-0.87,0.5,49.598959,-86.99,-87.02
1733129586309018452,1733129586308774709,12,0.34,-0.87,0.5,49.580198333333335,-86.3,-87.03
1733129586408910218,1733129586408740282,12,0.34,-0.87,0.5,49.580198333333335,-86.74,-86.22
1733129586508955446,1733129586508819341,12,0.34,-0.87,0.5,49.57394466666667,-86.27,-86.04
1733129586610575322,1733129586610364198,12,0.34,-0.87,0.5,49.57394466666667,-86.15,-88.55
1733129586710239316,1733129586710023403,12,0.34,-0.87,0.5,49.567691,-85.53,-88.12
1733129586810629068,1733129586810389041,12,0.34,-0.87,0.5,49.54892900000001,-86.05,-86.11
1733129586910318202,1733129586910166263,12,0.34,-0.87,0.5,49.530167000000006,-85.7,-85.29
1733129587011333055,1733129587010808229,12,0.34,-0.87,0.5,49.50515166666667,-86.64,-86.4
1733129587110975924,1733129587110712766,12,0.34,-0.87,0.5,49.47388266666667,-86.09,-87.59
1733129587210319022,1733129587210134267,12,0.34,-0.87,0.5,49.44886866666667,-85.56,-85.11
1733129587310774188,1733129587310513734,12,0.34,-0.87,0.5,49.41759966666666,-84.89,-85.96
1733129587410562680,1733129587410305738,12,0.34,-0.87,0.5,49.39258566666666,-85.59,-86.93
1733129587510696737,1733129587510529756,12,0.34,-0.87,0.5,49.34255466666667,-85.33,-86.88
1733129587610640118,1733129587610480546,12,0.34,-0.87,0.5,49.28627,-85.27,-86.53
1733129587710790899,1733129587710537433,12,0.34,-0.87,0.5,49.25500066666667,-84.33,-83.87
1733129587810667430,1733129587810417652,12,0.34,-0.87,0.5,49.21122433333334,-86.47,-86.2
1733129587910598656,1733129587910400152,12,0.34,-0.87,0.5,49.173701666666666,-86.08,-88.27
1733129588012460122,1733129588012266159,12,0.34,-0.87,0.5,49.11741733333333,-85.72,-87.93
1733129588110802430,1733129588110642910,12,0.34,-0.87,0.5,49.06738633333333,-85.07,-87.27
1733129588210047042,1733129588209728240,12,0.34,-0.87,0.5,48.99859466666667,-85.93,-86.74
1733129588311084393,1733129588310890674,12,0.34,-0.87,0.5,48.92980266666666,-85.52,-86.72
1733129588410594921,1733129588410346031,12,0.34,-0.87,0.5,48.861011,-85.28,-85.88
1733129588510868302,1733129588510708808,12,0.34,-0.87,0.5,48.79221933333334,-85.13,-85.11
1733129588611080245,1733129588610857009,12,0.34,-0.87,0.5,48.71091933333333,-85.79,-86.27
1733129588710898185,1733129588710602760,12,0.34,-0.87,0.5,48.62961933333333,-84.95,-85.01
1733129588808066500,1733129588807621479,12,0.34,-0.87,0.5,48.56082766666666,-85.27,-85.37
1733129588908178992,1733129588907660961,12,0.34,-0.87,0.5,48.492036000000006,-85.8,-88.15
1733129589008167597,1733129589007628917,12,0.34,-0.87,0.5,48.410737000000005,-86.3,-85.92
1733129589108329475,1733129589107690572,12,0.34,-0.87,0.5,48.33569033333333,-83.95,-83.48
1733129589207974676,1733129589207608461,12,0.34,-0.87,0.5,48.248136666666674,-84.94,-84.98
1733129589311837249,1733129589310155868,12,0.34,-0.87,0.5,48.179345000000005,-85.01,-85.23
1733129589408294545,1733129589407606363,12,0.34,-0.87,0.5,48.08553766666666,-88.68,-88.78
1733129589508101774,1733129589507621526,12,0.34,-0.87,0.5,47.99173033333333,-83.93,-84.33
1733129589640894664,1733129589640742063,12,0.34,-0.87,0.5,47.891668333333335,-84.85,-84.39
1733129589710892152,1733129589710244655,12,0.34,-0.87,0.5,47.797862333333335,-85.77,-85.49
1733129589808173976,1733129589807613611,12,0.34,-0.87,0.5,47.704055333333336,-87.64,-87.33
1733129589908095668,1733129589907653808,12,0.34,-0.87,0.5,47.597741000000006,-84.69,-84.56
1733129590008032240,1733129590007634162,12,0.34,-0.87,0.5,47.472665,-85.35,-86.06
1733129590108189243,1733129590107644557,12,0.34,-0.87,0.5,47.36635066666667,-84.76,-84.36
1733129590209048996,1733129590208829879,12,0.34,-0.87,0.5,47.260036333333325,-85.07,-85.18
1733129590309731331,1733129590309191942,12,0.34,-0.87,0.5,47.18498966666667,-83.9,-84.53
1733129590409559878,1733129590409112930,12,0.34,-0.87,0.5,47.08492866666666,-84.69,-87.17
1733129590509142094,1733129590508826017,12,0.34,-0.87,0.5,46.97861433333333,-84.73,-84.64
1733129590608097392,1733129590607607841,12,0.34,-0.87,0.5,46.841030999999994,-84.66,-85.35
1733129590708105317,1733129590707693338,12,0.34,-0.87,0.5,46.728462,-85.63,-85.46
1733129590807996056,1733129590807638168,12,0.34,-0.87,0.5,46.60338566666667,-84.75,-84.86
1733129590909128872,1733129590908857822,12,0.34,-0.87,0.5,46.503324666666664,-84.68,-85.37
1733129591009168794,1733129591008882522,12,0.34,-0.87,0.5,46.384502999999995,-85.78,-87.94
1733129591109235023,1733129591108875274,12,0.34,-0.87,0.5,46.29694933333334,-84.42,-84.16
1733129591309240641,1733129591308876037,12,0.34,-0.87,0.5,45.971752,-84.41,-84.7
1733129591408018828,1733129591407622098,12,0.34,-0.87,0.5,45.802899333333336,-84.67,-86.23
1733129591508120389,1733129591507615327,12,0.34,-0.87,0.5,45.690329999999996,-84.65,-84.26
1733129591609084345,1733129591608817100,12,0.34,-0.87,0.5,45.56525366666667,-84.5,-84.4
1733129591709671859,1733129591709015846,12,0.34,-0.87,0.5,45.43392266666666,-83.75,-84.01
1733129591809810021,1733129591809566259,12,0.34,-0.87,0.5,45.3151,-84.92,-86.02
1733129591909989968,1733129591909919500,12,0.34,-0.87,0.5,45.19002366666666,-84.82,-86.31
1733129592009956461,1733129592009798765,12,0.34,-0.87,0.5,45.07745566666667,-88.2,-87.98
1733129592109396613,1733129592108947515,12,0.34,-0.87,0.5,44.927365,-84.75,-85.18
1733129592208884760,1733129592208792686,12,0.34,-0.87,0.5,44.81479566666667,-87.1,-87.87
1733129592308984764,1733129592308800935,12,0.34,-0.87,0.5,44.714735,-84.8,-84.57
1733129592409269190,1733129592408833980,12,0.34,-0.87,0.5,44.65845033333333,-87.2,-86.61
1733129592509032088,1733129592508771657,12,0.34,-0.87,0.5,44.62092766666667,-84.31,-86.02
1733129592608971832,1733129592608684539,12,0.34,-0.87,0.5,44.545881,-85.46,-86.8
1733129592708948147,1733129592708721399,12,0.34,-0.87,0.5,44.47708933333333,-86.56,-86.35
1733129592809398770,1733129592808840274,12,0.34,-0.87,0.5,44.38953566666666,-87.61,-88.12
1733129592909098607,1733129592908864498,12,0.34,-0.87,0.5,44.339506,-87.44,-87.47
1733129593008926721,1733129593008735418,12,0.34,-0.87,0.5,44.308237,-89.96,-92.74
1733129593109209132,1733129593108806848,12,0.34,-0.87,0.5,44.276968000000004,-88.19,-87.85
1733129593209044744,1733129593208818912,12,0.34,-0.87,0.5,44.233192,-92.14,-92.43
1733129593309088851,1733129593308911085,12,0.34,-0.87,0.5,44.20817666666667,-87.87,-89.88
1733129593409252262,1733129593408930063,12,0.34,-0.87,0.5,44.18316266666667,-87.86,-89.05
1733129593509064226,1733129593508855819,12,0.34,-0.87,0.5,44.18316266666667,-88.04,-87.56
1733129593609116172,1733129593608909606,12,0.34,-0.87,0.5,44.15814700000001,-89.04,-91.11
1733129593707950841,1733129593707625627,12,0.34,-0.87,0.5,44.15814700000001,-87.98,-88.52
1733129593808089912,1733129593807669162,12,0.34,-0.87,0.5,44.170654000000006,-88.87,-91.16
1733129593907801031,1733129593907598018,12,0.34,-0.87,0.5,44.183162333333335,-88.14,-87.73
1733129594008069416,1733129594007643699,12,0.34,-0.87,0.5,44.208176333333334,-87.73,-87.64
1733129594108147071,1733129594107635974,12,0.34,-0.87,0.5,44.21443,-87.78,-87.72
1733129594208980121,1733129594208765983,12,0.34,-0.87,0.5,44.20817666666667,-88.12,-89.2
1733129594309260551,1733129594309072732,12,0.34,-0.87,0.5,44.19566966666667,-87.88,-87.71
1733129594409571259,1733129594409280061,12,0.34,-0.87,0.5,44.170654000000006,-88.04,-88.67
1733129594509080868,1733129594508868694,12,0.34,-0.87,0.5,44.17690733333333,-88.26,-90.88
1733129594607963513,1733129594607663869,12,0.34,-0.87,0.5,44.16440033333333,-87.56,-87.95
1733129594708047735,1733129594707604169,12,0.34,-0.87,0.5,44.17690866666667,-88.19,-87.82
1733129594808456281,1733129594807662010,12,0.34,-0.87,0.5,44.16440033333333,-88.5,-88.91
1733129594908996535,1733129594908907890,12,0.34,-0.87,0.5,44.16440033333333,-88.36,-88.05
1733129595009445878,1733129595009122133,12,0.34,-0.87,0.5,44.151892000000004,-88.2,-88.16
1733129595109999511,1733129595109798431,12,0.34,-0.87,0.5,44.16440033333333,-88.18,-87.65
1733129595210179446,1733129595209842681,12,0.34,-0.87,0.5,44.13938466666667,-88.81,-89.77
1733129595508171862,1733129595507640123,12,0.34,-0.87,0.5,44.120624,-90.66,-91.82
1733129595609743173,1733129595609547615,12,0.34,-0.87,0.5,44.07684666666666,-87.15,-87.27
1733129595710237044,1733129595710074186,12,0.34,-0.87,0.5,44.076846666666675,-88.44,-90.68
1733129595810424976,1733129595809903860,12,0.34,-0.87,0.5,44.05808466666667,-88.57,-89.01
1733129595909815737,1733129595909639596,12,0.34,-0.87,0.5,44.06433933333333,-88.78,-91.54
