%time,field.stamp,field.id,field.x,field.y,field.z,field.distanceFromTag,field.rssi,field.rssi_fp
1733129523610995925,1733129523610712051,3,2.5775,-0.87,1.97,6.197525,-80.53,-81.66
1733129523710942067,1733129523710808515,3,2.5775,-0.87,1.97,6.185017333333334,-80.88,-81.39
1733129523811169636,1733129523810844182,3,2.5775,-0.87,1.97,6.166256,-80.42,-81.3
1733129523911020046,1733129523910848855,3,2.5775,-0.87,1.97,6.166256,-81.09,-81.25
1733129524010710439,1733129524010575771,3,2.5775,-0.87,1.97,6.178763666666666,-80.84,-81.27
1733129524207986169,1733129524207626581,3,2.5775,-0.87,1.97,6.178763666666666,-81.13,-81.06
1733129524409147017,1733129524408901691,3,2.5775,-0.87,1.97,6.191271,-80.79,-80.91
1733129524509241120,1733129524508957147,3,2.5775,-0.87,1.97,6.210032333333333,-80.51,-81.6
1733129524609303796,1733129524608991384,3,2.5775,-0.87,1.97,6.210032333333333,-81.07,-81.03
1733129524709030080,1733129524708753108,3,2.5775,-0.87,1.97,6.185017333333334,-80.67,-81.0
1733129524810933376,1733129524810730695,3,2.5775,-0.87,1.97,6.178763333333333,-80.4,-80.71
1733129524907795107,1733129524907622337,3,2.5775,-0.87,1.97,6.166255666666667,-80.45,-81.32
1733129525010721511,1733129525010416030,3,2.5775,-0.87,1.97,6.185016999999999,-80.87,-80.89
1733129525110720340,1733129525110562086,3,2.5775,-0.87,1.97,6.178763333333333,-80.58,-80.73
1733129525210466732,1733129525210302829,3,2.5775,-0.87,1.97,6.178763333333333,-80.89,-81.48
1733129525608047492,1733129525607626199,3,2.5775,-0.87,1.97,6.197524666666666,-80.51,-80.61
1733129525708197499,1733129525707655668,3,2.5775,-0.87,1.97,6.210032000000001,-80.64,-81.3
1733129525808157392,1733129525807621479,3,2.5775,-0.87,1.97,6.197524666666666,-80.81,-81.13
1733129525907898924,1733129525907624721,3,2.5775,-0.87,1.97,6.191271,-80.96,-81.25
1733129526007988894,1733129526007616996,3,2.5775,-0.87,1.97,6.178763666666666,-80.92,-81.67
1733129526109284858,1733129526109021663,3,2.5775,-0.87,1.97,6.191271,-80.92,-81.06
1733129526209223548,1733129526208969116,3,2.5775,-0.87,1.97,6.197524666666666,-81.69,-81.7
1733129526309374583,1733129526308992624,3,2.5775,-0.87,1.97,6.203778333333333,-81.14,-81.22
1733129526408954521,1733129526408839225,3,2.5775,-0.87,1.97,6.197524666666666,-80.95,-81.34
1733129526509006672,1733129526508782625,3,2.5775,-0.87,1.97,6.191271,-80.52,-81.03
1733129526609414067,1733129526609166622,3,2.5775,-0.87,1.97,6.191271,-80.77,-80.8
1733129526708073837,1733129526707600116,3,2.5775,-0.87,1.97,6.185017333333334,-80.84,-81.39
1733129526808293636,1733129526807649374,3,2.5775,-0.87,1.97,6.178763666666666,-80.85,-81.02
1733129526908067837,1733129526907611608,3,2.5775,-0.87,1.97,6.160002333333334,-80.65,-81.08
1733129527008149314,1733129527007624387,3,2.5775,-0.87,1.97,6.153748333333333,-80.31,-81.15
1733129527108131495,1733129527107612133,3,2.5775,-0.87,1.97,6.1600019999999995,-81.25,-81.23
1733129527208211564,1733129527207658767,3,2.5775,-0.87,1.97,6.185016999999999,-81.0,-81.6
1733129527307983115,1733129527307652235,3,2.5775,-0.87,1.97,6.185016999999999,-80.26,-82.02
1733129527508248403,1733129527507648706,3,2.5775,-0.87,1.97,6.185016999999999,-80.51,-80.84
1733129527608029754,1733129527607609510,3,2.5775,-0.87,1.97,6.178763333333333,-80.6,-81.23
1733129527708051908,1733129527707599401,3,2.5775,-0.87,1.97,6.203778666666667,-80.49,-80.74
1733129527807941541,1733129527807620286,3,2.5775,-0.87,1.97,6.197525,-80.55,-81.0
1733129527908094537,1733129527907604217,3,2.5775,-0.87,1.97,6.178763666666666,-80.75,-81.09
1733129528008089517,1733129528007613420,3,2.5775,-0.87,1.97,6.178763666666666,-81.61,-82.75
1733129528107977936,1733129528107612609,3,2.5775,-0.87,1.97,6.197525,-81.73,-81.36
1733129528209045884,1733129528208859205,3,2.5775,-0.87,1.97,6.203778666666667,-81.0,-81.28
1733129528608982461,1733129528608875989,3,2.5775,-0.87,1.97,6.178763333333333,-80.48,-80.56
1733129528710129597,1733129528709042549,3,2.5775,-0.87,1.97,6.191271,-80.54,-80.78
1733129528808941953,1733129528808728694,3,2.5775,-0.87,1.97,6.191271,-81.19,-81.1
1733129528908999923,1733129528908808708,3,2.5775,-0.87,1.97,6.191271,-80.86,-80.74
1733129529009782374,1733129529009473800,3,2.5775,-0.87,1.97,6.172509666666667,-80.99,-81.22
1733129529109284769,1733129529108932256,3,2.5775,-0.87,1.97,6.178763666666666,-80.47,-81.16
1733129529209264973,1733129529209004402,3,2.5775,-0.87,1.97,6.17251,-81.04,-81.43
1733129529309296542,1733129529308888435,3,2.5775,-0.87,1.97,6.17251,-80.62,-80.94
1733129529409012042,1733129529408716440,3,2.5775,-0.87,1.97,6.17251,-80.62,-81.41
1733129529509488010,1733129529509154081,3,2.5775,-0.87,1.97,6.185017333333334,-80.69,-80.7
1733129529608101389,1733129529607631683,3,2.5775,-0.87,1.97,6.191271,-80.61,-80.87
1733129529707856352,1733129529707539796,3,2.5775,-0.87,1.97,6.185016999999999,-81.27,-81.36
1733129529808052720,1733129529807628631,3,2.5775,-0.87,1.97,6.178763333333333,-80.87,-80.85
1733129529907935399,1733129529907595872,3,2.5775,-0.87,1.97,6.172509666666667,-80.45,-80.76
1733129530008038949,1733129530007612466,3,2.5775,-0.87,1.97,6.185017333333334,-80.68,-81.58
1733129530109999771,1733129530109678030,3,2.5775,-0.87,1.97,6.203778666666667,-80.92,-81.73
1733129530310078577,1733129530309705018,3,2.5775,-0.87,1.97,6.203778666666667,-80.7,-80.81
1733129530409100342,1733129530408865213,3,2.5775,-0.87,1.97,6.185017333333334,-80.49,-80.87
1733129530509595178,1733129530509262561,3,2.5775,-0.87,1.97,6.147494666666667,-80.47,-80.96
1733129530610132111,1733129530609971046,3,2.5775,-0.87,1.97,6.153748333333333,-80.68,-81.6
1733129530909957096,1733129530909568309,3,2.5775,-0.87,1.97,6.166256,-80.46,-81.03
1733129531010285660,1733129531010183095,3,2.5775,-0.87,1.97,6.185017333333334,-80.45,-81.3
1733129531509790659,1733129531509638071,3,2.5775,-0.87,1.97,6.178763333333333,-80.75,-80.83
1733129531610658838,1733129531610455274,3,2.5775,-0.87,1.97,6.178763333333333,-81.53,-81.35
1733129531711007941,1733129531710752964,3,2.5775,-0.87,1.97,6.185016999999999,-80.63,-80.71
1733129531810657152,1733129531810390472,3,2.5775,-0.87,1.97,6.191271,-80.57,-80.69
1733129531908991565,1733129531908742427,3,2.5775,-0.87,1.97,6.185017333333334,-80.56,-80.73
1733129532009102982,1733129532008675575,3,2.5775,-0.87,1.97,6.172509666666667,-80.68,-80.84
1733129532108851708,1733129532108670234,3,2.5775,-0.87,1.97,6.172509666666667,-81.76,-81.83
1733129532209046166,1733129532208840608,3,2.5775,-0.87,1.97,6.172509666666667,-81.52,-81.55
1733129532309259118,1733129532308945178,3,2.5775,-0.87,1.97,6.185017333333334,-80.95,-81.24
1733129532410077511,1733129532409741163,3,2.5775,-0.87,1.97,6.185017333333334,-81.01,-81.94
1733129532509386788,1733129532509030103,3,2.5775,-0.87,1.97,6.185017333333334,-81.2,-80.85
1733129532609209120,1733129532608828306,3,2.5775,-0.87,1.97,6.191271,-80.75,-81.2
1733129532709123757,1733129532708827733,3,2.5775,-0.87,1.97,6.191271,-80.91,-80.92
1733129532808968514,1733129532808679580,3,2.5775,-0.87,1.97,6.185017333333334,-80.74,-80.73
1733129532908989004,1733129532908828496,3,2.5775,-0.87,1.97,6.160002333333334,-81.02,-81.29
1733129533009131564,1733129533008833646,3,2.5775,-0.87,1.97,6.147494666666667,-80.2,-81.05
1733129533108985675,1733129533108784914,3,2.5775,-0.87,1.97,6.1287329999999995,-80.04,-80.97
1733129533209559007,1733129533209347486,3,2.5775,-0.87,1.97,6.109971333333333,-80.11,-81.09
1733129533309209004,1733129533308885574,3,2.5775,-0.87,1.97,6.084956000000001,-79.92,-80.67
1733129533409166230,1733129533408767223,3,2.5775,-0.87,1.97,6.059940999999999,-80.23,-81.25
1733129533509955159,1733129533509737968,3,2.5775,-0.87,1.97,6.034926,-79.69,-81.19
1733129533609768903,1733129533609608411,3,2.5775,-0.87,1.97,5.997402999999999,-79.62,-82.06
1733129533711421712,1733129533711283683,3,2.5775,-0.87,1.97,5.953626333333332,-79.82,-82.21
1733129533908022711,1733129533907656192,3,2.5775,-0.87,1.97,5.891088,-80.59,-83.28
1733129534009644704,1733129534009256124,3,2.5775,-0.87,1.97,5.82855,-79.75,-80.79
1733129534109098704,1733129534108795881,3,2.5775,-0.87,1.97,5.740996666666668,-79.91,-81.51
1733129534209821254,1733129534209218263,3,2.5775,-0.87,1.97,5.684712666666667,-80.54,-81.38
1733129534309069770,1733129534308800935,3,2.5775,-0.87,1.97,5.609666999999999,-80.21,-80.63
1733129534407980357,1733129534407624244,3,2.5775,-0.87,1.97,5.565890333333333,-79.82,-80.91
1733129534510082418,1733129534509986162,3,2.5775,-0.87,1.97,5.4908443333333325,-79.4,-80.75
1733129534610060899,1733129534609781265,3,2.5775,-0.87,1.97,5.43456,-79.74,-81.1
1733129534709652920,1733129534709528923,3,2.5775,-0.87,1.97,5.378275666666667,-79.66,-81.43
1733129534809755814,1733129534809566974,3,2.5775,-0.87,1.97,5.328245333333334,-79.66,-82.28
1733129534909880696,1733129534909552812,3,2.5775,-0.87,1.97,5.284468666666666,-79.69,-81.35
1733129535010382265,1733129535010096788,3,2.5775,-0.87,1.97,5.209423,-79.97,-80.54
1733129535110113594,1733129535109877586,3,2.5775,-0.87,1.97,5.140631333333333,-79.99,-80.78
1733129535210190211,1733129535209903955,3,2.5775,-0.87,1.97,5.071839333333334,-79.2,-80.49
1733129535309804921,1733129535309587955,3,2.5775,-0.87,1.97,5.009301333333333,-79.18,-81.15
1733129535409796557,1733129535409623861,3,2.5775,-0.87,1.97,4.953017,-79.49,-81.32
1733129535510987904,1733129535510640621,3,2.5775,-0.87,1.97,4.877971666666667,-79.72,-80.85
1733129535610134256,1733129535609861612,3,2.5775,-0.87,1.97,4.821687333333333,-79.76,-80.62
1733129535710000243,1733129535709800004,3,2.5775,-0.87,1.97,4.734134,-79.42,-80.57
1733129535809812664,1733129535809731006,3,2.5775,-0.87,1.97,4.665342,-78.88,-81.12
1733129535909934172,1733129535909623146,3,2.5775,-0.87,1.97,4.590296333333334,-78.96,-80.98
1733129536010468264,1733129536010043382,3,2.5775,-0.87,1.97,4.5402656666666665,-79.24,-81.2
1733129536109854025,1733129536109771490,3,2.5775,-0.87,1.97,4.4777276666666666,-79.01,-80.97
1733129536211019734,1733129536209566831,3,2.5775,-0.87,1.97,4.408935666666667,-79.17,-80.66
1733129536408040731,1733129536407646656,3,2.5775,-0.87,1.97,4.346397666666667,-79.11,-81.11
1733129536508141621,1733129536507699489,3,2.5775,-0.87,1.97,4.265098,-78.74,-80.69
1733129536709691592,1733129536708799123,3,2.5775,-0.87,1.97,4.165037,-79.23,-81.13
1733129536910137765,1733129536909854412,3,2.5775,-0.87,1.97,4.052468333333334,-79.52,-80.55
1733129537010178117,1733129537009963750,3,2.5775,-0.87,1.97,3.964915,-79.26,-80.92
1733129537110207320,1733129537109940052,3,2.5775,-0.87,1.97,3.902377,-79.2,-80.55
1733129537310179512,1733129537309974193,3,2.5775,-0.87,1.97,3.846092666666667,-79.86,-80.77
1733129537507958510,1733129537507606267,3,2.5775,-0.87,1.97,3.7647930000000005,-79.23,-80.43
1733129537911269967,1733129537911173582,3,2.5775,-0.87,1.97,3.6397169999999996,-78.73,-80.77
1733129538009764453,1733129538009629726,3,2.5775,-0.87,1.97,3.5771786666666667,-79.13,-81.12
1733129538111164414,1733129538111038684,3,2.5775,-0.87,1.97,3.5584173333333333,-79.11,-80.78
1733129538207765239,1733129538207606077,3,2.5775,-0.87,1.97,3.552163333333333,-79.79,-81.19
1733129538310741931,1733129538310454368,3,2.5775,-0.87,1.97,3.552163333333333,-79.14,-80.59
1733129538409977322,1733129538409779548,3,2.5775,-0.87,1.97,3.533402,-79.14,-81.25
1733129538509733399,1733129538509546518,3,2.5775,-0.87,1.97,3.520894333333333,-79.19,-80.85
1733129538609513670,1733129538609369039,3,2.5775,-0.87,1.97,3.502133,-79.24,-80.48
1733129538710291075,1733129538709839344,3,2.5775,-0.87,1.97,3.495879,-79.5,-80.65
1733129538809993919,1733129538809566020,3,2.5775,-0.87,1.97,3.5021330000000006,-78.92,-80.46
1733129538910204725,1733129538909970998,3,2.5775,-0.87,1.97,3.552163333333333,-80.64,-81.32
1733129539010421385,1733129539010076522,3,2.5775,-0.87,1.97,3.5771786666666667,-79.5,-81.23
1733129539109829588,1733129539109700441,3,2.5775,-0.87,1.97,3.5896863333333333,-79.07,-80.73
1733129539209945991,1733129539209729433,3,2.5775,-0.87,1.97,3.5896863333333333,-78.88,-80.55
1733129539309940514,1733129539309675455,3,2.5775,-0.87,1.97,3.6209553333333333,-79.34,-80.86
1733129539409851425,1733129539409621000,3,2.5775,-0.87,1.97,3.6647320000000003,-79.07,-80.37
1733129539510071046,1733129539509773492,3,2.5775,-0.87,1.97,3.7147626666666667,-79.1,-80.51
1733129539610027039,1733129539609698534,3,2.5775,-0.87,1.97,3.789808666666667,-78.9,-80.83
1733129539709916534,1733129539709705114,3,2.5775,-0.87,1.97,3.864854333333333,-79.01,-80.42
1733129539809747692,1733129539809614181,3,2.5775,-0.87,1.97,3.9336463333333334,-78.98,-80.66
1733129539910224026,1733129539909802198,3,2.5775,-0.87,1.97,3.9899303333333336,-79.79,-80.57
1733129540009885181,1733129540009650707,3,2.5775,-0.87,1.97,4.046214666666667,-78.65,-80.75
1733129540110035598,1733129540109841585,3,2.5775,-0.87,1.97,4.1150063333333335,-78.73,-80.59
1733129540209797030,1733129540209632396,3,2.5775,-0.87,1.97,4.183798333333333,-79.08,-80.96
1733129540309773343,1733129540309628248,3,2.5775,-0.87,1.97,4.258844,-79.3,-80.76
1733129540409535791,1733129540409406423,3,2.5775,-0.87,1.97,4.346397333333333,-78.64,-80.45
1733129540509721649,1733129540509500265,3,2.5775,-0.87,1.97,4.433950666666667,-79.2,-80.47
1733129540609767667,1733129540609573841,3,2.5775,-0.87,1.97,4.51525,-79.54,-80.96
1733129540709666514,1733129540709530591,3,2.5775,-0.87,1.97,4.602803333333333,-79.6,-80.82
1733129540809871205,1733129540809703111,3,2.5775,-0.87,1.97,4.684103,-78.78,-80.69
1733129540909887349,1733129540909582614,3,2.5775,-0.87,1.97,4.777910333333334,-79.15,-81.17
1733129541009825870,1733129541009668350,3,2.5775,-0.87,1.97,4.865463666666667,-78.92,-80.53
1733129541109995692,1733129541109878301,3,2.5775,-0.87,1.97,4.940509333333334,-79.34,-80.66
1733129541210201547,1733129541209701538,3,2.5775,-0.87,1.97,5.034316333333333,-78.87,-80.78
1733129541509329903,1733129541508997678,3,2.5775,-0.87,1.97,5.171900333333333,-79.76,-80.81
1733129541608995144,1733129541608750581,3,2.5775,-0.87,1.97,5.359514333333333,-79.19,-80.8
1733129541708943131,1733129541708715438,3,2.5775,-0.87,1.97,5.540874666666667,-79.69,-80.93
1733129541809021748,1733129541808810234,3,2.5775,-0.87,1.97,5.653443,-79.47,-80.93
1733129541908910677,1733129541908721685,3,2.5775,-0.87,1.97,5.7660116666666665,-79.58,-80.67
1733129542010385882,1733129542010202646,3,2.5775,-0.87,1.97,5.866072666666668,-79.23,-80.66
1733129542110221692,1733129542109967470,3,2.5775,-0.87,1.97,5.972387666666666,-78.96,-80.76
1733129542209814284,1733129542209481239,3,2.5775,-0.87,1.97,6.059940999999999,-79.37,-81.12
1733129542310422070,1733129542310078144,3,2.5775,-0.87,1.97,6.160002000000001,-79.49,-81.04
1733129542410289117,1733129542409886837,3,2.5775,-0.87,1.97,6.2850779999999995,-79.47,-80.72
1733129542509908501,1733129542509763479,3,2.5775,-0.87,1.97,6.416408,-79.12,-80.61
1733129542709082007,1733129542708804130,3,2.5775,-0.87,1.97,6.591514666666666,-80.14,-81.72
1733129543709983956,1733129543709757328,3,2.5775,-0.87,1.97,7.842276666666667,-80.08,-80.48
1733129543810796348,1733129543810614109,3,2.5775,-0.87,1.97,7.936084000000001,-80.16,-81.03
1733129543910923845,1733129543910670995,3,2.5775,-0.87,1.97,8.042398666666665,-79.73,-80.79
1733129544009859710,1733129544009626865,3,2.5775,-0.87,1.97,8.154967333333333,-79.87,-81.95
1733129544111331133,1733129544110897302,3,2.5775,-0.87,1.97,8.273789666666667,-80.14,-81.27
1733129544209033450,1733129544208727836,3,2.5775,-0.87,1.97,8.392612,-80.03,-81.53
1733129544307952102,1733129544307627677,3,2.5775,-0.87,1.97,8.523942333333332,-79.85,-80.73
1733129544408130605,1733129544407649993,3,2.5775,-0.87,1.97,8.642764666666666,-79.85,-80.5
1733129544507954178,1733129544507633447,3,2.5775,-0.87,1.97,8.780348666666667,-80.35,-80.82
1733129544608133148,1733129544607657194,3,2.5775,-0.87,1.97,8.905424666666669,-79.91,-80.71
1733129544711419762,1733129544711219310,3,2.5775,-0.87,1.97,9.030501,-79.85,-80.65
1733129544809895457,1733129544809634447,3,2.5775,-0.87,1.97,9.130562,-79.97,-81.16
1733129544909705182,1733129544909573554,3,2.5775,-0.87,1.97,9.255638333333332,-80.41,-82.51
1733129545009904937,1733129545009740829,3,2.5775,-0.87,1.97,9.368206666666667,-80.34,-81.41
1733129545110290106,1733129545110203504,3,2.5775,-0.87,1.97,9.505790333333332,-79.98,-81.2
1733129545211459039,1733129545211172103,3,2.5775,-0.87,1.97,9.618358666666666,-79.79,-80.72
1733129545308084653,1733129545307658910,3,2.5775,-0.87,1.97,9.762196333333334,-80.36,-80.77
1733129545407989248,1733129545407610416,3,2.5775,-0.87,1.97,9.868511333333332,-80.12,-80.72
1733129545508063447,1733129545507617473,3,2.5775,-0.87,1.97,10.006095,-79.76,-80.45
1733129545607802200,1733129545607628345,3,2.5775,-0.87,1.97,10.099902333333333,-79.95,-80.57
1733129545708266353,1733129545707675933,3,2.5775,-0.87,1.97,10.249993333333332,-80.28,-80.68
1733129545807995774,1733129545807623863,3,2.5775,-0.87,1.97,10.362562,-80.21,-81.12
1733129545908066729,1733129545907628297,3,2.5775,-0.87,1.97,10.493891666666668,-80.17,-81.27
1733129546010992295,1733129546010787725,3,2.5775,-0.87,1.97,10.637729333333333,-83.29,-86.05
1733129546110861011,1733129546110598087,3,2.5775,-0.87,1.97,10.756551666666667,-80.76,-81.48
1733129546210956365,1733129546210671663,3,2.5775,-0.87,1.97,10.900389333333335,-81.49,-82.27
1733129546310520541,1733129546310312747,3,2.5775,-0.87,1.97,10.987942666666667,-81.49,-83.46
1733129546410958056,1733129546410746335,3,2.5775,-0.87,1.97,11.125526666666667,-80.47,-81.18
1733129546510452860,1733129546510374546,3,2.5775,-0.87,1.97,11.250603,-80.36,-80.96
1733129546610269728,1733129546610053777,3,2.5775,-0.87,1.97,11.375679333333332,-80.38,-81.11
1733129546710602545,1733129546710436344,3,2.5775,-0.87,1.97,11.507009333333334,-80.36,-81.03
1733129546810416260,1733129546810138702,3,2.5775,-0.87,1.97,11.619577999999999,-80.04,-80.59
1733129547210813805,1733129547210590362,3,2.5775,-0.87,1.97,12.151151666666665,-80.75,-81.19
1733129547310449486,1733129547310240983,3,2.5775,-0.87,1.97,12.269973666666667,-80.83,-81.24
1733129547410485920,1733129547410190105,3,2.5775,-0.87,1.97,12.382542333333333,-81.18,-81.98
1733129547511042950,1733129547510782718,3,2.5775,-0.87,1.97,12.495111000000001,-81.28,-83.79
1733129547610736493,1733129547610602140,3,2.5775,-0.87,1.97,12.613933333333334,-81.28,-84.13
1733129547710514067,1733129547710369110,3,2.5775,-0.87,1.97,12.739009666666666,-81.35,-83.28
1733129547810579942,1733129547810424089,3,2.5775,-0.87,1.97,12.895354666666668,-81.02,-82.41
1733129547910597003,1733129547910433053,3,2.5775,-0.87,1.97,13.026685,-80.61,-81.11
1733129548010531634,1733129548010369777,3,2.5775,-0.87,1.97,13.176776333333335,-80.66,-81.03
1733129548110435587,1733129548110341787,3,2.5775,-0.87,1.97,13.289345333333335,-80.43,-80.68
1733129548210906508,1733129548210713148,3,2.5775,-0.87,1.97,13.433183,-80.42,-81.8
1733129548310464830,1733129548310281038,3,2.5775,-0.87,1.97,13.564513,-80.33,-80.73
1733129548410588427,1733129548410446882,3,2.5775,-0.87,1.97,13.702096666666668,-80.23,-81.16
1733129548510436223,1733129548510280847,3,2.5775,-0.87,1.97,13.820918999999998,-80.02,-81.03
1733129548708050462,1733129548707635164,3,2.5775,-0.87,1.97,13.996025666666668,-80.33,-80.84
1733129548808088382,1733129548807630777,3,2.5775,-0.87,1.97,14.171132333333334,-81.06,-81.39
1733129548908072237,1733129548907678127,3,2.5775,-0.87,1.97,14.352492666666668,-80.85,-81.33
1733129549008074074,1733129549007615566,3,2.5775,-0.87,1.97,14.465061333333333,-81.61,-82.06
1733129549107910413,1733129549107613086,3,2.5775,-0.87,1.97,14.577629666666667,-82.02,-84.46
1733129549208054126,1733129549207645416,3,2.5775,-0.87,1.97,14.702706000000001,-81.92,-82.33
1733129549310741440,1733129549310469865,3,2.5775,-0.87,1.97,14.821528333333333,-82.13,-84.15
1733129549410673397,1733129549410433769,3,2.5775,-0.87,1.97,14.959112333333332,-82.57,-85.77
1733129549508050868,1733129549507636308,3,2.5775,-0.87,1.97,15.090442000000001,-82.22,-84.7
1733129549608001964,1733129549607619524,3,2.5775,-0.87,1.97,15.221771666666667,-81.96,-84.03
1733129549707954106,1733129549707624673,3,2.5775,-0.87,1.97,15.359355333333333,-82.1,-82.4
1733129549807983225,1733129549807622671,3,2.5775,-0.87,1.97,15.509447,-82.31,-82.96
1733129549908035726,1733129549907629728,3,2.5775,-0.87,1.97,15.647031333333333,-80.96,-81.25
1733129550007980708,1733129550007621526,3,2.5775,-0.87,1.97,15.778361333333335,-81.4,-82.33
1733129550110768024,1733129550110628604,3,2.5775,-0.87,1.97,15.903437333333335,-81.25,-81.17
1733129550211129610,1733129550210727930,3,2.5775,-0.87,1.97,16.072289666666666,-81.82,-81.4
1733129550310708863,1733129550310396194,3,2.5775,-0.87,1.97,16.222380666666666,-80.74,-81.03
1733129550410673410,1733129550410428524,3,2.5775,-0.87,1.97,16.353710333333336,-80.43,-81.01
1733129550510863107,1733129550510614156,3,2.5775,-0.87,1.97,16.460025333333334,-81.04,-81.15
1733129550708063001,1733129550707605361,3,2.5775,-0.87,1.97,16.616370666666665,-81.56,-81.25
1733129551109277729,1733129551109011650,3,2.5775,-0.87,1.97,17.166706,-80.72,-81.31
1733129551209183914,1733129551208889961,3,2.5775,-0.87,1.97,17.285528000000003,-81.51,-81.99
1733129551310719866,1733129551310519456,3,2.5775,-0.87,1.97,17.41685766666667,-81.96,-82.7
1733129551408204685,1733129551407674551,3,2.5775,-0.87,1.97,17.560695,-81.79,-81.43
1733129551508141474,1733129551507660388,3,2.5775,-0.87,1.97,17.710786666666664,-82.98,-82.98
1733129551607982508,1733129551607617139,3,2.5775,-0.87,1.97,17.854624333333334,-82.28,-81.89
1733129551707740698,1733129551707622289,3,2.5775,-0.87,1.97,17.97970066666667,-82.6,-82.39
1733129551808076690,1733129551807613849,3,2.5775,-0.87,1.97,18.104776333333334,-84.13,-84.12
1733129551907958125,1733129551907638549,3,2.5775,-0.87,1.97,18.217344999999998,-84.4,-85.54
1733129552008040399,1733129552007621288,3,2.5775,-0.87,1.97,18.34242133333333,-83.56,-83.04
1733129552107874788,1733129552107608318,3,2.5775,-0.87,1.97,18.45499,-84.55,-84.75
1733129552208053597,1733129552207632064,3,2.5775,-0.87,1.97,18.567558333333334,-86.44,-86.63
1733129552307769377,1733129552307603359,3,2.5775,-0.87,1.97,18.686380333333332,-84.93,-86.58
1733129552709572420,1733129552709151506,3,2.5775,-0.87,1.97,19.242969666666667,-83.12,-83.86
1733129552809169849,1733129552808861017,3,2.5775,-0.87,1.97,19.393061333333335,-84.03,-83.6
1733129552909187074,1733129552908900499,3,2.5775,-0.87,1.97,19.536899000000002,-82.77,-82.59
1733129553009027073,1733129553008829593,3,2.5775,-0.87,1.97,19.668228666666668,-83.56,-83.29
1733129553109262133,1733129553108877420,3,2.5775,-0.87,1.97,19.79955866666667,-83.99,-83.52
1733129553207970580,1733129553207626819,3,2.5775,-0.87,1.97,19.924635,-81.75,-81.55
1733129553308014500,1733129553307625055,3,2.5775,-0.87,1.97,20.05596566666667,-81.72,-81.29
1733129553407990499,1733129553407606363,3,2.5775,-0.87,1.97,20.181042,-82.32,-82.2
1733129553607910378,1733129553607629537,3,2.5775,-0.87,1.97,20.312372333333332,-81.54,-81.15
1733129553707957426,1733129553707619905,3,2.5775,-0.87,1.97,20.45621,-81.23,-80.97
1733129553807983640,1733129553807622194,3,2.5775,-0.87,1.97,20.587539666666668,-81.27,-81.57
1733129553908050599,1733129553907606840,3,2.5775,-0.87,1.97,20.706362,-81.93,-81.76
1733129554007895139,1733129554007624387,3,2.5775,-0.87,1.97,20.831437666666663,-82.37,-83.02
1733129554107945994,1733129554107597827,3,2.5775,-0.87,1.97,20.969022,-82.95,-82.45
1733129554208308214,1733129554207643032,3,2.5775,-0.87,1.97,21.087844,-81.73,-81.88
1733129554308047064,1733129554307611227,3,2.5775,-0.87,1.97,21.21917433333333,-81.89,-81.72
1733129554408242646,1733129554407649517,3,2.5775,-0.87,1.97,21.331742666666667,-81.59,-81.3
1733129554507976940,1733129554507615327,3,2.5775,-0.87,1.97,21.46932666666667,-81.96,-81.69
1733129554607929296,1733129554607620716,3,2.5775,-0.87,1.97,21.581895333333335,-81.0,-81.48
1733129555008106386,1733129555007623910,3,2.5775,-0.87,1.97,22.144738,-82.66,-82.5
1733129555107957468,1733129555107633829,3,2.5775,-0.87,1.97,22.263560333333334,-81.49,-81.76
1733129555207992643,1733129555207628488,3,2.5775,-0.87,1.97,22.407398,-81.93,-81.82
1733129555308094797,1733129555307617902,3,2.5775,-0.87,1.97,22.53247433333333,-82.55,-84.27
1733129555408210138,1733129555407616853,3,2.5775,-0.87,1.97,22.64504266666667,-81.6,-81.62
1733129555507989825,1733129555507607221,3,2.5775,-0.87,1.97,22.776372666666663,-82.3,-82.16
1733129555608096721,1733129555607640266,3,2.5775,-0.87,1.97,22.907702333333333,-83.26,-84.5
1733129555708007611,1733129555707637071,3,2.5775,-0.87,1.97,23.039032333333335,-82.87,-83.11
1733129555808049477,1733129555807595968,3,2.5775,-0.87,1.97,23.17661633333334,-82.86,-82.61
1733129555909825163,1733129555909689664,3,2.5775,-0.87,1.97,23.301692666666668,-82.72,-84.05
1733129556111049533,1733129556110835790,3,2.5775,-0.87,1.97,23.49556133333333,-84.5,-87.61
1733129556210702949,1733129556210461616,3,2.5775,-0.87,1.97,23.651906666666665,-83.58,-84.21
1733129556310623244,1733129556310488462,3,2.5775,-0.87,1.97,23.833267000000003,-84.01,-83.96
1733129556410442142,1733129556410346031,3,2.5775,-0.87,1.97,23.939581333333333,-84.45,-86.69
1733129556510427696,1733129556510293483,3,2.5775,-0.87,1.97,24.070911,-85.53,-87.21
1733129556610933523,1733129556610764503,3,2.5775,-0.87,1.97,24.195987333333335,-85.13,-86.61
1733129556709114230,1733129556708839893,3,2.5775,-0.87,1.97,24.33982466666667,-85.03,-85.8
1733129556808932355,1733129556808825969,3,2.5775,-0.87,1.97,24.471154666666667,-85.79,-87.56
1733129556909090735,1733129556908806800,3,2.5775,-0.87,1.97,24.602484333333337,-86.31,-87.63
1733129557008916191,1733129557008755922,3,2.5775,-0.87,1.97,24.727560666666665,-88.29,-89.4
1733129557109516144,1733129557109109401,3,2.5775,-0.87,1.97,24.852636999999998,-88.16,-89.69
1733129557208683129,1733129557207737684,3,2.5775,-0.87,1.97,24.971459666666664,-87.14,-88.5
1733129557308221214,1733129557307689666,3,2.5775,-0.87,1.97,25.11529733333333,-86.36,-88.09
1733129557410122440,1733129557409986019,3,2.5775,-0.87,1.97,25.252880666666666,-86.38,-87.34
1733129557708059802,1733129557707623004,3,2.5775,-0.87,1.97,25.471763666666664,-85.53,-87.36
1733129558210831026,1733129558210647583,3,2.5775,-0.87,1.97,26.165937666666668,-85.94,-87.36
1733129558310045783,1733129558309870243,3,2.5775,-0.87,1.97,26.341044333333333,-85.49,-88.49
1733129558410524657,1733129558410401105,3,2.5775,-0.87,1.97,26.503643333333333,-84.81,-85.2
1733129558510975713,1733129558510783195,3,2.5775,-0.87,1.97,26.659988,-85.46,-87.08
1733129558608974694,1733129558608806371,3,2.5775,-0.87,1.97,26.80382566666667,-84.77,-85.29
1733129558709128459,1733129558708923578,3,2.5775,-0.87,1.97,26.947663333333338,-83.76,-86.09
1733129558808932425,1733129558808745145,3,2.5775,-0.87,1.97,27.097755000000003,-85.77,-87.43
1733129558909273328,1733129558909184455,3,2.5775,-0.87,1.97,27.222830666666667,-86.19,-86.33
1733129559009161729,1733129559008902549,3,2.5775,-0.87,1.97,27.347907000000003,-83.93,-85.41
1733129559109104817,1733129559108980655,3,2.5775,-0.87,1.97,27.479237,-84.19,-84.07
1733129559209440996,1733129559209069490,3,2.5775,-0.87,1.97,27.616821,-83.01,-85.0
1733129559309612007,1733129559309005975,3,2.5775,-0.87,1.97,27.766912,-82.72,-82.91
1733129559410191399,1733129559410016298,3,2.5775,-0.87,1.97,27.917002999999998,-85.8,-86.63
1733129559510199049,1733129559509936332,3,2.5775,-0.87,1.97,28.042079333333334,-82.68,-82.56
1733129559640339210,1733129559640182971,3,2.5775,-0.87,1.97,28.185917,-82.92,-82.61
1733129559709913942,1733129559709752798,3,2.5775,-0.87,1.97,28.30474,-83.08,-82.59
1733129559810926800,1733129559810754299,3,2.5775,-0.87,1.97,28.43606966666667,-82.28,-82.09
1733129559911769464,1733129559911585569,3,2.5775,-0.87,1.97,28.542384666666667,-82.29,-81.96
1733129560012650873,1733129560011685848,3,2.5775,-0.87,1.97,28.673714333333333,-82.19,-81.71
1733129560111702021,1733129560111458778,3,2.5775,-0.87,1.97,28.823806333333334,-82.71,-82.09
1733129560210673737,1733129560210352420,3,2.5775,-0.87,1.97,28.967643999999996,-83.25,-82.61
1733129560309845983,1733129560309710025,3,2.5775,-0.87,1.97,29.092720333333332,-82.91,-82.61
1733129560409701955,1733129560409499883,3,2.5775,-0.87,1.97,29.199034666666666,-81.82,-82.49
1733129560510074401,1733129560509568929,3,2.5775,-0.87,1.97,29.330364333333335,-82.03,-82.44
1733129560609826627,1733129560609617948,3,2.5775,-0.87,1.97,29.46169433333333,-82.73,-83.13
1733129560709818611,1733129560709514379,3,2.5775,-0.87,1.97,29.586770666666666,-81.57,-81.46
1733129560809919901,1733129560809621572,3,2.5775,-0.87,1.97,29.69933933333333,-81.87,-81.86
1733129560910228564,1733129560909933567,3,2.5775,-0.87,1.97,29.843176666666665,-82.82,-82.87
1733129561009931270,1733129561009726285,3,2.5775,-0.87,1.97,29.974506333333334,-82.61,-82.74
1733129561110273413,1733129561110027551,3,2.5775,-0.87,1.97,30.118343999999997,-81.39,-81.19
1733129561209916408,1733129561209722995,3,2.5775,-0.87,1.97,30.243420333333333,-82.03,-82.17
1733129561309720005,1733129561309549331,3,2.5775,-0.87,1.97,30.36849666666667,-81.64,-81.43
1733129561507997780,1733129561507632732,3,2.5775,-0.87,1.97,30.524841999999996,-81.64,-81.91
1733129561608078177,1733129561607660531,3,2.5775,-0.87,1.97,30.699948666666668,-81.79,-81.47
1733129561707813312,1733129561707640409,3,2.5775,-0.87,1.97,30.893816666666666,-81.59,-81.6
1733129561807988226,1733129561807625770,3,2.5775,-0.87,1.97,31.031400666666666,-81.85,-81.93
1733129561908055789,1733129561907625675,3,2.5775,-0.87,1.97,31.156477,-81.99,-83.03
1733129562007985798,1733129562007635593,3,2.5775,-0.87,1.97,31.28155333333333,-82.04,-81.83
1733129562109992719,1733129562109750509,3,2.5775,-0.87,1.97,31.419136666666663,-82.31,-82.42
1733129562209830298,1733129562209562540,3,2.5775,-0.87,1.97,31.550466666666665,-81.92,-82.72
1733129562309740958,1733129562309458017,3,2.5775,-0.87,1.97,31.700558,-81.68,-81.92
1733129562410311396,1733129562409911155,3,2.5775,-0.87,1.97,31.838142,-82.14,-83.01
1733129562509900862,1733129562509635686,3,2.5775,-0.87,1.97,31.956964,-82.33,-82.88
1733129562610053018,1733129562609914541,3,2.5775,-0.87,1.97,32.075786666666666,-82.53,-82.53
1733129562709764906,1733129562709557533,3,2.5775,-0.87,1.97,32.20086233333333,-82.03,-82.48
1733129562810445108,1733129562809604883,3,2.5775,-0.87,1.97,32.338445666666665,-81.79,-82.22
1733129562909694258,1733129562909507036,3,2.5775,-0.87,1.97,32.45726833333333,-81.98,-81.95
1733129563208983297,1733129563208811759,3,2.5775,-0.87,1.97,32.68240566666667,-82.22,-81.94
1733129563308970276,1733129563308769702,3,2.5775,-0.87,1.97,32.90128933333333,-83.51,-83.72
1733129563409416356,1733129563409084558,3,2.5775,-0.87,1.97,33.120171666666664,-83.15,-85.02
1733129563509008056,1733129563508657693,3,2.5775,-0.87,1.97,33.24524766666667,-83.46,-83.84
1733129563608832276,1733129563608608245,3,2.5775,-0.87,1.97,33.38283233333333,-83.25,-84.98
1733129563810213887,1733129563809807538,3,2.5775,-0.87,1.97,33.55793966666666,-83.3,-83.45
1733129564210785351,1733129564210566759,3,2.5775,-0.87,1.97,34.15205066666667,-84.75,-86.28
1733129564310382516,1733129564310183286,3,2.5775,-0.87,1.97,34.277127,-84.21,-85.74
1733129564410349032,1733129564410042524,3,2.5775,-0.87,1.97,34.420965333333335,-84.42,-85.01
1733129564510244599,1733129564510174512,3,2.5775,-0.87,1.97,34.56480366666667,-85.13,-84.92
1733129564641375382,1733129564641163349,3,2.5775,-0.87,1.97,34.68988,-85.43,-86.01
1733129564710931699,1733129564710706233,3,2.5775,-0.87,1.97,34.814955,-88.26,-89.27
1733129564810790106,1733129564810396909,3,2.5775,-0.87,1.97,34.92752266666667,-87.04,-88.53
1733129564911661191,1733129564911082744,3,2.5775,-0.87,1.97,35.071359666666666,-86.9,-86.89
1733129565010902440,1733129565010727405,3,2.5775,-0.87,1.97,35.196436,-86.62,-86.8
1733129565110196086,1733129565110107660,3,2.5775,-0.87,1.97,35.327767333333334,-86.06,-89.56
1733129565209931006,1733129565209743261,3,2.5775,-0.87,1.97,35.44033666666667,-85.64,-88.02
1733129565310523147,1733129565310198545,3,2.5775,-0.87,1.97,35.546652333333334,-86.0,-90.63
1733129565508036826,1733129565507616758,3,2.5775,-0.87,1.97,35.71550466666667,-87.74,-92.26
1733129565608011571,1733129565607678174,3,2.5775,-0.87,1.97,35.896863999999994,-87.85,-90.56
1733129565708128429,1733129565707673788,3,2.5775,-0.87,1.97,36.08447833333333,-88.51,-90.87
1733129565808196117,1733129565807698488,3,2.5775,-0.87,1.97,36.20955466666667,-90.31,-93.35
1733129565908093771,1733129565907641649,3,2.5775,-0.87,1.97,36.309616999999996,-90.94,-93.56
1733129566008222990,1733129566007645606,3,2.5775,-0.87,1.97,36.42843833333333,-92.07,-94.28
1733129566110865826,1733129566110580921,3,2.5775,-0.87,1.97,36.541006333333335,-91.28,-95.0
1733129566210399802,1733129566209998846,3,2.5775,-0.87,1.97,36.67858966666667,-89.99,-95.9
1733129566310199988,1733129566309982538,3,2.5775,-0.87,1.97,36.809919666666666,-90.03,-93.39
1733129566409846630,1733129566409675121,3,2.5775,-0.87,1.97,36.94124933333333,-90.27,-93.61
1733129566510322029,1733129566510066270,3,2.5775,-0.87,1.97,37.08508633333333,-90.23,-95.58
1733129566610282786,1733129566609940052,3,2.5775,-0.87,1.97,37.21016266666667,-91.62,-94.57
1733129566709973771,1733129566709735393,3,2.5775,-0.87,1.97,37.328985333333335,-93.67,-97.29
1733129566810163154,1733129566809921264,3,2.5775,-0.87,1.97,37.441554333333336,-90.64,-94.12
1733129566909960094,1733129566909687280,3,2.5775,-0.87,1.97,37.58539266666667,-90.25,-93.1
1733129567010094862,1733129567009769916,3,2.5775,-0.87,1.97,37.75424533333333,-90.51,-93.03
1733129567109786424,1733129567109642744,3,2.5775,-0.87,1.97,37.93560633333333,-94.03,-94.53
1733129567210134373,1733129567209734678,3,2.5775,-0.87,1.97,38.09195166666667,-91.01,-92.4
1733129567309666769,1733129567309484958,3,2.5775,-0.87,1.97,38.22328266666667,-89.95,-91.44
1733129567410122842,1733129567409794807,3,2.5775,-0.87,1.97,38.360866,-90.25,-90.11
1733129567509822041,1733129567509589433,3,2.5775,-0.87,1.97,38.49219566666667,-90.92,-92.11
1733129567610442749,1733129567610179901,3,2.5775,-0.87,1.97,38.64228633333334,-89.04,-90.43
1733129567709808358,1733129567709583282,3,2.5775,-0.87,1.97,38.74860066666667,-89.32,-91.06
1733129567809823537,1733129567809591054,3,2.5775,-0.87,1.97,38.873676999999994,-87.89,-88.51
1733129567909866058,1733129567909668684,3,2.5775,-0.87,1.97,38.99875333333333,-88.59,-89.72
1733129568009824751,1733129568009597778,3,2.5775,-0.87,1.97,39.148845333333334,-88.3,-88.13
1733129568110166201,1733129568110004663,3,2.5775,-0.87,1.97,39.286428666666666,-88.22,-87.91
1733129568210113774,1733129568209887981,3,2.5775,-0.87,1.97,39.424012,-87.91,-87.26
1733129568309819834,1733129568309685945,3,2.5775,-0.87,1.97,39.54283466666667,-87.75,-88.99
1733129568409759793,1733129568409539222,3,2.5775,-0.87,1.97,39.67416466666666,-89.47,-89.82
1733129568509695517,1733129568509495019,3,2.5775,-0.87,1.97,39.81174933333333,-88.42,-87.85
1733129568608874540,1733129568608564853,3,2.5775,-0.87,1.97,39.968093333333336,-86.18,-88.94
1733129568710120932,1733129568709943771,3,2.5775,-0.87,1.97,40.12443866666667,-86.11,-86.24
1733129568811002821,1733129568810748100,3,2.5775,-0.87,1.97,40.25576866666666,-87.04,-89.87
1733129568910785648,1733129568910700321,3,2.5775,-0.87,1.97,40.38709966666667,-87.62,-89.61
1733129569010361204,1733129569010052442,3,2.5775,-0.87,1.97,40.512176000000004,-85.76,-86.92
1733129569110924815,1733129569110684871,3,2.5775,-0.87,1.97,40.64350566666667,-86.24,-87.25
1733129569207917281,1733129569207640409,3,2.5775,-0.87,1.97,40.76232733333333,-87.71,-88.78
1733129569308031945,1733129569307646989,3,2.5775,-0.87,1.97,40.887403666666664,-86.6,-87.73
1733129569407967094,1733129569407616615,3,2.5775,-0.87,1.97,41.012480000000004,-85.87,-86.57
1733129569508013542,1733129569507668972,3,2.5775,-0.87,1.97,41.14380966666666,-85.08,-85.26
1733129569607942820,1733129569607639551,3,2.5775,-0.87,1.97,41.27513933333333,-87.76,-88.23
1733129570007921799,1733129570007626533,3,2.5775,-0.87,1.97,41.82547466666667,-86.05,-86.72
1733129570107955943,1733129570107640027,3,2.5775,-0.87,1.97,41.938043666666665,-87.71,-89.01
1733129570207974632,1733129570207621812,3,2.5775,-0.87,1.97,42.06937366666667,-85.56,-85.12
1733129570307916467,1733129570307630062,3,2.5775,-0.87,1.97,42.21321166666667,-84.24,-83.64
1733129570407989951,1733129570407628536,3,2.5775,-0.87,1.97,42.344541666666665,-84.72,-84.23
1733129570509041387,1733129570508754014,3,2.5775,-0.87,1.97,42.48838,-85.43,-84.71
1733129570608966091,1733129570608689308,3,2.5775,-0.87,1.97,42.607203,-84.9,-86.15
1733129570709656056,1733129570709555625,3,2.5775,-0.87,1.97,42.74478633333333,-84.4,-83.66
1733129570810169662,1733129570809826135,3,2.5775,-0.87,1.97,42.85735400000001,-85.37,-84.8
1733129570910285347,1733129570910073041,3,2.5775,-0.87,1.97,42.97617533333334,-85.65,-84.94
1733129571010552204,1733129571010293245,3,2.5775,-0.87,1.97,43.10125166666666,-83.99,-83.3
1733129571110379799,1733129571110190629,3,2.5775,-0.87,1.97,43.257597,-84.3,-85.93
1733129571209813770,1733129571209678173,3,2.5775,-0.87,1.97,43.40768866666667,-83.64,-82.96
1733129571310047180,1733129571309646129,3,2.5775,-0.87,1.97,43.539018666666664,-83.99,-84.84
1733129571409157999,1733129571408914327,3,2.5775,-0.87,1.97,43.664094999999996,-84.09,-85.48
1733129571509965567,1733129571509797096,3,2.5775,-0.87,1.97,43.782917999999995,-85.02,-85.36
1733129571609098758,1733129571608931541,3,2.5775,-0.87,1.97,43.914247666666675,-83.83,-83.31
1733129571709599508,1733129571709250450,3,2.5775,-0.87,1.97,44.03307066666667,-84.64,-86.62
1733129571809160922,1733129571808888912,3,2.5775,-0.87,1.97,44.189416,-84.22,-85.49
1733129571909231387,1733129571908774137,3,2.5775,-0.87,1.97,44.333254333333336,-86.41,-86.11
1733129572009134354,1733129572008869409,3,2.5775,-0.87,1.97,44.45832933333333,-84.21,-85.97
1733129572109131613,1733129572108708620,3,2.5775,-0.87,1.97,44.55839,-84.67,-84.74
1733129572210568653,1733129572210317134,3,2.5775,-0.87,1.97,44.67721133333333,-84.53,-84.51
1733129572310176349,1733129572309915304,3,2.5775,-0.87,1.97,44.814796,-84.45,-84.53
1733129572410057519,1733129572409773588,3,2.5775,-0.87,1.97,44.95237933333333,-83.18,-82.55
1733129572508148387,1733129572507627725,3,2.5775,-0.87,1.97,45.071202,-83.63,-83.1
1733129572609231506,1733129572608890771,3,2.5775,-0.87,1.97,45.19002333333333,-86.07,-88.47
1733129572709504236,1733129572709020853,3,2.5775,-0.87,1.97,45.32760666666667,-84.2,-83.65
1733129572810296673,1733129572810115575,3,2.5775,-0.87,1.97,45.471444999999996,-84.78,-84.6
1733129572910116986,1733129572909952878,3,2.5775,-0.87,1.97,45.61528333333334,-84.65,-84.05
1733129573009947565,1733129573009736299,3,2.5775,-0.87,1.97,45.72785266666667,-83.5,-83.67
1733129573108118587,1733129573107627630,3,2.5775,-0.87,1.97,45.84667433333334,-83.98,-84.32
1733129573207909120,1733129573207611799,3,2.5775,-0.87,1.97,45.978004,-83.5,-82.95
1733129573307973791,1733129573307618141,3,2.5775,-0.87,1.97,46.13434933333334,-84.25,-83.9
1733129573408097015,1733129573407627105,3,2.5775,-0.87,1.97,46.265679000000006,-83.89,-83.5
1733129573508132422,1733129573507650852,3,2.5775,-0.87,1.97,46.39075533333334,-83.58,-83.31
1733129573610979237,1733129573610520362,3,2.5775,-0.87,1.97,46.503323333333334,-84.12,-84.49
1733129574109033081,1733129574108693599,3,2.5775,-0.87,1.97,47.091182,-84.93,-86.31
1733129574209722341,1733129574209342002,3,2.5775,-0.87,1.97,47.191242666666675,-83.56,-83.25
1733129574307968832,1733129574307622671,3,2.5775,-0.87,1.97,47.266288,-83.95,-83.97
1733129574408179840,1733129574407612562,3,2.5775,-0.87,1.97,47.322572666666666,-83.39,-83.07
1733129574509991281,1733129574509698867,3,2.5775,-0.87,1.97,47.35384200000001,-83.69,-83.26
1733129574609745799,1733129574609448194,3,2.5775,-0.87,1.97,47.385110999999995,-82.74,-84.79
1733129574707973544,1733129574707659244,3,2.5775,-0.87,1.97,47.416380000000004,-83.09,-84.84
1733129574808086483,1733129574807623863,3,2.5775,-0.87,1.97,47.44139533333333,-82.85,-84.58
1733129574910547714,1733129574910239934,3,2.5775,-0.87,1.97,47.460157333333335,-83.0,-82.77
1733129575010611279,1733129575010161161,3,2.5775,-0.87,1.97,47.466411,-82.28,-82.47
1733129575110543228,1733129575110397577,3,2.5775,-0.87,1.97,47.466411,-82.19,-82.84
1733129575308935608,1733129575308675527,3,2.5775,-0.87,1.97,47.453904,-87.13,-88.0
1733129575908043386,1733129575907615423,3,2.5775,-0.87,1.97,47.46015633333334,-83.95,-83.8
1733129576007824411,1733129576007531881,3,2.5775,-0.87,1.97,47.453902666666664,-82.36,-84.22
1733129576107894718,1733129576107612133,3,2.5775,-0.87,1.97,47.47266466666667,-82.89,-82.72
1733129576210924105,1733129576210759162,3,2.5775,-0.87,1.97,47.47266466666667,-82.31,-82.73
1733129576307912562,1733129576307626485,3,2.5775,-0.87,1.97,47.485171666666666,-82.64,-82.57
1733129576409956663,1733129576409577369,3,2.5775,-0.87,1.97,47.49142533333333,-82.33,-84.17
1733129576508081220,1733129576507622480,3,2.5775,-0.87,1.97,47.497678666666665,-83.83,-84.0
1733129576608155136,1733129576607622146,3,2.5775,-0.87,1.97,47.497678666666665,-82.68,-84.2
1733129576709930978,1733129576709739923,3,2.5775,-0.87,1.97,47.522694,-84.23,-83.9
1733129576809282076,1733129576809025764,3,2.5775,-0.87,1.97,47.522694,-82.44,-84.08
1733129576909836384,1733129576909417867,3,2.5775,-0.87,1.97,47.522694,-82.21,-83.67
1733129577009760932,1733129577009609460,3,2.5775,-0.87,1.97,47.51644066666666,-82.82,-82.99
1733129577109316490,1733129577108781337,3,2.5775,-0.87,1.97,47.541456333333336,-82.48,-83.55
1733129577209088702,1733129577208812475,3,2.5775,-0.87,1.97,47.56021833333333,-82.17,-82.22
1733129577309821772,1733129577309653520,3,2.5775,-0.87,1.97,47.578979000000004,-83.21,-84.97
1733129577410173295,1733129577409942626,3,2.5775,-0.87,1.97,47.578979000000004,-83.68,-84.62
1733129577510535058,1733129577509634494,3,2.5775,-0.87,1.97,47.58523266666666,-82.48,-82.46
1733129577607996972,1733129577607620954,3,2.5775,-0.87,1.97,47.578979,-82.33,-83.22
1733129577709205746,1733129577708937406,3,2.5775,-0.87,1.97,47.578979,-82.34,-82.18
1733129577809396737,1733129577809141159,3,2.5775,-0.87,1.97,47.59774099999999,-82.15,-82.2
1733129577909333091,1733129577909010887,3,2.5775,-0.87,1.97,47.59148733333333,-83.02,-82.94
1733129578010369846,1733129578010133266,3,2.5775,-0.87,1.97,47.597741000000006,-82.46,-82.69
1733129578110153365,1733129578109862565,3,2.5775,-0.87,1.97,47.58523266666666,-82.91,-82.65
1733129578210198054,1733129578210037708,3,2.5775,-0.87,1.97,47.59774000000001,-83.23,-84.16
1733129578309797578,1733129578309643507,3,2.5775,-0.87,1.97,47.61024833333334,-83.45,-83.08
1733129578409958215,1733129578409668684,3,2.5775,-0.87,1.97,47.610248333333324,-82.18,-83.31
1733129578509806887,1733129578509582996,3,2.5775,-0.87,1.97,47.62275666666667,-82.23,-81.9
1733129578608991926,1733129578608745813,3,2.5775,-0.87,1.97,47.603994666666665,-82.12,-82.17
1733129578709086150,1733129578708872556,3,2.5775,-0.87,1.97,47.603994666666665,-83.04,-82.93
1733129578808120666,1733129578807640790,3,2.5775,-0.87,1.97,47.59774099999999,-82.25,-83.5
1733129578909971843,1733129578909700632,3,2.5775,-0.87,1.97,47.610249333333336,-82.25,-82.64
1733129579010149410,1733129579009824991,3,2.5775,-0.87,1.97,47.610249333333336,-83.01,-83.0
1733129579110433458,1733129579110186100,3,2.5775,-0.87,1.97,47.610249333333336,-82.9,-82.64
1733129579209548681,1733129579209125518,3,2.5775,-0.87,1.97,47.610249333333336,-83.93,-85.56
1733129579309569758,1733129579309226036,3,2.5775,-0.87,1.97,47.60399566666666,-82.09,-81.93
1733129579409392778,1733129579409065961,3,2.5775,-0.87,1.97,47.60399566666666,-82.32,-83.33
1733129579507920878,1733129579507637977,3,2.5775,-0.87,1.97,47.60399566666666,-82.27,-82.04
1733129579639281661,1733129579638934373,3,2.5775,-0.87,1.97,47.610249333333336,-83.15,-82.78
1733129579709048235,1733129579708805561,3,2.5775,-0.87,1.97,47.610249333333336,-82.58,-82.16
1733129579808999294,1733129579808734655,3,2.5775,-0.87,1.97,47.603994666666665,-82.78,-82.52
1733129579907950190,1733129579907648563,3,2.5775,-0.87,1.97,47.616503,-83.42,-83.12
1733129580008038228,1733129580007645130,3,2.5775,-0.87,1.97,47.610248333333324,-82.9,-82.57
1733129580109171324,1733129580108963727,3,2.5775,-0.87,1.97,47.603994666666665,-82.19,-84.14
1733129580209021018,1733129580208913087,3,2.5775,-0.87,1.97,47.59148633333333,-81.99,-82.44
1733129580309693184,1733129580309562683,3,2.5775,-0.87,1.97,47.59774099999999,-83.06,-84.79
1733129580709702664,1733129580709563493,3,2.5775,-0.87,1.97,47.616503,-82.56,-82.49
1733129580809725086,1733129580809529781,3,2.5775,-0.87,1.97,47.62275666666667,-82.28,-83.88
1733129580909030845,1733129580908771276,3,2.5775,-0.87,1.97,47.63526400000001,-82.08,-81.84
1733129581708097534,1733129581707599401,3,2.5775,-0.87,1.97,47.660279333333335,-82.86,-82.62
1733129581808044088,1733129581807602882,3,2.5775,-0.87,1.97,47.666532999999994,-81.99,-81.76
1733129581909735903,1733129581909618139,3,2.5775,-0.87,1.97,47.660279333333335,-81.92,-82.3
1733129582010656607,1733129582010388374,3,2.5775,-0.87,1.97,47.67278633333333,-82.61,-82.44
1733129582110394684,1733129582110214233,3,2.5775,-0.87,1.97,47.66653266666666,-83.0,-82.7
1733129582210072580,1733129582209806442,3,2.5775,-0.87,1.97,47.679039666666675,-82.4,-83.33
1733129582310066830,1733129582309904336,3,2.5775,-0.87,1.97,47.68529433333333,-82.51,-82.5
1733129582410037753,1733129582409745931,3,2.5775,-0.87,1.97,47.704056333333334,-82.47,-82.22
1733129582510011170,1733129582509779453,3,2.5775,-0.87,1.97,47.71656466666666,-82.29,-83.74
1733129582610174282,1733129582609946012,3,2.5775,-0.87,1.97,47.71656466666666,-82.09,-83.0
1733129582709806323,1733129582709666252,3,2.5775,-0.87,1.97,47.72907166666666,-82.91,-82.71
1733129582809934261,1733129582809739351,3,2.5775,-0.87,1.97,47.741579,-82.89,-82.7
1733129582909752008,1733129582909535408,3,2.5775,-0.87,1.97,47.760339666666674,-82.55,-84.81
1733129583010109271,1733129583009889841,3,2.5775,-0.87,1.97,47.760339666666674,-82.74,-84.15
1733129583110007024,1733129583109767198,3,2.5775,-0.87,1.97,47.760339666666674,-83.77,-83.36
1733129583209970602,1733129583209639310,3,2.5775,-0.87,1.97,47.760339666666674,-82.23,-83.54
1733129583309523905,1733129583309368371,3,2.5775,-0.87,1.97,47.75408633333333,-82.96,-82.95
1733129583409796010,1733129583409658193,3,2.5775,-0.87,1.97,47.760339666666674,-82.39,-82.18
1733129583510245253,1733129583509883880,3,2.5775,-0.87,1.97,47.76659333333333,-82.9,-84.85
1733129583610218901,1733129583609926462,3,2.5775,-0.87,1.97,47.785354000000005,-82.73,-82.59
1733129583710100075,1733129583709811687,3,2.5775,-0.87,1.97,47.79786133333334,-82.38,-83.9
1733129583809739871,1733129583809561014,3,2.5775,-0.87,1.97,47.804115,-84.26,-84.73
1733129583909711193,1733129583909541845,3,2.5775,-0.87,1.97,47.791607666666664,-84.2,-84.82
1733129584009892248,1733129584009671688,3,2.5775,-0.87,1.97,47.77284699999999,-83.16,-83.04
1733129584109809285,1733129584109598159,3,2.5775,-0.87,1.97,47.75408633333333,-81.96,-81.87
1733129584207922227,1733129584207638502,3,2.5775,-0.87,1.97,47.73532566666666,-82.14,-81.95
1733129584409883652,1733129584409625053,3,2.5775,-0.87,1.97,47.691549333333334,-82.25,-84.43
1733129584809923234,1733129584809675693,3,2.5775,-0.87,1.97,47.528949000000004,-84.06,-85.55
1733129584909714654,1733129584909454107,3,2.5775,-0.87,1.97,47.50393366666666,-85.45,-85.28
1733129585010662164,1733129585010413646,3,2.5775,-0.87,1.97,47.478918,-83.58,-82.93
1733129585107935716,1733129585107620716,3,2.5775,-0.87,1.97,47.447649000000006,-83.87,-83.37
1733129585207962112,1733129585207619667,3,2.5775,-0.87,1.97,47.42888833333333,-84.7,-84.35
1733129585309076789,1733129585308774471,3,2.5775,-0.87,1.97,47.403873000000004,-83.75,-84.41
1733129585409252696,1733129585408924102,3,2.5775,-0.87,1.97,47.41012800000001,-83.72,-85.32
1733129585509071820,1733129585508846998,3,2.5775,-0.87,1.97,47.391366000000005,-84.38,-84.86
1733129585609006573,1733129585608803272,3,2.5775,-0.87,1.97,47.403873000000004,-84.05,-83.44
1733129585709175251,1733129585708849668,3,2.5775,-0.87,1.97,47.385111,-84.05,-83.48
1733129585808060555,1733129585807693243,3,2.5775,-0.87,1.97,47.397618,-83.71,-83.18
1733129586208897436,1733129586208721876,3,2.5775,-0.87,1.97,47.435141666666674,-83.9,-85.7
1733129586307873489,1733129586307599306,3,2.5775,-0.87,1.97,47.42263333333333,-83.64,-83.0
1733129586408063435,1733129586407605409,3,2.5775,-0.87,1.97,47.397618,-84.99,-84.73
1733129586507916992,1733129586507618188,3,2.5775,-0.87,1.97,47.39136466666667,-83.62,-85.63
1733129586608010236,1733129586607645511,3,2.5775,-0.87,1.97,47.385111333333334,-83.89,-83.46
1733129586708023509,1733129586707589626,3,2.5775,-0.87,1.97,47.391365,-83.25,-82.7
1733129586808043273,1733129586807619571,3,2.5775,-0.87,1.97,47.37885766666667,-83.93,-83.91
1733129586907946578,1733129586907607793,3,2.5775,-0.87,1.97,47.35384199999999,-83.6,-83.11
1733129587008052546,1733129587007690191,3,2.5775,-0.87,1.97,47.335081333333335,-83.51,-84.92
1733129587108207571,1733129587107656955,3,2.5775,-0.87,1.97,47.31631933333333,-82.93,-83.15
1733129587208036803,1733129587207608938,3,2.5775,-0.87,1.97,47.291305,-83.56,-83.02
1733129587308027339,1733129587307636260,3,2.5775,-0.87,1.97,47.24752733333333,-84.18,-85.08
1733129587408003868,1733129587407611370,3,2.5775,-0.87,1.97,47.20375133333334,-84.49,-83.94
1733129587507957725,1733129587507623434,3,2.5775,-0.87,1.97,47.15372033333333,-83.49,-83.71
1733129587608066835,1733129587607631444,3,2.5775,-0.87,1.97,47.103690666666665,-83.88,-85.74
1733129587707985475,1733129587707608938,3,2.5775,-0.87,1.97,47.066168000000005,-82.82,-82.31
1733129587807932888,1733129587807621002,3,2.5775,-0.87,1.97,47.04115266666667,-83.59,-83.06
1733129587907910475,1733129587907609462,3,2.5775,-0.87,1.97,46.984868,-83.92,-85.15
1733129588008039606,1733129588007655382,3,2.5775,-0.87,1.97,46.90982133333333,-84.53,-83.83
1733129588108148877,1733129588107625722,3,2.5775,-0.87,1.97,46.822269000000006,-83.52,-83.51
1733129588208138136,1733129588207636117,3,2.5775,-0.87,1.97,46.772237999999994,-83.86,-83.32
1733129588308139757,1733129588307631731,3,2.5775,-0.87,1.97,46.71595466666667,-83.81,-83.27
1733129588408049075,1733129588407599449,3,2.5775,-0.87,1.97,46.66592333333333,-82.87,-82.4
1733129588508306060,1733129588507622718,3,2.5775,-0.87,1.97,46.609640000000006,-83.93,-83.27
1733129588608142575,1733129588607670783,3,2.5775,-0.87,1.97,46.54084700000001,-83.28,-83.25
1733129588708317589,1733129588707661151,3,2.5775,-0.87,1.97,46.453293333333335,-83.87,-85.16
1733129588808913152,1733129588808744192,3,2.5775,-0.87,1.97,46.34697766666667,-83.38,-83.25
1733129589209274253,1733129589208982944,3,2.5775,-0.87,1.97,45.99676733333334,-83.91,-83.85
1733129589314598242,1733129589313441276,3,2.5775,-0.87,1.97,45.909213666666666,-84.02,-83.35
1733129589409163770,1733129589408930778,3,2.5775,-0.87,1.97,45.81540633333333,-83.33,-84.91
1733129589509496377,1733129589509116888,3,2.5775,-0.87,1.97,45.721599000000005,-83.33,-83.02
1733129589639035831,1733129589638724565,3,2.5775,-0.87,1.97,45.61528466666667,-83.72,-84.09
1733129589709115474,1733129589708740949,3,2.5775,-0.87,1.97,45.515223999999996,-85.83,-86.21
1733129589809757215,1733129589809581041,3,2.5775,-0.87,1.97,45.42767033333334,-83.93,-83.44
1733129589910213124,1733129589909938097,3,2.5775,-0.87,1.97,45.34011666666667,-83.96,-83.22
1733129590010013242,1733129590009780168,3,2.5775,-0.87,1.97,45.24005566666667,-83.32,-84.58
1733129590111450513,1733129590111100912,3,2.5775,-0.87,1.97,45.12748666666666,-83.86,-85.22
1733129590308552555,1733129590307611227,3,2.5775,-0.87,1.97,44.99615666666667,-83.41,-82.61
1733129590408390481,1733129590407626390,3,2.5775,-0.87,1.97,44.877334,-83.62,-85.39
1733129590508015051,1733129590507604122,3,2.5775,-0.87,1.97,44.77101966666667,-83.39,-84.62
1733129590609799341,1733129590609643220,3,2.5775,-0.87,1.97,44.66470433333333,-83.95,-83.77
1733129590710695915,1733129590710579633,3,2.5775,-0.87,1.97,44.558388666666666,-84.4,-84.66
1733129590809848891,1733129590809672594,3,2.5775,-0.87,1.97,44.43331233333333,-85.56,-86.53
1733129590910773587,1733129590910536766,3,2.5775,-0.87,1.97,44.33325133333333,-83.89,-85.45
1733129591007910366,1733129591007610797,3,2.5775,-0.87,1.97,44.220683666666666,-83.86,-83.84
1733129591107915749,1733129591107618331,3,2.5775,-0.87,1.97,44.10811566666666,-85.03,-84.97
1733129591509808913,1733129591509602069,3,2.5775,-0.87,1.97,43.632826,-85.5,-86.02
1733129591607880917,1733129591607606172,3,2.5775,-0.87,1.97,43.507751000000006,-83.92,-83.25
1733129591708126122,1733129591707639217,3,2.5775,-0.87,1.97,43.38267466666667,-84.51,-85.34
1733129591808802715,1733129591808714866,3,2.5775,-0.87,1.97,43.245091,-83.94,-85.58
1733129591909350815,1733129591908968448,3,2.5775,-0.87,1.97,43.12001466666667,-84.84,-85.54
1733129592009095992,1733129592008896350,3,2.5775,-0.87,1.97,43.00744566666666,-84.31,-83.69
1733129592110254407,1733129592110020399,3,2.5775,-0.87,1.97,42.888622999999995,-87.31,-86.45
1733129592209928369,1733129592209728956,3,2.5775,-0.87,1.97,42.75729333333334,-84.67,-84.9
1733129592309852740,1733129592309701919,3,2.5775,-0.87,1.97,42.62596333333334,-85.0,-84.93
1733129592409998817,1733129592409718751,3,2.5775,-0.87,1.97,42.52590266666667,-86.29,-87.32
1733129592509788100,1733129592509635925,3,2.5775,-0.87,1.97,42.450855999999995,-83.74,-83.24
1733129592609737927,1733129592609532117,3,2.5775,-0.87,1.97,42.413333333333334,-84.85,-84.16
1733129592709913726,1733129592709739208,3,2.5775,-0.87,1.97,42.350795,-85.66,-85.58
1733129592809849074,1733129592809596300,3,2.5775,-0.87,1.97,42.27574966666666,-89.21,-91.39
1733129592909863321,1733129592909670114,3,2.5775,-0.87,1.97,42.188196,-88.37,-88.32
1733129593009805468,1733129593009650230,3,2.5775,-0.87,1.97,42.113149666666665,-88.74,-90.55
1733129593109887076,1733129593109649658,3,2.5775,-0.87,1.97,42.08188066666667,-88.19,-89.21
1733129593210002072,1733129593209781408,3,2.5775,-0.87,1.97,42.05061166666667,-88.82,-90.27
1733129593309888938,1733129593309762239,3,2.5775,-0.87,1.97,42.01934266666667,-88.4,-88.98
1733129593410013551,1733129593409839153,3,2.5775,-0.87,1.97,41.98182,-88.54,-89.39
1733129593509799555,1733129593509650468,3,2.5775,-0.87,1.97,41.98807366666666,-87.83,-89.35
1733129593609988029,1733129593609740972,3,2.5775,-0.87,1.97,42.000582,-88.22,-89.57
1733129593709274231,1733129593708860635,3,2.5775,-0.87,1.97,41.99432733333333,-88.65,-89.21
1733129593809343073,1733129593808967351,3,2.5775,-0.87,1.97,41.98182,-88.18,-88.27
1733129593909046903,1733129593908760309,3,2.5775,-0.87,1.97,41.98182,-87.88,-87.91
1733129594009054188,1733129594008772373,3,2.5775,-0.87,1.97,42.006835333333335,-88.92,-90.1
1733129594109127035,1733129594108948707,3,2.5775,-0.87,1.97,42.000582,-88.03,-88.41
1733129594209847643,1733129594209681034,3,2.5775,-0.87,1.97,42.006835333333335,-90.9,-93.05
1733129594310153277,1733129594309920787,3,2.5775,-0.87,1.97,42.00058166666667,-87.98,-88.49
1733129594410524895,1733129594410284280,3,2.5775,-0.87,1.97,42.00058166666667,-88.34,-89.92
1733129594510371963,1733129594509802579,3,2.5775,-0.87,1.97,41.98807466666667,-89.1,-89.83
1733129594709229373,1733129594708897352,3,2.5775,-0.87,1.97,42.000582,-91.1,-94.07
1733129595107824273,1733129595107661247,3,2.5775,-0.87,1.97,41.981821333333336,-87.82,-89.48
1733129595207932152,1733129595207643985,3,2.5775,-0.87,1.97,41.981821333333336,-87.79,-87.54
1733129595308129500,1733129595307614326,3,2.5775,-0.87,1.97,41.95680566666667,-87.94,-88.9
1733129595408090098,1733129595407605409,3,2.5775,-0.87,1.97,41.938043666666665,-89.74,-89.79
1733129595509684785,1733129595509547948,3,2.5775,-0.87,1.97,41.906774666666664,-90.26,-92.61
1733129595607895951,1733129595607616662,3,2.5775,-0.87,1.97,41.919282,-88.96,-89.6
1733129595709295873,1733129595709121704,3,2.5775,-0.87,1.97,41.919282,-87.99,-87.69
1733129595809341552,1733129595808989286,3,2.5775,-0.87,1.97,41.90677333333333,-88.61,-89.9
1733129595909060776,1733129595908818721,3,2.5775,-0.87,1.97,41.881758999999995,-89.86,-90.54
1733129596110150066,1733129596109944343,3,2.5775,-0.87,1.97,41.85674366666667,-88.05,-88.1
1733129596210755034,1733129596210427284,3,2.5775,-0.87,1.97,41.85049033333333,-89.9,-90.52
1733129596309405742,1733129596309170961,3,2.5775,-0.87,1.97,41.825474666666665,-92.38,-92.44
1733129596408954234,1733129596408857345,3,2.5775,-0.87,1.97,41.819221,-88.19,-88.26
1733129596910285964,1733129596909952878,3,2.5775,-0.87,1.97,41.78169833333333,-88.15,-88.6
1733129597008283117,1733129597007623672,3,2.5775,-0.87,1.97,41.794207,-87.59,-88.2
1733129597108089431,1733129597107623338,3,2.5775,-0.87,1.97,41.7817,-88.65,-90.97
1733129597208082233,1733129597207635641,3,2.5775,-0.87,1.97,41.7817,-87.95,-87.69
1733129597309208191,1733129597308938026,3,2.5775,-0.87,1.97,41.76919133333333,-88.34,-88.15
1733129597409077030,1733129597408950328,3,2.5775,-0.87,1.97,41.762937666666666,-87.84,-87.61
1733129597510043487,1733129597509788513,3,2.5775,-0.87,1.97,41.756684,-91.81,-92.64
1733129597709968680,1733129597709769010,3,2.5775,-0.87,1.97,41.762939,-88.97,-91.02
1733129597808049881,1733129597807609558,3,2.5775,-0.87,1.97,41.756684,-88.97,-90.28
1733129597909911349,1733129597909722089,3,2.5775,-0.87,1.97,41.762937666666666,-87.48,-87.47
1733129598010200204,1733129598009928464,3,2.5775,-0.87,1.97,41.75668266666667,-90.34,-91.94
1733129598110332286,1733129598110114336,3,2.5775,-0.87,1.97,41.78169833333333,-91.89,-90.94
1733129598209276436,1733129598208995819,3,2.5775,-0.87,1.97,41.787951666666665,-89.71,-89.0
1733129598308000058,1733129598307614803,3,2.5775,-0.87,1.97,41.79420666666667,-87.57,-87.5
1733129598410676957,1733129598410489559,3,2.5775,-0.87,1.97,41.769191,-92.38,-94.46
1733129598507949996,1733129598507644653,3,2.5775,-0.87,1.97,41.762937666666666,-89.99,-90.18
1733129598709025850,1733129598708687782,3,2.5775,-0.87,1.97,41.762937666666666,-89.49,-89.79
1733129598809752354,1733129598809602260,3,2.5775,-0.87,1.97,41.76919266666667,-88.36,-88.79
1733129599007946820,1733129599007638216,3,2.5775,-0.87,1.97,41.775446,-93.37,-95.39
1733129599407979348,1733129599407628059,3,2.5775,-0.87,1.97,41.81296866666667,-90.48,-91.72
1733129599639253410,1733129599638907670,3,2.5775,-0.87,1.97,41.844236333333335,-92.9,-93.89
1733129599809450940,1733129599809121847,3,2.5775,-0.87,1.97,41.85674366666667,-92.68,-92.44
1733129600007993077,1733129600007666349,3,2.5775,-0.87,1.97,41.850488666666664,-90.26,-89.99
1733129600409194021,1733129600408866167,3,2.5775,-0.87,1.97,41.90052133333333,-89.66,-89.84
1733129600507985979,1733129600507631301,3,2.5775,-0.87,1.97,41.91302833333333,-88.46,-89.35
1733129600810092276,1733129600809908628,3,2.5775,-0.87,1.97,41.931789,-90.71,-92.03
1733129600907952147,1733129600907657623,3,2.5775,-0.87,1.97,41.963058,-90.46,-89.78
1733129601009241861,1733129601008925676,3,2.5775,-0.87,1.97,41.98807333333334,-90.56,-90.8
1733129601110019039,1733129601109763383,3,2.5775,-0.87,1.97,42.01308866666667,-89.97,-90.71
1733129601208886618,1733129601208767652,3,2.5775,-0.87,1.97,42.031850666666664,-90.84,-90.97
1733129601308191378,1733129601307679414,3,2.5775,-0.87,1.97,42.044357999999995,-88.64,-88.8
1733129601509171482,1733129601508817672,3,2.5775,-0.87,1.97,42.075627,-89.75,-90.92
1733129601609991697,1733129601609684705,3,2.5775,-0.87,1.97,42.10689633333333,-89.81,-89.94
1733129601809717952,1733129601809588909,3,2.5775,-0.87,1.97,42.163181,-89.14,-89.24
1733129602410106869,1733129602409902095,3,2.5775,-0.87,1.97,42.363304,-88.67,-88.84
1733129602507967665,1733129602507592678,3,2.5775,-0.87,1.97,42.38206466666667,-88.79,-88.48
1733129602611034889,1733129602610754251,3,2.5775,-0.87,1.97,42.41958733333334,-88.92,-88.78
1733129602707969461,1733129602707593441,3,2.5775,-0.87,1.97,42.43209433333333,-90.84,-90.73
1733129602810011800,1733129602809767961,3,2.5775,-0.87,1.97,42.419587,-88.4,-88.99
1733129602909066313,1733129602908898353,3,2.5775,-0.87,1.97,42.38206433333333,-88.41,-91.3
1733129603007941515,1733129603007634401,3,2.5775,-0.87,1.97,42.357048666666664,-89.13,-89.51
1733129603108218428,1733129603107650995,3,2.5775,-0.87,1.97,42.332033333333335,-87.71,-88.56
