%time,field.stamp,field.id,field.x,field.y,field.z,field.distanceFromTag,field.rssi,field.rssi_fp
1734501485318454633,1734501485318213939,12,0.69,0.87,0.5,6.053687,-78.99,-80.39
1734501485418212483,1734501485417540073,12,0.69,0.87,0.5,6.066194666666667,-78.97,-80.69
1734501485518746847,1734501485518484830,12,0.69,0.87,0.5,6.072448333333334,-79.11,-80.81
1734501485618638171,1734501485618337869,12,0.69,0.87,0.5,6.072448333333334,-79.24,-80.42
1734501485717917110,1734501485717718124,12,0.69,0.87,0.5,6.059940666666667,-79.28,-81.01
1734501485817929660,1734501485817736625,12,0.69,0.87,0.5,6.041179333333333,-79.44,-81.07
1734501485917704640,1734501485917564630,12,0.69,0.87,0.5,6.047433333333333,-79.33,-81.13
1734501486018355519,1734501486018134355,12,0.69,0.87,0.5,6.034926,-79.31,-80.9
1734501486118047451,1734501486117840051,12,0.69,0.87,0.5,6.047433666666667,-78.76,-80.6
1734501486218121910,1734501486217963933,12,0.69,0.87,0.5,6.041179666666667,-79.05,-80.67
1734501486318368689,1734501486318166971,12,0.69,0.87,0.5,6.047433333333333,-79.23,-80.75
1734501486419156845,1734501486418819189,12,0.69,0.87,0.5,6.041179666666667,-79.36,-81.08
1734501486518047157,1734501486517803192,12,0.69,0.87,0.5,6.053687333333333,-79.13,-80.87
1734501486618051370,1734501486617823600,12,0.69,0.87,0.5,6.047433666666667,-79.02,-80.61
1734501486717788560,1734501486717665433,12,0.69,0.87,0.5,6.059940999999999,-79.19,-80.64
1734501486818518497,1734501486818342447,12,0.69,0.87,0.5,6.059940999999999,-79.63,-80.84
1734501486917708509,1734501486917515993,12,0.69,0.87,0.5,6.053687,-79.58,-80.96
1734501487018152897,1734501487018010854,12,0.69,0.87,0.5,6.053687,-79.27,-80.75
1734501487118121255,1734501487117820501,12,0.69,0.87,0.5,6.047433333333333,-79.25,-80.66
1734501487315568046,1734501487315099716,12,0.69,0.87,0.5,6.066194666666667,-79.26,-81.21
1734501487415435017,1734501487415023326,12,0.69,0.87,0.5,6.059940999999999,-79.09,-80.94
1734501487815262361,1734501487815003633,12,0.69,0.87,0.5,6.066194666666667,-79.37,-80.93
1734501487916485853,1734501487916217565,12,0.69,0.87,0.5,6.053687333333333,-79.22,-80.85
1734501488015365814,1734501488015025377,12,0.69,0.87,0.5,6.04118,-79.34,-80.68
1734501488115421635,1734501488115023612,12,0.69,0.87,0.5,6.047433666666667,-79.06,-80.97
1734501488216397894,1734501488216089248,12,0.69,0.87,0.5,6.053687333333333,-79.36,-80.69
1734501488316704649,1734501488316310644,12,0.69,0.87,0.5,6.059940999999999,-79.45,-80.82
1734501488416640654,1734501488416349649,12,0.69,0.87,0.5,6.066194666666667,-79.53,-80.96
1734501488516467246,1734501488516297817,12,0.69,0.87,0.5,6.059940999999999,-79.15,-80.58
1734501488617776578,1734501488617546796,12,0.69,0.87,0.5,6.053687333333333,-78.72,-80.63
1734501488716760385,1734501488716548204,12,0.69,0.87,0.5,6.034926,-79.18,-80.75
1734501488816549777,1734501488816274642,12,0.69,0.87,0.5,6.041179666666667,-78.87,-80.47
1734501488915308926,1734501488915029287,12,0.69,0.87,0.5,6.041179666666667,-79.56,-81.29
1734501489017953281,1734501489017824411,12,0.69,0.87,0.5,6.0661950000000004,-79.17,-80.6
1734501489118185223,1734501489117841243,12,0.69,0.87,0.5,6.0661950000000004,-79.07,-80.47
1734501489218253603,1734501489217819690,12,0.69,0.87,0.5,6.084956333333333,-79.33,-80.4
1734501489322065271,1734501489321830749,12,0.69,0.87,0.5,6.0661950000000004,-79.34,-80.6
1734501489418191674,1734501489418128728,12,0.69,0.87,0.5,6.059941333333334,-78.93,-80.65
1734501489518158190,1734501489518063545,12,0.69,0.87,0.5,6.047433666666667,-79.25,-81.04
1734501489618069886,1734501489617888927,12,0.69,0.87,0.5,6.059940999999999,-78.98,-80.87
1734501489718304425,1734501489717702388,12,0.69,0.87,0.5,6.053687,-79.5,-81.21
1734501489848613027,1734501489848461389,12,0.69,0.87,0.5,6.066194666666667,-79.35,-80.95
1734501489918173419,1734501489918035030,12,0.69,0.87,0.5,6.066194666666667,-78.79,-80.5
1734501490017625170,1734501490017306566,12,0.69,0.87,0.5,6.09121,-79.78,-80.58
1734501490117774300,1734501490117410421,12,0.69,0.87,0.5,6.072448666666666,-79.02,-80.75
1734501490217444939,1734501490217265367,12,0.69,0.87,0.5,6.053687333333333,-79.13,-80.74
1734501490318071710,1734501490317948579,12,0.69,0.87,0.5,6.041179666666667,-79.29,-80.81
1734501490417528948,1734501490417271137,12,0.69,0.87,0.5,6.053687,-79.01,-80.78
1734501490517414420,1734501490517123937,12,0.69,0.87,0.5,6.066194666666667,-79.24,-81.04
1734501490617433606,1734501490617227554,12,0.69,0.87,0.5,6.072448333333334,-78.95,-80.65
1734501490717456181,1734501490717266321,12,0.69,0.87,0.5,6.066194666666667,-79.46,-80.9
1734501490817540344,1734501490817319154,12,0.69,0.87,0.5,6.059940999999999,-79.28,-80.87
1734501490916416966,1734501490916199445,12,0.69,0.87,0.5,6.047433666666667,-79.19,-80.75
1734501491017470575,1734501491016995668,12,0.69,0.87,0.5,6.04118,-78.99,-80.66
1734501491120122067,1734501491119810342,12,0.69,0.87,0.5,6.047433666666667,-79.17,-80.61
1734501491217445959,1734501491217257738,12,0.69,0.87,0.5,6.059940999999999,-79.3,-80.72
1734501491317372323,1734501491317063093,12,0.69,0.87,0.5,6.066194666666667,-79.65,-80.66
1734501491417781314,1734501491417515516,12,0.69,0.87,0.5,6.084956000000001,-78.74,-80.78
1734501491519947747,1734501491519627332,12,0.69,0.87,0.5,6.078702333333333,-78.75,-80.89
1734501491615889464,1734501491615027427,12,0.69,0.87,0.5,6.066194666666667,-79.11,-80.66
1734501491715479659,1734501491715035676,12,0.69,0.87,0.5,6.041179666666667,-79.68,-80.81
1734501491815462817,1734501491815055608,12,0.69,0.87,0.5,6.041179666666667,-78.95,-80.81
1734501491915471837,1734501491915061712,12,0.69,0.87,0.5,6.053687333333333,-79.55,-80.87
1734501492015839730,1734501492015080213,12,0.69,0.87,0.5,6.059940999999999,-79.01,-80.7
1734501492118894868,1734501492118648529,12,0.69,0.87,0.5,6.072448666666666,-79.2,-80.57
1734501492217657626,1734501492217451095,12,0.69,0.87,0.5,6.072448666666666,-79.15,-80.73
1734501492317429847,1734501492316982269,12,0.69,0.87,0.5,6.078702333333333,-78.8,-80.79
1734501492416744350,1734501492416490793,12,0.69,0.87,0.5,6.078702333333333,-79.31,-81.31
1734501492517218145,1734501492516829013,12,0.69,0.87,0.5,6.078702333333333,-79.66,-81.04
1734501492616482752,1734501492616305351,12,0.69,0.87,0.5,6.072448666666666,-78.99,-80.79
1734501492716682079,1734501492716409206,12,0.69,0.87,0.5,6.053687333333333,-79.13,-80.72
1734501492815542261,1734501492815038442,12,0.69,0.87,0.5,6.0661950000000004,-79.18,-80.53
1734501492916501800,1734501492916236639,12,0.69,0.87,0.5,6.0787026666666675,-79.42,-80.58
1734501493116875255,1734501493116367340,12,0.69,0.87,0.5,6.0661950000000004,-79.43,-80.91
1734501493215631166,1734501493215086698,12,0.69,0.87,0.5,6.053687333333333,-78.9,-80.78
1734501493416535238,1734501493416205167,12,0.69,0.87,0.5,6.034926,-78.83,-80.84
1734501493516887144,1734501493516700983,12,0.69,0.87,0.5,6.047433666666667,-79.67,-81.15
1734501493617099165,1734501493616907835,12,0.69,0.87,0.5,6.034926,-79.06,-80.77
1734501493715413883,1734501493714998483,12,0.69,0.87,0.5,6.022418333333333,-79.0,-80.69
1734501493817530831,1734501493817378282,12,0.69,0.87,0.5,6.009910666666666,-78.89,-80.53
1734501493917905742,1734501493917685985,12,0.69,0.87,0.5,5.997402999999999,-79.22,-80.72
1734501494015423898,1734501494015029430,12,0.69,0.87,0.5,5.966133999999999,-79.36,-80.63
1734501494115450349,1734501494115013122,12,0.69,0.87,0.5,5.941118666666667,-78.92,-80.45
1734501494218401102,1734501494218244791,12,0.69,0.87,0.5,5.909849666666666,-79.2,-80.9
1734501494318656766,1734501494318389654,12,0.69,0.87,0.5,5.891088,-78.82,-80.7
1734501494418566466,1734501494418258190,12,0.69,0.87,0.5,5.872326666666666,-78.9,-80.36
1734501494518307887,1734501494518043756,12,0.69,0.87,0.5,5.841057666666667,-79.22,-80.93
1734501494618025385,1734501494617890834,12,0.69,0.87,0.5,5.809788666666667,-79.13,-80.72
1734501494718324917,1734501494717977046,12,0.69,0.87,0.5,5.772265666666667,-79.08,-80.61
1734501494818444186,1734501494818246364,12,0.69,0.87,0.5,5.728489000000001,-78.69,-80.5
1734501494918581447,1734501494918400287,12,0.69,0.87,0.5,5.697219666666666,-79.34,-80.84
1734501495015370804,1734501495015006303,12,0.69,0.87,0.5,5.665950666666667,-78.94,-80.55
1734501495115431162,1734501495115022897,12,0.69,0.87,0.5,5.6284279999999995,-79.5,-80.49
1734501495215384328,1734501495215011596,12,0.69,0.87,0.5,5.597159,-79.21,-80.95
1734501495315494103,1734501495315018892,12,0.69,0.87,0.5,5.572143666666666,-79.59,-80.51
1734501495415560620,1734501495415006875,12,0.69,0.87,0.5,5.559636,-79.16,-80.71
1734501495515401967,1734501495515014648,12,0.69,0.87,0.5,5.522113333333333,-78.95,-80.54
1734501495615634653,1734501495615054845,12,0.69,0.87,0.5,5.484590666666667,-79.19,-80.79
1734501495715389441,1734501495715049505,12,0.69,0.87,0.5,5.440814,-79.27,-81.05
1734501495815388957,1734501495815020322,12,0.69,0.87,0.5,5.415798666666666,-79.46,-81.08
1734501495915366379,1734501495915013074,12,0.69,0.87,0.5,5.3970373333333335,-79.42,-81.14
1734501496015409631,1734501496015028238,12,0.69,0.87,0.5,5.365768333333334,-79.2,-80.83
1734501496115369239,1734501496115012884,12,0.69,0.87,0.5,5.328245333333332,-78.98,-80.53
1734501496215432895,1734501496215031385,12,0.69,0.87,0.5,5.309484,-79.34,-80.75
1734501496315386777,1734501496315021038,12,0.69,0.87,0.5,5.296976333333333,-78.94,-80.56
1734501496415321069,1734501496415030479,12,0.69,0.87,0.5,5.2844690000000005,-78.92,-80.63
1734501496515495965,1734501496515061855,12,0.69,0.87,0.5,5.246946,-79.06,-80.6
1734501496615451088,1734501496615092515,12,0.69,0.87,0.5,5.2156769999999995,-79.4,-80.84
1734501496715495209,1734501496715058326,12,0.69,0.87,0.5,5.178154,-79.34,-80.76
1734501496815555574,1734501496815084457,12,0.69,0.87,0.5,5.159392333333334,-79.32,-80.83
1734501496915322649,1734501496915036201,12,0.69,0.87,0.5,5.140631,-79.32,-80.74
1734501497015368771,1734501497015017986,12,0.69,0.87,0.5,5.140631,-79.08,-80.74
1734501497115409220,1734501497115077257,12,0.69,0.87,0.5,5.121869666666666,-79.11,-80.81
1734501497215526730,1734501497215055465,12,0.69,0.87,0.5,5.121869666666666,-79.32,-82.02
1734501497315353204,1734501497315039634,12,0.69,0.87,0.5,5.109362,-79.17,-80.78
1734501497415369504,1734501497415025711,12,0.69,0.87,0.5,5.109362,-78.75,-81.07
1734501497515389352,1734501497515038728,12,0.69,0.87,0.5,5.090600666666666,-79.02,-80.71
1734501497615369156,1734501497615019083,12,0.69,0.87,0.5,5.090600666666666,-79.22,-80.79
1734501497715315427,1734501497715036392,12,0.69,0.87,0.5,5.084347,-79.42,-80.95
1734501497815378620,1734501497815018653,12,0.69,0.87,0.5,5.096854333333333,-79.16,-80.63
1734501497915341402,1734501497915041446,12,0.69,0.87,0.5,5.103108333333334,-79.04,-80.67
1734501498015397689,1734501498015024423,12,0.69,0.87,0.5,5.128123333333334,-79.14,-80.73
1734501498115541068,1734501498115142345,12,0.69,0.87,0.5,5.140631,-79.36,-80.68
1734501498215321031,1734501498215033769,12,0.69,0.87,0.5,5.153138333333334,-79.0,-80.78
1734501498315530147,1734501498315071344,12,0.69,0.87,0.5,5.159392333333333,-79.14,-81.28
1734501498415330722,1734501498415035724,12,0.69,0.87,0.5,5.196915333333333,-78.79,-81.58
1734501498515318877,1734501498515030860,12,0.69,0.87,0.5,5.234438333333333,-78.94,-80.78
1734501498916828925,1734501498916335582,12,0.69,0.87,0.5,5.340753333333335,-79.25,-81.77
1734501499046749983,1734501499046500921,12,0.69,0.87,0.5,5.378276,-79.06,-82.02
1734501499115331811,1734501499115045547,12,0.69,0.87,0.5,5.422052666666666,-78.89,-80.61
1734501499216887490,1734501499216553211,12,0.69,0.87,0.5,5.465829333333333,-78.82,-81.83
1734501499315401231,1734501499315068721,12,0.69,0.87,0.5,5.497098333333334,-78.82,-81.31
1734501499415330568,1734501499415034770,12,0.69,0.87,0.5,5.540875,-78.78,-80.74
1734501499515355791,1734501499515029191,12,0.69,0.87,0.5,5.597159,-78.88,-80.66
1734501499615603961,1734501499615078449,12,0.69,0.87,0.5,5.653443333333333,-79.33,-81.05
1734501499717738391,1734501499717487573,12,0.69,0.87,0.5,5.722235333333334,-78.84,-81.09
1734501499818476490,1734501499818249225,12,0.69,0.87,0.5,5.772265999999999,-79.0,-80.73
1734501499917917570,1734501499917824983,12,0.69,0.87,0.5,5.828550333333333,-79.07,-80.89
1734501500018511151,1734501500018351078,12,0.69,0.87,0.5,5.891088333333333,-78.77,-81.03
1734501500118664657,1734501500118498802,12,0.69,0.87,0.5,5.997403000000001,-79.42,-81.61
1734501500218280619,1734501500217969417,12,0.69,0.87,0.5,6.084956333333333,-79.23,-80.77
1734501500317445719,1734501500317198276,12,0.69,0.87,0.5,6.1600019999999995,-79.02,-80.91
1734501500417263063,1734501500417064666,12,0.69,0.87,0.5,6.197525,-78.7,-81.07
1734501500517255958,1734501500517109155,12,0.69,0.87,0.5,6.260063,-79.43,-81.73
1734501500617427778,1734501500617247819,12,0.69,0.87,0.5,6.328855,-79.21,-80.67
1734501500717962812,1734501500717729806,12,0.69,0.87,0.5,6.385139333333334,-79.21,-80.65
1734501500816641551,1734501500816407442,12,0.69,0.87,0.5,6.453931333333333,-79.85,-80.68
1734501500916543075,1734501500916238307,12,0.69,0.87,0.5,6.535230666666667,-80.12,-80.73
1734501501015560164,1734501501015110492,12,0.69,0.87,0.5,6.622784,-79.06,-80.82
1734501501115666145,1734501501115058183,12,0.69,0.87,0.5,6.704083333333333,-79.08,-80.84
1734501501215145816,1734501501214965820,12,0.69,0.87,0.5,6.7728753333333325,-79.07,-80.63
1734501501315508340,1734501501315006732,12,0.69,0.87,0.5,6.8604286666666665,-78.5,-80.35
1734501501415479460,1734501501414998292,12,0.69,0.87,0.5,6.960489666666667,-79.58,-80.48
1734501501515444396,1734501501515038728,12,0.69,0.87,0.5,7.079311999999999,-79.09,-80.95
1734501501615436643,1734501501614993572,12,0.69,0.87,0.5,7.198134333333333,-78.75,-80.45
1734501501715406823,1734501501715024948,12,0.69,0.87,0.5,7.298195333333333,-79.43,-80.83
1734501501815405692,1734501501814990043,12,0.69,0.87,0.5,7.385748666666667,-79.17,-80.72
1734501501915415762,1734501501914997816,12,0.69,0.87,0.5,7.485809333333333,-79.09,-80.88
1734501502015369292,1734501502014998435,12,0.69,0.87,0.5,7.592124000000001,-79.04,-80.67
1734501502115501035,1734501502115009307,12,0.69,0.87,0.5,7.692184999999999,-78.83,-80.47
1734501502215409135,1734501502214991092,12,0.69,0.87,0.5,7.779738333333334,-78.88,-80.65
1734501502315636490,1734501502315005540,12,0.69,0.87,0.5,7.892307,-79.25,-80.4
1734501502415490279,1734501502415015459,12,0.69,0.87,0.5,8.011129666666667,-79.06,-80.93
1734501502515660163,1734501502515018463,12,0.69,0.87,0.5,8.154967666666666,-79.41,-80.8
1734501502615435420,1734501502615004301,12,0.69,0.87,0.5,8.261282333333334,-79.48,-80.89
1734501502715478168,1734501502715037584,12,0.69,0.87,0.5,8.461404333333332,-79.2,-80.97
1734501502815560059,1734501502815019845,12,0.69,0.87,0.5,8.586480666666667,-79.04,-80.65
1734501502915687486,1734501502915075302,12,0.69,0.87,0.5,8.686541333333333,-78.86,-80.73
1734501503015440288,1734501503015058755,12,0.69,0.87,0.5,8.786602,-79.17,-81.01
1734501503115428800,1734501503115034818,12,0.69,0.87,0.5,8.892916666666666,-79.1,-80.6
1734501503215542421,1734501503215034723,12,0.69,0.87,0.5,9.017992999999999,-78.91,-80.73
1734501503315448029,1734501503315023183,12,0.69,0.87,0.5,9.161830666666667,-78.76,-80.7
1734501503415540003,1734501503415051221,12,0.69,0.87,0.5,9.293161,-79.66,-81.28
1734501503515648862,1734501503515023946,12,0.69,0.87,0.5,9.424491,-79.56,-81.93
1734501503616617763,1734501503616256475,12,0.69,0.87,0.5,9.537059333333334,-79.78,-81.79
1734501503716436366,1734501503716182231,12,0.69,0.87,0.5,9.655881666666668,-79.67,-81.36
1734501503816625052,1734501503816366910,12,0.69,0.87,0.5,9.76845,-80.52,-83.69
1734501503916418394,1734501503916065931,12,0.69,0.87,0.5,9.893526333333332,-80.76,-82.8
1734501504047520289,1734501504046947240,12,0.69,0.87,0.5,9.999841,-81.23,-82.75
1734501504116312167,1734501504116052389,12,0.69,0.87,0.5,10.118663666666668,-80.73,-82.93
1734501504215336323,1734501504215026617,12,0.69,0.87,0.5,10.231232333333333,-80.26,-82.14
1734501504316598982,1734501504316280841,12,0.69,0.87,0.5,10.356308333333335,-80.16,-81.84
1734501504417485075,1734501504417157649,12,0.69,0.87,0.5,10.493892333333333,-79.25,-80.71
1734501504516486358,1734501504516162395,12,0.69,0.87,0.5,10.63773,-79.78,-80.97
1734501504616433257,1734501504616196393,12,0.69,0.87,0.5,10.769060333333334,-79.52,-81.13
1734501504715375975,1734501504715063333,12,0.69,0.87,0.5,10.869121,-79.72,-81.43
1734501504815334114,1734501504815016508,12,0.69,0.87,0.5,10.975436,-79.5,-81.06
1734501504918473166,1734501504918281793,12,0.69,0.87,0.5,11.081750333333334,-79.88,-80.87
1734501505018243184,1734501505017999649,12,0.69,0.87,0.5,11.181811333333334,-79.82,-80.92
1734501505118510444,1734501505118342876,12,0.69,0.87,0.5,11.325648333333334,-79.96,-80.97
1734501505217996943,1734501505217823028,12,0.69,0.87,0.5,11.450724666666666,-79.38,-80.76
1734501505318490061,1734501505318299531,12,0.69,0.87,0.5,11.600816,-79.47,-80.91
1734501505417793377,1734501505417611360,12,0.69,0.87,0.5,11.707131000000002,-78.89,-80.8
1734501505518580744,1734501505518326044,12,0.69,0.87,0.5,11.838461,-79.11,-81.16
1734501505618150415,1734501505617948532,12,0.69,0.87,0.5,11.957283333333335,-79.15,-80.56
1734501505717264028,1734501505717072010,12,0.69,0.87,0.5,12.094867333333333,-78.86,-80.81
1734501505818180317,1734501505817893028,12,0.69,0.87,0.5,12.213689666666667,-79.78,-81.02
1734501505919043951,1734501505918854236,12,0.69,0.87,0.5,12.332512,-79.44,-81.12
1734501506017972164,1734501506017884969,12,0.69,0.87,0.5,12.426319,-79.33,-80.99
1734501506118990406,1734501506118832349,12,0.69,0.87,0.5,12.545141333333333,-78.82,-80.45
1734501506217799279,1734501506217666387,12,0.69,0.87,0.5,12.720248,-78.69,-81.14
1734501506318348875,1734501506318041324,12,0.69,0.87,0.5,12.882847,-78.88,-80.7
1734501506418143501,1734501506417916059,12,0.69,0.87,0.5,13.039192666666667,-79.03,-80.4
1734501506517821856,1734501506517588853,12,0.69,0.87,0.5,13.158015333333333,-79.34,-80.5
1734501506618158634,1734501506618033647,12,0.69,0.87,0.5,13.283091666666666,-79.65,-81.65
1734501506717961900,1734501506717752218,12,0.69,0.87,0.5,13.420675333333334,-79.97,-82.0
1734501506818471994,1734501506818284273,12,0.69,0.87,0.5,13.526989999999998,-79.28,-80.81
1734501506918260011,1734501506918032646,12,0.69,0.87,0.5,13.670827666666668,-79.83,-81.99
1734501507018453102,1734501507018191576,12,0.69,0.87,0.5,13.795903666666666,-79.61,-80.8
1734501507118062283,1734501507117970943,12,0.69,0.87,0.5,13.939741,-79.65,-81.52
1734501507218149112,1734501507217935562,12,0.69,0.87,0.5,14.083578666666668,-79.74,-80.66
1734501507318107067,1734501507317838191,12,0.69,0.87,0.5,14.208655,-79.13,-80.72
1734501507418296198,1734501507418181180,12,0.69,0.87,0.5,14.358746666666667,-79.68,-80.74
1734501507518336561,1734501507518068790,12,0.69,0.87,0.5,14.452553333333334,-79.6,-81.15
1734501507618762108,1734501507618633031,12,0.69,0.87,0.5,14.590137,-80.18,-80.73
1734501507718240129,1734501507718121528,12,0.69,0.87,0.5,14.715213333333333,-79.96,-80.94
1734501507819055773,1734501507818842411,12,0.69,0.87,0.5,14.865305,-79.41,-80.73
1734501507918076098,1734501507917950153,12,0.69,0.87,0.5,15.009142666666667,-79.74,-81.21
1734501508019160686,1734501508018875360,12,0.69,0.87,0.5,15.140472333333333,-79.63,-80.88
1734501508117891125,1734501508117741107,12,0.69,0.87,0.5,15.28431,-80.56,-81.2
1734501508217817289,1734501508217630863,12,0.69,0.87,0.5,15.421894,-80.4,-80.86
1734501508318071984,1734501508317952156,12,0.69,0.87,0.5,15.584493,-80.55,-81.18
1734501508418139343,1734501508417951345,12,0.69,0.87,0.5,15.747092,-81.02,-81.47
1734501508518566389,1734501508518468856,12,0.69,0.87,0.5,15.890929333333332,-80.58,-81.25
1734501508617662016,1734501508617601871,12,0.69,0.87,0.5,16.034767000000002,-82.13,-82.77
1734501508715302421,1734501508714988708,12,0.69,0.87,0.5,16.17235033333333,-81.14,-84.22
1734501508815256712,1734501508814991712,12,0.69,0.87,0.5,16.309933666666666,-81.99,-82.72
1734501508915590638,1734501508915035486,12,0.69,0.87,0.5,16.447517,-82.29,-82.56
1734501509717445007,1734501509717247247,12,0.69,0.87,0.5,17.548188,-86.45,-86.84
1734501509816505683,1734501509816412448,12,0.69,0.87,0.5,5.153138333333331,-88.34,-89.5
1734501509915456231,1734501509914999723,12,0.69,0.87,0.5,5.253199666666666,-86.84,-87.84
1734501510017582746,1734501510017127513,12,0.69,0.87,0.5,5.365768,-88.55,-89.71
1734501510115381025,1734501510115069866,12,0.69,0.87,0.5,18.004716000000002,-89.09,-93.08
1734501510215393423,1734501510215010166,12,0.69,0.87,0.5,18.14229966666667,-88.38,-90.37
1734501510315395814,1734501510315017700,12,0.69,0.87,0.5,18.273629666666668,-88.82,-90.94
1734501510415494984,1734501510415012359,12,0.69,0.87,0.5,18.423721,-87.37,-89.78
1734501510518931002,1734501510518576383,12,0.69,0.87,0.5,18.561305,-88.81,-91.21
1734501510618417862,1734501510617927789,12,0.69,0.87,0.5,18.692634666666667,-87.18,-90.71
1734501510718062891,1734501510717859745,12,0.69,0.87,0.5,18.836472333333333,-86.64,-90.05
1734501510818525120,1734501510818383693,12,0.69,0.87,0.5,19.017832666666667,-86.26,-89.53
1734501510915465819,1734501510915054321,12,0.69,0.87,0.5,19.186685999999998,-86.03,-87.7
1734501511015402181,1734501511015038251,12,0.69,0.87,0.5,19.468107333333336,-84.82,-86.78
1734501511115527308,1734501511115019321,12,0.69,0.87,0.5,19.643214,-84.4,-85.63
1734501511215490174,1734501511215010881,12,0.69,0.87,0.5,19.793305333333333,-84.62,-85.6
1734501511315345177,1734501511315037727,12,0.69,0.87,0.5,19.943397333333333,-83.82,-84.26
1734501511415208701,1734501511415006637,12,0.69,0.87,0.5,20.068473666666666,-83.96,-84.24
1734501511515599216,1734501511515059709,12,0.69,0.87,0.5,20.206057666666666,-83.93,-84.57
1734501511615405809,1734501511615005970,12,0.69,0.87,0.5,20.343641,-84.73,-85.34
1734501511715240613,1734501511715038776,12,0.69,0.87,0.5,20.493731999999998,-84.24,-86.51
1734501511815617981,1734501511815027952,12,0.69,0.87,0.5,20.643823,-83.23,-85.37
1734501511915542694,1734501511915058374,12,0.69,0.87,0.5,20.793914666666666,-83.59,-85.59
1734501512015543721,1734501512014973640,12,0.69,0.87,0.5,20.937752333333336,-83.52,-84.99
1734501512115297342,1734501512115008115,12,0.69,0.87,0.5,21.069082333333334,-85.07,-84.98
1734501512215445606,1734501512215032577,12,0.69,0.87,0.5,21.200412333333333,-83.0,-83.5
1734501512315291931,1734501512315004825,12,0.69,0.87,0.5,21.294219666666667,-83.36,-84.47
1734501512415388084,1734501512415027141,12,0.69,0.87,0.5,21.431803666666667,-84.68,-85.49
1734501512515486685,1734501512515051603,12,0.69,0.87,0.5,21.563133333333337,-82.47,-82.15
1734501512615300261,1734501512615027666,12,0.69,0.87,0.5,21.713224333333333,-82.27,-84.0
1734501512715239976,1734501512714966297,12,0.69,0.87,0.5,21.850808333333333,-83.13,-83.56
1734501512815321958,1734501512815027236,12,0.69,0.87,0.5,21.988392333333334,-83.02,-82.64
1734501512915299799,1734501512915024280,12,0.69,0.87,0.5,22.132229999999996,-82.18,-81.76
1734501513015311782,1734501513015020608,12,0.69,0.87,0.5,22.276067666666666,-82.21,-82.22
1734501513115291771,1734501513115010499,12,0.69,0.87,0.5,22.419905333333332,-81.82,-81.54
1734501513215285452,1734501513215004205,12,0.69,0.87,0.5,22.569997,-81.69,-81.61
1734501513315312914,1734501513315018177,12,0.69,0.87,0.5,22.713834666666667,-82.52,-82.28
1734501513415368579,1734501513415044784,12,0.69,0.87,0.5,22.85141833333333,-81.33,-81.69
1734501513515473691,1734501513515044689,12,0.69,0.87,0.5,23.01401733333333,-82.49,-82.35
1734501513615424026,1734501513615020275,12,0.69,0.87,0.5,23.145347333333333,-82.12,-83.1
1734501513715323320,1734501513715021848,12,0.69,0.87,0.5,23.289184666666667,-81.82,-82.0
1734501513815313534,1734501513815016508,12,0.69,0.87,0.5,23.389245666666664,-81.68,-81.72
1734501513915340547,1734501513915041685,12,0.69,0.87,0.5,23.526829000000003,-81.93,-83.41
1734501514015394829,1734501514015038490,12,0.69,0.87,0.5,23.651905333333335,-81.42,-81.88
1734501514115350546,1734501514115017414,12,0.69,0.87,0.5,23.795742666666666,-81.69,-81.58
1734501514215389377,1734501514215028047,12,0.69,0.87,0.5,23.920818999999998,-81.67,-81.7
1734501514315352344,1734501514315033435,12,0.69,0.87,0.5,24.064656666666664,-81.59,-81.59
1734501514415406743,1734501514415070533,12,0.69,0.87,0.5,24.189733,-81.65,-81.65
1734501514515414499,1734501514515075922,12,0.69,0.87,0.5,24.352331666666668,-81.26,-81.3
1734501514616404890,1734501514616113424,12,0.69,0.87,0.5,24.483661666666666,-84.85,-86.86
1734501514716560066,1734501514716218709,12,0.69,0.87,0.5,24.652515000000005,-82.03,-81.65
1734501514816798948,1734501514816211700,12,0.69,0.87,0.5,24.777591333333334,-81.82,-83.31
1734501515016698062,1734501515016133785,12,0.69,0.87,0.5,24.971459333333332,-81.3,-81.56
1734501515116363785,1734501515116187095,12,0.69,0.87,0.5,25.165327333333334,-81.52,-81.6
1734501515215501850,1734501515215047597,12,0.69,0.87,0.5,25.365449666666667,-82.23,-82.11
1734501515316414057,1734501515316162347,12,0.69,0.87,0.5,25.49678,-80.43,-81.27
1734501515416646575,1734501515416317462,12,0.69,0.87,0.5,25.60309433333333,-81.1,-80.99
1734501515517533138,1734501515517345428,12,0.69,0.87,0.5,25.734424,-81.1,-81.59
1734501515617630666,1734501515617480993,12,0.69,0.87,0.5,25.890768666666663,-83.16,-84.02
1734501515715268956,1734501515715043783,12,0.69,0.87,0.5,26.04086033333333,-81.08,-81.31
1734501515815341465,1734501515815017938,12,0.69,0.87,0.5,26.184698,-80.71,-81.14
1734501515915361268,1734501515915038347,12,0.69,0.87,0.5,26.316028666666668,-80.79,-81.0
1734501516017918170,1734501516017663717,12,0.69,0.87,0.5,26.453612000000003,-80.68,-81.99
1734501516118312555,1734501516118017435,12,0.69,0.87,0.5,26.609957333333337,-81.15,-81.13
1734501516218015158,1734501516217835187,12,0.69,0.87,0.5,26.77880966666667,-81.47,-82.22
1734501516318145792,1734501516317976236,12,0.69,0.87,0.5,26.922647333333334,-80.27,-81.16
1734501516417454375,1734501516417276859,12,0.69,0.87,0.5,27.085246333333334,-81.7,-81.41
1734501516517151268,1734501516516912698,12,0.69,0.87,0.5,27.210322666666666,-80.39,-80.94
1734501516617752957,1734501516617146968,12,0.69,0.87,0.5,27.366668,-84.93,-84.15
1734501516716836910,1734501516716732740,12,0.69,0.87,0.5,27.49174433333333,-81.11,-81.49
1734501516817794523,1734501516817574977,12,0.69,0.87,0.5,27.616820666666666,-81.71,-81.69
1734501516917061321,1734501516916790485,12,0.69,0.87,0.5,27.766912666666666,-81.02,-80.96
1734501517016308411,1734501517016072511,12,0.69,0.87,0.5,27.873227,-81.28,-81.15
1734501517116488773,1734501517115988731,12,0.69,0.87,0.5,28.017064666666666,-80.87,-82.11
1734501517216602881,1734501517216392755,12,0.69,0.87,0.5,28.129633,-80.88,-82.03
1734501517316577044,1734501517316263914,12,0.69,0.87,0.5,28.24845566666666,-81.09,-81.43
1734501517416523264,1734501517416218519,12,0.69,0.87,0.5,28.373532,-81.1,-81.09
1734501517516426617,1734501517516198635,12,0.69,0.87,0.5,28.529877,-81.05,-81.43
1734501517615416499,1734501517614995002,12,0.69,0.87,0.5,28.704983666666664,-81.18,-81.45
1734501517715374636,1734501517714967012,12,0.69,0.87,0.5,28.873836,-81.6,-81.42
1734501517815367355,1734501517815010309,12,0.69,0.87,0.5,28.992658666666667,-80.81,-81.39
1734501517915543580,1734501517915015697,12,0.69,0.87,0.5,29.142749999999996,-80.88,-81.12
1734501518015659199,1734501518015088796,12,0.69,0.87,0.5,29.280334,-80.81,-81.14
1734501518115546296,1734501518115006446,12,0.69,0.87,0.5,29.442933,-81.5,-81.52
1734501518215900029,1734501518215015411,12,0.69,0.87,0.5,29.580517,-80.73,-81.2
1734501518315693321,1734501518315022230,12,0.69,0.87,0.5,29.72435466666667,-83.22,-83.23
1734501518415526591,1734501518415057420,12,0.69,0.87,0.5,29.855684333333333,-80.68,-81.51
1734501518515482124,1734501518515003442,12,0.69,0.87,0.5,29.999522,-81.55,-81.7
1734501518615248844,1734501518615030050,12,0.69,0.87,0.5,30.137106000000003,-81.38,-81.34
1734501518715507375,1734501518715014457,12,0.69,0.87,0.5,30.293451333333337,-81.2,-81.22
1734501518815380037,1734501518815007686,12,0.69,0.87,0.5,30.437288999999996,-81.76,-81.82
1734501518915517726,1734501518915024995,12,0.69,0.87,0.5,30.574872666666668,-80.85,-81.28
1734501519015397046,1734501519015001296,12,0.69,0.87,0.5,30.831278333333334,-81.72,-83.61
1734501519115509861,1734501519114989042,12,0.69,0.87,0.5,30.975115666666667,-80.93,-81.38
1734501519215180718,1734501519215005874,12,0.69,0.87,0.5,31.131461,-81.31,-81.29
1734501519315453335,1734501519315028429,12,0.69,0.87,0.5,31.250283666666665,-81.73,-82.24
1734501519415198047,1734501519415010213,12,0.69,0.87,0.5,31.394121333333334,-81.7,-82.84
1734501519517647276,1734501519517354488,12,0.69,0.87,0.5,31.512944,-81.26,-81.79
1734501519617111608,1734501519616939544,12,0.69,0.87,0.5,31.675543,-82.02,-82.16
1734501519717303684,1734501519717167377,12,0.69,0.87,0.5,31.806873,-82.04,-83.89
1734501519816411809,1734501519816197156,12,0.69,0.87,0.5,31.963218333333334,-80.93,-81.58
1734501519916506196,1734501519916165590,12,0.69,0.87,0.5,32.107056666666665,-81.92,-82.04
1734501520416233681,1734501520416068315,12,0.69,0.87,0.5,32.819989,-80.96,-81.23
1734501520517391043,1734501520517178535,12,0.69,0.87,0.5,32.92630333333333,-82.98,-83.46
1734501520617233762,1734501520617042541,12,0.69,0.87,0.5,33.057633333333335,-81.21,-81.67
1734501520817295195,1734501520817206859,12,0.69,0.87,0.5,33.23899433333333,-81.44,-81.67
1734501520917512770,1734501520917266607,12,0.69,0.87,0.5,33.43286233333333,-81.41,-81.95
1734501521017417026,1734501521017135381,12,0.69,0.87,0.5,33.601716,-82.2,-82.66
1734501521117256206,1734501521117093086,12,0.69,0.87,0.5,33.75806133333333,-81.72,-81.76
1734501521316912723,1734501521316741704,12,0.69,0.87,0.5,33.96443766666667,-81.84,-81.79
1734501521417321145,1734501521416631698,12,0.69,0.87,0.5,34.152052000000005,-82.0,-81.82
1734501521515353836,1734501521515056848,12,0.69,0.87,0.5,34.314651,-81.91,-81.72
1734501521615286008,1734501521615052223,12,0.69,0.87,0.5,34.464742666666666,-81.41,-81.52
1734501521715328121,1734501521715058088,12,0.69,0.87,0.5,34.627341666666666,-82.08,-84.07
1734501521815338158,1734501521815029621,12,0.69,0.87,0.5,34.78368699999999,-81.7,-81.54
1734501522016396359,1734501522016147136,12,0.69,0.87,0.5,34.990062333333334,-82.09,-83.28
1734501522116476195,1734501522116182088,12,0.69,0.87,0.5,35.208946,-81.93,-81.78
1734501522216401296,1734501522216157436,12,0.69,0.87,0.5,35.42782966666667,-82.08,-82.12
1734501522316370431,1734501522316169738,12,0.69,0.87,0.5,35.559159333333334,-81.78,-82.58
1734501522416445646,1734501522416277408,12,0.69,0.87,0.5,35.696742666666665,-82.59,-84.36
1734501522516460187,1734501522516176939,12,0.69,0.87,0.5,35.84057933333333,-81.79,-81.8
1734501522618597212,1734501522618442058,12,0.69,0.87,0.5,35.984417666666666,-82.3,-82.4
1734501522717819818,1734501522717629432,12,0.69,0.87,0.5,36.15327,-82.08,-82.95
1734501522817791504,1734501522817620277,12,0.69,0.87,0.5,36.290855,-82.61,-84.78
1734501522917940108,1734501522917727470,12,0.69,0.87,0.5,36.44094533333333,-82.28,-82.54
1734501523018324170,1734501523017697334,12,0.69,0.87,0.5,36.553514666666665,-82.57,-82.66
1734501523118473412,1734501523118327617,12,0.69,0.87,0.5,36.71611333333333,-81.84,-81.87
1734501523218087411,1734501523217900514,12,0.69,0.87,0.5,36.85995166666667,-82.13,-83.86
1734501523317899907,1734501523317712783,12,0.69,0.87,0.5,37.010042,-81.92,-81.84
1734501523418006110,1734501523417788743,12,0.69,0.87,0.5,37.153878999999996,-81.96,-82.9
1734501523517889503,1734501523517706155,12,0.69,0.87,0.5,37.291462333333335,-82.78,-83.06
1734501523617753723,1734501523617616891,12,0.69,0.87,0.5,37.447808,-82.47,-81.96
1734501523717989583,1734501523717712402,12,0.69,0.87,0.5,37.579138,-83.02,-82.57
1734501523815392813,1734501523815043926,12,0.69,0.87,0.5,37.741737,-82.58,-83.27
1734501523915422807,1734501523915012836,12,0.69,0.87,0.5,37.866813,-83.01,-84.84
1734501524015360521,1734501524015070676,12,0.69,0.87,0.5,38.023158333333335,-82.52,-84.0
1734501524115267730,1734501524115000247,12,0.69,0.87,0.5,38.154488333333326,-83.33,-85.55
1734501524215669025,1734501524215070009,12,0.69,0.87,0.5,38.29832666666667,-82.89,-82.79
1734501524315373822,1734501524314993858,12,0.69,0.87,0.5,38.429656333333334,-82.3,-82.59
1734501524415363588,1734501524414999723,12,0.69,0.87,0.5,38.579747999999995,-81.74,-82.33
1734501524515470214,1734501524514994382,12,0.69,0.87,0.5,38.704824333333335,-83.22,-83.95
1734501524618226420,1734501524617689371,12,0.69,0.87,0.5,38.87367833333334,-82.39,-82.1
1734501524815334366,1734501524815046548,12,0.69,0.87,0.5,39.061293000000006,-82.31,-82.11
1734501524918530964,1734501524918386697,12,0.69,0.87,0.5,39.273921666666666,-83.38,-83.83
1734501525015527259,1734501525015066623,12,0.69,0.87,0.5,39.424012,-82.63,-82.82
1734501525115674909,1734501525115047454,12,0.69,0.87,0.5,39.53657966666667,-85.06,-86.28
1734501525215421800,1734501525215137481,12,0.69,0.87,0.5,39.66790966666667,-83.19,-82.97
1734501525316452276,1734501525316237449,12,0.69,0.87,0.5,39.81800166666667,-82.43,-82.42
1734501525418478132,1734501525418192386,12,0.69,0.87,0.5,39.98685566666666,-83.36,-83.65
1734501525515468064,1734501525515074968,12,0.69,0.87,0.5,40.111931999999996,-83.53,-83.34
1734501525715317539,1734501525714999437,12,0.69,0.87,0.5,40.31205333333333,-83.46,-85.13
1734501525817722712,1734501525817508459,12,0.69,0.87,0.5,40.49966766666666,-83.46,-82.99
1734501525915266668,1734501525915016412,12,0.69,0.87,0.5,40.718551,-83.51,-83.01
1734501526015516945,1734501526015046834,12,0.69,0.87,0.5,40.85613466666667,-82.77,-82.38
1734501526115323053,1734501526114994525,12,0.69,0.87,0.5,40.99997166666667,-83.48,-83.54
1734501526215501766,1734501526215003967,12,0.69,0.87,0.5,41.156317,-82.89,-84.75
1734501526317511654,1734501526317322015,12,0.69,0.87,0.5,41.29390166666667,-84.27,-84.5
1734501526417876519,1734501526417456865,12,0.69,0.87,0.5,41.431485,-83.36,-85.69
1734501526517875394,1734501526517689704,12,0.69,0.87,0.5,41.556561333333335,-83.96,-83.41
1734501526616661678,1734501526616428613,12,0.69,0.87,0.5,41.675384,-83.8,-83.87
1734501526717418132,1734501526716949939,12,0.69,0.87,0.5,41.82547566666667,-83.61,-83.36
1734501526816705508,1734501526816339731,12,0.69,0.87,0.5,41.95680566666667,-83.89,-85.92
1734501526917595090,1734501526917482614,12,0.69,0.87,0.5,42.13191166666667,-83.53,-83.51
1734501527017395881,1734501527017229795,12,0.69,0.87,0.5,42.26949533333334,-82.91,-83.12
1734501527118948915,1734501527118695735,12,0.69,0.87,0.5,42.425840666666666,-82.88,-83.21
1734501527218114268,1734501527217931032,12,0.69,0.87,0.5,42.582186,-82.63,-85.75
1734501527317369849,1734501527317207813,12,0.69,0.87,0.5,42.726023999999995,-82.81,-83.73
1734501527417463852,1734501527417083740,12,0.69,0.87,0.5,42.88236933333334,-83.41,-85.18
1734501527516334626,1734501527516193628,12,0.69,0.87,0.5,43.151284000000004,-83.28,-83.33
1734501527615721033,1734501527615010023,12,0.69,0.87,0.5,43.288867333333336,-83.14,-83.6
1734501527715267952,1734501527715010404,12,0.69,0.87,0.5,43.451466333333336,-84.16,-84.14
1734501527815467217,1734501527815024852,12,0.69,0.87,0.5,43.57654133333333,-84.03,-83.94
1734501527916758098,1734501527916363000,12,0.69,0.87,0.5,43.689110666666664,-84.3,-86.86
1734501528016363811,1734501528016117811,12,0.69,0.87,0.5,43.82044066666666,-83.41,-83.5
1734501528216467698,1734501528216192483,12,0.69,0.87,0.5,43.99554799999999,-84.59,-85.11
1734501528316509619,1734501528316202163,12,0.69,0.87,0.5,44.21443,-84.48,-86.17
1734501528417397586,1734501528416993856,12,0.69,0.87,0.5,44.395789666666666,-84.18,-84.89
1734501528517753488,1734501528516987800,12,0.69,0.87,0.5,44.52086599999999,-85.43,-86.45
1734501528617379576,1734501528617093324,12,0.69,0.87,0.5,44.658450666666674,-86.12,-86.59
1734501528718477733,1734501528718272924,12,0.69,0.87,0.5,44.79603533333333,-84.55,-84.61
1734501528817842545,1734501528817604780,12,0.69,0.87,0.5,44.977396,-84.12,-84.24
1734501528916477079,1734501528916279315,12,0.69,0.87,0.5,45.121233,-83.57,-83.58
1734501529046844416,1734501529046471118,12,0.69,0.87,0.5,45.27757833333333,-84.21,-84.28
1734501529116717255,1734501529116370439,12,0.69,0.87,0.5,45.427669,-84.85,-85.4
1734501529216363241,1734501529216173648,12,0.69,0.87,0.5,45.577761,-84.61,-84.74
1734501529315430313,1734501529315022945,12,0.69,0.87,0.5,45.721598,-85.48,-86.7
1734501529415436454,1734501529415010452,12,0.69,0.87,0.5,45.87168966666667,-84.38,-84.07
1734501529515506085,1734501529515020847,12,0.69,0.87,0.5,46.02178133333333,-86.22,-88.11
1734501529615489925,1734501529615008831,12,0.69,0.87,0.5,46.15936466666667,-85.81,-85.66
1734501529715352771,1734501529715003490,12,0.69,0.87,0.5,46.296948333333326,-89.72,-92.45
1734501529815428710,1734501529815022945,12,0.69,0.87,0.5,46.40951633333333,-87.64,-87.52
1734501529915173673,1734501529915010452,12,0.69,0.87,0.5,46.559608000000004,-85.6,-84.95
1734501530015680629,1734501530015105009,12,0.69,0.87,0.5,46.68468433333334,-86.06,-86.07
1734501530115363803,1734501530115018844,12,0.69,0.87,0.5,46.85353666666666,-84.51,-84.6
1734501530215347394,1734501530215055465,12,0.69,0.87,0.5,46.997375000000005,-84.77,-85.57
1734501530315355864,1734501530315026998,12,0.69,0.87,0.5,47.14746666666667,-84.76,-85.4
1734501530416570319,1734501530416366338,12,0.69,0.87,0.5,47.278798,-85.93,-86.18
1734501530517114499,1734501530516914129,12,0.69,0.87,0.5,47.416381333333334,-85.09,-86.63
1734501530617278883,1734501530617065668,12,0.69,0.87,0.5,47.56021833333333,-87.17,-87.64
1734501530717354906,1734501530717147350,12,0.69,0.87,0.5,47.704055333333336,-84.89,-87.13
1734501530816882801,1734501530816715002,12,0.69,0.87,0.5,47.85414733333334,-84.73,-87.01
1734501530917011109,1734501530916879177,12,0.69,0.87,0.5,47.997985666666665,-84.77,-87.43
1734501531017241493,1734501531017010450,12,0.69,0.87,0.5,48.135569,-84.96,-87.73
1734501531117016957,1734501531116865634,12,0.69,0.87,0.5,48.26064533333332,-85.07,-84.65
1734501531216328457,1734501531216097354,12,0.69,0.87,0.5,48.366959666666666,-86.72,-86.71
1734501531316758297,1734501531316426753,12,0.69,0.87,0.5,48.467021666666675,-85.53,-85.49
1734501531416632472,1734501531416353225,12,0.69,0.87,0.5,48.56708233333333,-87.9,-88.46
1734501531515628773,1734501531515087366,12,0.69,0.87,0.5,48.635874,-83.95,-83.4
1734501531615388993,1734501531615008831,12,0.69,0.87,0.5,48.62961933333333,-85.84,-85.32
1734501531715565649,1734501531715057849,12,0.69,0.87,0.5,48.573334666666675,-86.22,-86.32
1734501531815458037,1734501531815021514,12,0.69,0.87,0.5,48.567081,-86.06,-85.69
1734501532317322697,1734501532317032814,12,0.69,0.87,0.5,48.717174,-84.66,-86.95
1734501532415350879,1734501532415030002,12,0.69,0.87,0.5,48.717174,-84.17,-85.97
1734501532515407287,1734501532515048027,12,0.69,0.87,0.5,48.75469666666667,-83.61,-83.32
1734501532617460728,1734501532617218732,12,0.69,0.87,0.5,48.75469666666667,-84.87,-85.29
1734501532717182147,1734501532716979503,12,0.69,0.87,0.5,48.79221933333334,-84.34,-84.06
1734501532817931020,1734501532817735671,12,0.69,0.87,0.5,48.79221933333334,-83.86,-85.76
1734501532918762471,1734501532918602705,12,0.69,0.87,0.5,48.798473,-86.45,-86.08
1734501533017668719,1734501533017385721,12,0.69,0.87,0.5,48.81098,-84.72,-85.96
1734501533118119501,1734501533117769718,12,0.69,0.87,0.5,48.817233666666674,-85.21,-88.15
1734501533217243802,1734501533217035293,12,0.69,0.87,0.5,48.81098,-83.5,-84.29
1734501533316365435,1734501533316270112,12,0.69,0.87,0.5,48.79221933333334,-84.21,-84.75
1734501533416623588,1734501533416359901,12,0.69,0.87,0.5,48.79221933333334,-83.9,-85.07
1734501533516566638,1734501533516232967,12,0.69,0.87,0.5,48.798473,-84.63,-85.69
1734501533616690001,1734501533616361379,12,0.69,0.87,0.5,48.81098033333333,-83.68,-84.54
1734501533716616253,1734501533716232776,12,0.69,0.87,0.5,48.785964666666665,-83.52,-85.15
1734501533816565600,1734501533816207885,12,0.69,0.87,0.5,48.773456333333336,-83.53,-83.53
1734501533916638851,1734501533916226625,12,0.69,0.87,0.5,48.77970966666667,-83.53,-85.73
1734501534047086704,1734501534046868562,12,0.69,0.87,0.5,48.810978666666664,-83.23,-83.14
1734501534116637465,1734501534116404771,12,0.69,0.87,0.5,48.823487,-84.72,-86.67
1734501534216400662,1734501534216170549,12,0.69,0.87,0.5,48.80472633333333,-84.05,-84.01
1734501534316860434,1734501534316306352,12,0.69,0.87,0.5,48.77345733333334,-84.76,-85.97
1734501534416625698,1734501534416346788,12,0.69,0.87,0.5,48.760949000000004,-84.1,-84.42
1734501534516450827,1734501534516162633,12,0.69,0.87,0.5,48.77970966666667,-83.87,-83.69
1734501534616831087,1734501534616292953,12,0.69,0.87,0.5,48.785963333333335,-83.43,-86.17
1734501534716737850,1734501534716331005,12,0.69,0.87,0.5,48.785963333333335,-86.73,-86.95
1734501534816709585,1734501534816413402,12,0.69,0.87,0.5,48.77971,-84.6,-85.83
1734501534916478465,1734501534916297674,12,0.69,0.87,0.5,48.80472533333333,-83.5,-83.26
1734501535016418549,1734501535016172170,12,0.69,0.87,0.5,48.83599433333333,-87.29,-86.86
1734501535116592159,1734501535116057157,12,0.69,0.87,0.5,48.82974066666666,-85.09,-86.21
1734501535216667066,1734501535216286420,12,0.69,0.87,0.5,48.83599433333333,-83.59,-86.21
1734501535316457690,1734501535316153764,12,0.69,0.87,0.5,48.83599433333333,-86.08,-86.9
1734501535416969522,1734501535416579723,12,0.69,0.87,0.5,48.84850266666666,-84.52,-84.1
1734501535516367288,1734501535516136407,12,0.69,0.87,0.5,48.854756333333334,-85.4,-86.8
1734501535616597089,1734501535616394519,12,0.69,0.87,0.5,48.87977166666667,-83.43,-83.12
1734501535716652822,1734501535716338157,12,0.69,0.87,0.5,48.854756333333334,-83.57,-83.28
1734501535816550189,1734501535816299676,12,0.69,0.87,0.5,48.84850266666666,-83.72,-83.82
1734501535916640960,1734501535916368246,12,0.69,0.87,0.5,48.83599433333333,-84.3,-83.9
1734501536016649693,1734501536016330480,12,0.69,0.87,0.5,48.86100966666667,-84.12,-85.65
1734501536118579290,1734501536118343114,12,0.69,0.87,0.5,48.86100966666667,-86.26,-86.18
1734501536217990209,1734501536217770576,12,0.69,0.87,0.5,48.842249,-84.97,-86.36
1734501536318114082,1734501536317849636,12,0.69,0.87,0.5,48.817233666666674,-86.31,-86.67
1734501536417816042,1734501536417675018,12,0.69,0.87,0.5,48.81098033333333,-83.94,-83.92
1734501536518083213,1734501536517835855,12,0.69,0.87,0.5,48.83599566666667,-86.97,-87.77
1734501536617784354,1734501536617712020,12,0.69,0.87,0.5,48.867264666666664,-84.87,-85.86
1734501536716487090,1734501536716170787,12,0.69,0.87,0.5,48.867264666666664,-84.5,-85.06
1734501536816517083,1734501536816157579,12,0.69,0.87,0.5,48.854756333333334,-84.28,-83.96
1734501536918106247,1734501536917861700,12,0.69,0.87,0.5,48.842249,-84.49,-87.47
1734501537017566107,1734501537017320156,12,0.69,0.87,0.5,48.854756,-84.69,-85.91
1734501537117248543,1734501537116987228,12,0.69,0.87,0.5,48.854756,-84.95,-86.32
1734501537215363267,1734501537215013027,12,0.69,0.87,0.5,48.854756,-84.61,-86.57
1734501537716454961,1734501537716226577,12,0.69,0.87,0.5,48.89228,-85.54,-85.64
1734501537816353910,1734501537816085577,12,0.69,0.87,0.5,48.89853366666667,-84.73,-85.22
1734501537916514867,1734501537916173934,12,0.69,0.87,0.5,48.90478733333333,-84.47,-86.92
1734501538015496962,1734501538015052556,12,0.69,0.87,0.5,48.89853366666667,-86.66,-87.93
1734501538117421071,1734501538117225170,12,0.69,0.87,0.5,48.89853366666667,-84.25,-85.45
1734501538217710492,1734501538217507362,12,0.69,0.87,0.5,48.88602633333333,-84.67,-84.92
1734501538315381010,1734501538315014362,12,0.69,0.87,0.5,48.88602633333333,-84.26,-85.74
1734501538415376149,1734501538415062665,12,0.69,0.87,0.5,48.917295333333335,-86.19,-85.58
1734501538515274063,1734501538515017986,12,0.69,0.87,0.5,48.936056,-84.49,-84.44
1734501538615336593,1734501538615041255,12,0.69,0.87,0.5,48.94230966666667,-85.0,-86.3
1734501538715346338,1734501538715007543,12,0.69,0.87,0.5,48.92980133333333,-84.15,-85.23
1734501538815296992,1734501538815013647,12,0.69,0.87,0.5,48.954817,-86.35,-85.77
1734501538915383144,1734501538915025234,12,0.69,0.87,0.5,48.97983233333334,-84.49,-86.52
1734501539015344022,1734501539015047073,12,0.69,0.87,0.5,48.98608733333333,-85.07,-85.52
1734501539115353708,1734501539114990234,12,0.69,0.87,0.5,48.97983366666667,-83.8,-83.91
1734501539215461889,1734501539215048551,12,0.69,0.87,0.5,48.98608733333333,-84.54,-85.98
1734501539315466515,1734501539315017938,12,0.69,0.87,0.5,49.004848,-84.72,-84.69
1734501539415454926,1734501539415057182,12,0.69,0.87,0.5,49.02360866666667,-85.32,-84.98
1734501539515390494,1734501539515038967,12,0.69,0.87,0.5,49.03611566666667,-84.72,-85.79
1734501539615412751,1734501539615033388,12,0.69,0.87,0.5,49.03611566666667,-84.48,-84.33
1734501539715457403,1734501539715032815,12,0.69,0.87,0.5,49.04862433333333,-84.26,-85.15
1734501539815276782,1734501539815046310,12,0.69,0.87,0.5,49.061133000000005,-83.99,-83.92
1734501539915356325,1734501539915047407,12,0.69,0.87,0.5,49.086148333333334,-82.93,-83.18
1734501540015391835,1734501540014940977,12,0.69,0.87,0.5,49.07989466666667,-84.87,-84.53
1734501540115372765,1734501540115014314,12,0.69,0.87,0.5,49.086148,-85.84,-85.62
1734501540215269731,1734501540215021371,12,0.69,0.87,0.5,49.117416999999996,-84.05,-83.78
1734501540315489716,1734501540315014362,12,0.69,0.87,0.5,49.14243133333334,-83.82,-83.99
1734501540415358884,1734501540415013790,12,0.69,0.87,0.5,49.179954,-85.67,-85.05
1734501540515449257,1734501540515045642,12,0.69,0.87,0.5,49.192461333333334,-85.29,-84.93
1734501540615558477,1734501540615040779,12,0.69,0.87,0.5,49.229985,-84.88,-86.79
1734501540715573230,1734501540715102195,12,0.69,0.87,0.5,49.21122433333334,-87.01,-88.09
1734501540815538231,1734501540815058708,12,0.69,0.87,0.5,49.22373266666667,-85.06,-85.12
1734501540918491315,1734501540918122053,12,0.69,0.87,0.5,49.242493333333336,-84.26,-84.86
1734501541017959396,1734501541017801523,12,0.69,0.87,0.5,49.292522999999996,-84.54,-84.23
1734501541117470437,1734501541117252111,12,0.69,0.87,0.5,49.323792000000005,-84.36,-85.65
1734501541217554423,1734501541217418670,12,0.69,0.87,0.5,49.348807666666666,-84.22,-84.27
1734501541316591170,1734501541316402196,12,0.69,0.87,0.5,49.36756966666667,-83.27,-84.7
1734501541416901043,1734501541416654348,12,0.69,0.87,0.5,49.36756966666667,-84.72,-84.39
1734501541516416269,1734501541516136884,12,0.69,0.87,0.5,49.392585,-83.18,-82.59
1734501541616863155,1734501541616283655,12,0.69,0.87,0.5,49.405092333333336,-84.51,-85.76
1734501541716471689,1734501541716281414,12,0.69,0.87,0.5,49.43636133333333,-84.26,-83.85
1734501541816877241,1734501541816396474,12,0.69,0.87,0.5,49.44886866666667,-84.98,-86.66
1734501541916712085,1734501541916637420,12,0.69,0.87,0.5,49.48013766666667,-84.08,-83.98
1734501542016616331,1734501542016378879,12,0.69,0.87,0.5,49.505152,-83.92,-84.56
1734501542116905333,1734501542116620302,12,0.69,0.87,0.5,49.517659,-82.68,-82.41
1734501542217227601,1734501542217057466,12,0.69,0.87,0.5,49.55518166666667,-84.49,-84.05
1734501542316637586,1734501542316431760,12,0.69,0.87,0.5,49.56143666666667,-85.83,-85.68
1734501542415512163,1734501542415012598,12,0.69,0.87,0.5,49.573945,-85.49,-87.49
1734501542515634074,1734501542515040874,12,0.69,0.87,0.5,49.567691333333336,-84.23,-83.74
1734501542616534487,1734501542616312742,12,0.69,0.87,0.5,49.567691333333336,-84.62,-85.61
1734501543015339185,1734501543015030860,12,0.69,0.87,0.5,49.41134566666667,-85.87,-85.49
1734501543116843735,1734501543116505384,12,0.69,0.87,0.5,49.392584,-88.65,-90.51
1734501543215433749,1734501543215049743,12,0.69,0.87,0.5,49.34255433333333,-87.35,-87.05
1734501543316004330,1734501543315009593,12,0.69,0.87,0.5,49.31128533333333,-87.71,-88.61
1734501543416786154,1734501543416447162,12,0.69,0.87,0.5,49.26125533333333,-85.54,-86.52
1734501543516457527,1734501543516166925,12,0.69,0.87,0.5,49.248747,-91.91,-94.1
1734501543617266222,1734501543617102146,12,0.69,0.87,0.5,49.229985,-87.23,-89.0
1734501543715453500,1734501543715063333,12,0.69,0.87,0.5,49.20496966666666,-86.8,-86.32
1734501543818204150,1734501543817949295,12,0.69,0.87,0.5,49.17995533333333,-86.33,-85.92
1734501543917999407,1734501543917789220,12,0.69,0.87,0.5,49.15494,-85.85,-85.45
1734501544015505200,1734501544015060663,12,0.69,0.87,0.5,49.136178,-85.77,-85.48
1734501544115318662,1734501544115014553,12,0.69,0.87,0.5,49.123669666666665,-88.32,-87.82
1734501544216671602,1734501544216099977,12,0.69,0.87,0.5,49.117416,-86.83,-86.88
1734501544315396317,1734501544315021991,12,0.69,0.87,0.5,49.104909,-85.95,-88.25
1734501544417111644,1734501544416147947,12,0.69,0.87,0.5,49.07989333333333,-85.75,-87.29
1734501544516542662,1734501544516204595,12,0.69,0.87,0.5,49.04237066666667,-89.28,-89.79
1734501544616485817,1734501544616149663,12,0.69,0.87,0.5,38.210772999999996,-85.55,-87.82
1734501544716644923,1734501544716239690,12,0.69,0.87,0.5,38.185759,-85.57,-85.56
1734501544815488456,1734501544815025329,12,0.69,0.87,0.5,38.154489999999996,-85.58,-85.85
1734501544915299501,1734501544915047645,12,0.69,0.87,0.5,48.90478733333333,-86.66,-88.47
1734501545016855709,1734501545016687631,12,0.69,0.87,0.5,48.86100966666667,-85.9,-88.32
1734501545116459724,1734501545116193771,12,0.69,0.87,0.5,48.804725,-85.53,-84.86
1734501545216303318,1734501545216167211,12,0.69,0.87,0.5,48.760949000000004,-86.55,-86.88
1734501545316057803,1734501545315896511,12,0.69,0.87,0.5,48.704664333333334,-86.14,-88.32
1734501545415390026,1734501545415020704,12,0.69,0.87,0.5,48.648381,-86.21,-88.03
1734501545515479138,1734501545515052080,12,0.69,0.87,0.5,48.58584266666667,-86.01,-85.45
1734501545615426482,1734501545615030527,12,0.69,0.87,0.5,48.523306,-87.76,-87.54
1734501545715291845,1734501545715011119,12,0.69,0.87,0.5,48.460767999999995,-85.44,-84.91
1734501545815276467,1734501545815024852,12,0.69,0.87,0.5,48.38572266666667,-87.24,-89.07
1734501545915315945,1734501545915041446,12,0.69,0.87,0.5,48.329438,-85.17,-84.6
1734501546015554433,1734501546015074491,12,0.69,0.87,0.5,48.25439133333333,-85.28,-84.94
1734501546115560219,1734501546115042448,12,0.69,0.87,0.5,48.198107,-85.26,-84.68
1734501546215455670,1734501546215012550,12,0.69,0.87,0.5,48.10429966666667,-85.71,-85.56
1734501546315540604,1734501546315087795,12,0.69,0.87,0.5,48.023001,-84.91,-87.35
1734501546415575883,1734501546415037870,12,0.69,0.87,0.5,47.922940000000004,-84.99,-87.45
1734501546515498854,1734501546515069484,12,0.69,0.87,0.5,47.83538633333333,-84.96,-87.5
1734501546615845486,1734501546615020036,12,0.69,0.87,0.5,47.754086,-84.76,-84.35
1734501546715451908,1734501546715073347,12,0.69,0.87,0.5,47.691548000000004,-85.11,-84.56
1734501546815379885,1734501546815026760,12,0.69,0.87,0.5,47.60399433333333,-85.38,-85.24
1734501546915413055,1734501546915018558,12,0.69,0.87,0.5,47.522695666666664,-85.12,-85.85
1734501547015404407,1734501547015017509,12,0.69,0.87,0.5,47.39761933333333,-86.9,-86.99
1734501547115510788,1734501547115039825,12,0.69,0.87,0.5,47.30381233333333,-84.29,-84.04
1734501547215436667,1734501547215028762,12,0.69,0.87,0.5,47.19124300000001,-85.14,-86.03
1734501547315670282,1734501547315090894,12,0.69,0.87,0.5,47.103689333333335,-84.82,-84.34
1734501547415733181,1734501547415093898,12,0.69,0.87,0.5,46.99112133333333,-85.41,-86.27
1734501547515406750,1734501547514959573,12,0.69,0.87,0.5,46.89106066666667,-85.42,-85.11
1734501547615311476,1734501547615061759,12,0.69,0.87,0.5,46.78474633333334,-85.36,-85.96
1734501547715427511,1734501547715033769,12,0.69,0.87,0.5,46.69093899999999,-84.08,-83.54
1734501547815679790,1734501547815021991,12,0.69,0.87,0.5,46.590878333333336,-83.75,-83.56
1734501547915471005,1734501547915055036,12,0.69,0.87,0.5,46.503324666666664,-83.98,-85.64
1734501548015297281,1734501548015021324,12,0.69,0.87,0.5,46.397010333333334,-84.99,-86.64
1734501548115522104,1734501548115021705,12,0.69,0.87,0.5,46.30945666666667,-85.66,-85.47
1734501548215436969,1734501548215026617,12,0.69,0.87,0.5,46.203142333333325,-83.98,-83.36
1734501548315661862,1734501548315121889,12,0.69,0.87,0.5,46.09057333333333,-86.93,-87.0
1734501548415485214,1734501548415045022,12,0.69,0.87,0.5,45.97175033333334,-85.65,-86.37
1734501548518426853,1734501548518111228,12,0.69,0.87,0.5,45.852927666666666,-85.17,-84.75
1734501548618369084,1734501548618118762,12,0.69,0.87,0.5,45.734105,-84.88,-86.33
1734501548718999705,1734501548718787431,12,0.69,0.87,0.5,45.60902866666667,-87.2,-88.83
1734501548818747958,1734501548818512678,12,0.69,0.87,0.5,45.490206,-85.71,-85.75
1734501548917954731,1734501548917761087,12,0.69,0.87,0.5,45.37138433333333,-86.55,-88.2
1734501549047664543,1734501549047527790,12,0.69,0.87,0.5,45.26507,-84.48,-85.59
1734501549117638966,1734501549117225170,12,0.69,0.87,0.5,45.15875566666667,-85.85,-87.35
1734501549218448757,1734501549218010425,12,0.69,0.87,0.5,45.058695,-84.9,-84.44
1734501549317100796,1734501549316634178,12,0.69,0.87,0.5,44.933619,-85.0,-86.77
1734501549416610769,1734501549416332006,12,0.69,0.87,0.5,44.802289,-85.7,-85.56
1734501549516742243,1734501549516404151,12,0.69,0.87,0.5,44.66470433333333,-85.11,-85.27
1734501549616525972,1734501549616270065,12,0.69,0.87,0.5,44.545881333333334,-85.63,-85.17
1734501549715262249,1734501549714998722,12,0.69,0.87,0.5,44.439567000000004,-85.13,-87.08
1734501549815558900,1734501549815016508,12,0.69,0.87,0.5,44.33950633333333,-87.06,-87.25
1734501550316568189,1734501550316173791,12,0.69,0.87,0.5,43.889232,-87.53,-88.73
1734501550416384913,1734501550415984869,12,0.69,0.87,0.5,43.795425,-92.93,-94.8
1734501550515335062,1734501550515047073,12,0.69,0.87,0.5,43.757902333333334,-88.7,-89.11
1734501550618863920,1734501550618571758,12,0.69,0.87,0.5,43.75164733333333,-89.74,-91.74
1734501550718641520,1734501550718461990,12,0.69,0.87,0.5,43.73914,-88.19,-87.92
1734501550816273617,1734501550816154956,12,0.69,0.87,0.5,43.726633,-87.68,-87.4
1734501550916622382,1734501550916241407,12,0.69,0.87,0.5,43.695364000000005,-87.58,-87.34
1734501551016522180,1734501551016184568,12,0.69,0.87,0.5,43.695364000000005,-89.18,-91.35
1734501551116503560,1734501551116357088,12,0.69,0.87,0.5,43.68911033333333,-87.75,-88.75
1734501551216441699,1734501551216342449,12,0.69,0.87,0.5,43.68911033333333,-87.83,-89.38
1734501551316925864,1734501551316622734,12,0.69,0.87,0.5,43.68911033333333,-88.29,-90.66
1734501551416509221,1734501551416204214,12,0.69,0.87,0.5,43.695365,-87.63,-87.48
1734501551515493332,1734501551515085935,12,0.69,0.87,0.5,43.67660333333333,-88.75,-89.64
1734501551616487343,1734501551616244792,12,0.69,0.87,0.5,43.664095,-87.79,-88.02
1734501551716752156,1734501551716210603,12,0.69,0.87,0.5,43.63907966666667,-90.52,-90.65
1734501551816585692,1734501551816296100,12,0.69,0.87,0.5,43.65784133333333,-87.35,-86.93
1734501551917354207,1734501551917073249,12,0.69,0.87,0.5,43.670349666666674,-89.74,-89.3
1734501552017304316,1734501552017125368,12,0.69,0.87,0.5,43.68285666666667,-87.26,-88.95
1734501552117434441,1734501552117185115,12,0.69,0.87,0.5,43.65158766666667,-88.78,-89.73
1734501552217451590,1734501552217236995,12,0.69,0.87,0.5,43.639079333333335,-88.44,-88.0
1734501552317599366,1734501552317444324,12,0.69,0.87,0.5,43.614064000000006,-87.76,-90.34
1734501552417971876,1734501552417786121,12,0.69,0.87,0.5,43.620317666666665,-87.87,-88.53
1734501552517001637,1734501552516827583,12,0.69,0.87,0.5,43.607810666666666,-87.61,-86.93
1734501552617285056,1734501552617159128,12,0.69,0.87,0.5,43.614065333333336,-87.95,-88.94
1734501552717164874,1734501552717007160,12,0.69,0.87,0.5,43.614065333333336,-88.47,-91.0
1734501552817390242,1734501552817175149,12,0.69,0.87,0.5,43.620319,-92.75,-92.22
1734501552916458184,1734501552916130781,12,0.69,0.87,0.5,43.620318999999995,-88.01,-88.07
1734501553016256911,1734501553016100406,12,0.69,0.87,0.5,43.60155699999999,-89.55,-89.95
1734501553116659491,1734501553116335630,12,0.69,0.87,0.5,43.582795000000004,-89.92,-90.26
1734501553415298355,1734501553415025711,12,0.69,0.87,0.5,43.57028666666667,-89.01,-90.66
1734501553515358894,1734501553515051364,12,0.69,0.87,0.5,43.576540333333334,-88.18,-89.18
1734501553615431177,1734501553615027427,12,0.69,0.87,0.5,43.57028666666667,-86.65,-86.41
1734501553715301852,1734501553715033531,12,0.69,0.87,0.5,43.57028666666667,-86.82,-88.2
1734501553815347631,1734501553815038919,12,0.69,0.87,0.5,43.57028666666667,-88.53,-88.34
1734501553915575717,1734501553915084362,12,0.69,0.87,0.5,43.582795,-87.96,-87.51
1734501554046851715,1734501554046440362,12,0.69,0.87,0.5,43.607810666666666,-88.68,-88.26
1734501554116402353,1734501554116135835,12,0.69,0.87,0.5,43.60155699999999,-88.03,-88.24
1734501554216399139,1734501554216192483,12,0.69,0.87,0.5,43.61406433333334,-88.59,-89.37
1734501554316796422,1734501554316466093,12,0.69,0.87,0.5,43.620317666666665,-89.01,-91.28
1734501554416615167,1734501554416305303,12,0.69,0.87,0.5,43.632826,-87.81,-90.31
1734501554516877302,1734501554516542196,12,0.69,0.87,0.5,43.614064000000006,-87.91,-89.33
1734501554616490408,1734501554616291522,12,0.69,0.87,0.5,43.632825999999994,-88.09,-88.26
1734501554717623340,1734501554717376708,12,0.69,0.87,0.5,43.62657133333334,-88.63,-90.24
1734501554817093381,1734501554816926002,12,0.69,0.87,0.5,43.64533333333333,-87.83,-87.62
1734501554917470022,1734501554917299270,12,0.69,0.87,0.5,43.64533333333333,-88.39,-88.5
1734501555017390053,1734501555017118453,12,0.69,0.87,0.5,43.69536433333334,-87.51,-88.25
1734501555115407304,1734501555115007162,12,0.69,0.87,0.5,43.720379666666666,-89.31,-91.06
1734501555217312273,1734501555217080831,12,0.69,0.87,0.5,43.732886666666666,-89.37,-89.38
1734501555318014968,1734501555317937612,12,0.69,0.87,0.5,43.707871000000004,-87.45,-87.83
1734501555418314827,1734501555418123006,12,0.69,0.87,0.5,43.676602,-87.91,-88.0
1734501555518145675,1734501555518009662,12,0.69,0.87,0.5,43.645333,-88.28,-88.36
1734501555618194282,1734501555618048906,12,0.69,0.87,0.5,43.664095,-87.51,-88.75
1734501555718061601,1734501555717894077,12,0.69,0.87,0.5,43.701617666666664,-88.53,-90.32
1734501555816638835,1734501555816353797,12,0.69,0.87,0.5,43.701617666666664,-89.21,-90.71
1734501555916483655,1734501555916299581,12,0.69,0.87,0.5,43.71412466666666,-88.77,-89.66
1734501556016552768,1734501556016300916,12,0.69,0.87,0.5,43.751647,-88.18,-88.49
1734501556116664666,1734501556116317510,12,0.69,0.87,0.5,43.776662666666674,-86.73,-87.05
1734501556215732230,1734501556215030431,12,0.69,0.87,0.5,43.78291633333333,-87.93,-88.92
1734501556315376468,1734501556314994335,12,0.69,0.87,0.5,43.807932,-88.11,-87.89
1734501556415419488,1734501556415042877,12,0.69,0.87,0.5,43.820439,-87.76,-87.47
1734501556516014431,1734501556515007019,12,0.69,0.87,0.5,43.851708,-86.65,-86.52
1734501556816611965,1734501556816342115,12,0.69,0.87,0.5,43.851708,-87.33,-88.7
1734501556916646486,1734501556916333675,12,0.69,0.87,0.5,43.864216666666664,-89.35,-89.54
1734501557016340045,1734501557016122817,12,0.69,0.87,0.5,43.864216666666664,-87.64,-87.39
1734501557117368484,1734501557117077350,12,0.69,0.87,0.5,43.882978666666666,-88.46,-88.29
1734501557317997269,1734501557317807674,12,0.69,0.87,0.5,43.89548566666667,-87.11,-86.74
1734501557416328346,1734501557416140794,12,0.69,0.87,0.5,43.93300966666667,-86.82,-87.29
1734501557516467184,1734501557516182899,12,0.69,0.87,0.5,43.97678566666667,-86.99,-88.01
1734501557616540418,1734501557616269111,12,0.69,0.87,0.5,43.98303933333333,-88.17,-89.76
1734501557716641734,1734501557716388463,12,0.69,0.87,0.5,43.989292999999996,-88.71,-89.85
1734501557817738274,1734501557817559003,12,0.69,0.87,0.5,44.00805499999999,-88.07,-89.33
1734501557915319630,1734501557914994955,12,0.69,0.87,0.5,44.026815666666664,-91.65,-91.65
1734501558015538633,1734501558015015363,12,0.69,0.87,0.5,44.03306933333334,-87.87,-88.22
1734501558115487578,1734501558115041255,12,0.69,0.87,0.5,44.070592000000005,-87.88,-87.95
1734501558216858483,1734501558216452598,12,0.69,0.87,0.5,44.08935400000001,-87.78,-87.97
1734501558316574886,1734501558316362142,12,0.69,0.87,0.5,44.114369333333336,-88.98,-90.14
1734501558416408400,1734501558416216135,12,0.69,0.87,0.5,44.13938466666667,-89.79,-89.41
1734501558516650211,1734501558516436338,12,0.69,0.87,0.5,44.15189166666667,-88.39,-88.17
1734501558615479185,1734501558615025997,12,0.69,0.87,0.5,44.183161000000005,-87.01,-86.86
1734501558716692897,1734501558716319322,12,0.69,0.87,0.5,44.20817666666667,-86.91,-87.25
