%time,field.stamp,field.id,field.x,field.y,field.z,field.distanceFromTag,field.rssi,field.rssi_fp
1730017526478221878,1730017526478048324,3,2.58,-0.87,1.97,4.5277579999999995,-80.25,-81.48
1730017526578605000,1730017526578253746,3,2.58,-0.87,1.97,4.5715346666666665,-81.76,-83.11
1730017526678753241,1730017526678494215,3,2.58,-0.87,1.97,4.490234999999999,-80.44,-81.89
1730017526877623821,1730017526877305507,3,2.58,-0.87,1.97,4.471473333333333,-80.8,-81.92
1730017526977592508,1730017526977310419,3,2.58,-0.87,1.97,4.465219666666667,-81.34,-82.6
1730017527077687351,1730017527077402591,3,2.58,-0.87,1.97,4.452712,-79.92,-81.9
1730017527177633509,1730017527177347898,3,2.58,-0.87,1.97,4.433950666666667,-80.99,-83.22
1730017527277345552,1730017527277215957,3,2.58,-0.87,1.97,4.440204333333333,-81.07,-83.88
1730017527377946745,1730017527377638101,3,2.58,-0.87,1.97,4.440204333333333,-81.42,-84.76
1730017527478266957,1730017527477753400,3,2.58,-0.87,1.97,4.458965666666667,-80.65,-83.9
1730017527577896760,1730017527577803611,3,2.58,-0.87,1.97,4.440204333333333,-79.68,-80.65
1730017527677652026,1730017527677241802,3,2.58,-0.87,1.97,4.402681666666667,-79.88,-80.81
1730017527777572459,1730017527777409315,3,2.58,-0.87,1.97,4.383920333333333,-80.65,-83.92
1730017527877647000,1730017527877245664,3,2.58,-0.87,1.97,4.458966,-82.29,-84.54
1730017527977551305,1730017527977350473,3,2.58,-0.87,1.97,4.452712,-80.35,-94.4
1730017528077875165,1730017528077546834,3,2.58,-0.87,1.97,4.421443,-80.35,-86.99
1730017528177449616,1730017528177188873,3,2.58,-0.87,1.97,4.358905,-80.26,-87.52
1730017528276656912,1730017528276085615,3,2.58,-0.87,1.97,4.383920333333333,-79.39,-86.61
1730017528376401902,1730017528376048564,3,2.58,-0.87,1.97,4.402681666666667,-80.06,-83.43
1730017528476353988,1730017528476055145,3,2.58,-0.87,1.97,4.365158666666667,-79.68,-84.51
1730017528576244693,1730017528576066493,3,2.58,-0.87,1.97,4.365158666666667,-79.69,-83.58
1730017528676440798,1730017528676062107,3,2.58,-0.87,1.97,4.365158666666667,-79.53,-81.8
1730017528776776354,1730017528776082277,3,2.58,-0.87,1.97,4.371412666666667,-79.07,-80.72
1730017528876729062,1730017528876083612,3,2.58,-0.87,1.97,4.358905,-78.94,-80.51
1730017528977431621,1730017528977182865,3,2.58,-0.87,1.97,4.340143666666667,-79.0,-82.85
1730017529376510355,1730017529376224517,3,2.58,-0.87,1.97,4.308874666666667,-78.82,-80.87
1730017529476516602,1730017529476069688,3,2.58,-0.87,1.97,4.327636,-79.16,-80.96
1730017529577646853,1730017529577380418,3,2.58,-0.87,1.97,4.340143666666667,-78.86,-81.07
1730017530076399936,1730017530076047897,3,2.58,-0.87,1.97,4.440204666666666,-79.94,-81.01
1730017530176961535,1730017530176106929,3,2.58,-0.87,1.97,4.534012000000001,-80.42,-82.75
1730017530276596815,1730017530276048660,3,2.58,-0.87,1.97,4.552773333333334,-79.66,-80.81
1730017530379742701,1730017530379504203,3,2.58,-0.87,1.97,4.577788333333333,-82.25,-84.28
1730017530479640917,1730017530479433298,3,2.58,-0.87,1.97,4.521504,-79.65,-81.59
1730017530579774970,1730017530579514741,3,2.58,-0.87,1.97,4.515250333333333,-79.35,-80.59
1730017530676508981,1730017530676085710,3,2.58,-0.87,1.97,4.390174333333333,-80.1,-80.65
1730017530777676267,1730017530777498483,3,2.58,-0.87,1.97,4.365159,-79.64,-80.76
1730017530978701362,1730017530978415966,3,2.58,-0.87,1.97,4.358905,-79.98,-81.07
1730017531078260147,1730017531078065872,3,2.58,-0.87,1.97,4.365158666666667,-80.61,-81.26
1730017531178222710,1730017531178080081,3,2.58,-0.87,1.97,4.383920333333333,-80.7,-80.82
1730017531279770398,1730017531279680967,3,2.58,-0.87,1.97,4.396427999999999,-80.46,-81.39
1730017531379744393,1730017531379522562,3,2.58,-0.87,1.97,4.421443333333333,-79.99,-80.96
1730017531479069659,1730017531478824377,3,2.58,-0.87,1.97,4.421443333333333,-80.45,-81.57
1730017531578222377,1730017531578051090,3,2.58,-0.87,1.97,4.408935666666666,-80.45,-81.95
1730017531677573392,1730017531677243709,3,2.58,-0.87,1.97,4.415189333333333,-79.72,-80.86
1730017531778010086,1730017531777733325,3,2.58,-0.87,1.97,4.415189333333333,-79.88,-81.4
1730017531878045918,1730017531877857446,3,2.58,-0.87,1.97,4.408935666666667,-80.36,-81.0
1730017531977537048,1730017531977345466,3,2.58,-0.87,1.97,4.390174333333333,-80.13,-80.51
1730017532077779222,1730017532077582836,3,2.58,-0.87,1.97,4.377666666666667,-80.35,-81.55
1730017532177743870,1730017532177326440,3,2.58,-0.87,1.97,4.377666666666667,-80.05,-81.14
1730017532277959105,1730017532277739048,3,2.58,-0.87,1.97,4.3839206666666675,-80.36,-80.86
1730017532377701835,1730017532377284049,3,2.58,-0.87,1.97,4.402682,-79.83,-81.07
1730017532477646380,1730017532477387428,3,2.58,-0.87,1.97,4.408935666666666,-79.79,-81.27
1730017532577477348,1730017532577226400,3,2.58,-0.87,1.97,4.415189333333333,-81.75,-81.74
1730017532678209237,1730017532678045749,3,2.58,-0.87,1.97,4.396428,-80.16,-80.83
1730017532778530739,1730017532778294563,3,2.58,-0.87,1.97,4.396428,-81.33,-82.19
1730017532878518213,1730017532878269910,3,2.58,-0.87,1.97,4.371412666666667,-80.28,-81.26
1730017532978720214,1730017532978460788,3,2.58,-0.87,1.97,4.383920333333333,-80.01,-80.9
1730017533078463797,1730017533078211069,3,2.58,-0.87,1.97,4.390174333333333,-80.22,-80.84
1730017533178925327,1730017533178602933,3,2.58,-0.87,1.97,4.415189666666667,-79.82,-82.72
1730017533278832442,1730017533278537750,3,2.58,-0.87,1.97,4.4339509999999995,-80.35,-80.98
1730017533378258281,1730017533378050804,3,2.58,-0.87,1.97,4.440204666666667,-80.9,-81.74
1730017533478519592,1730017533478307485,3,2.58,-0.87,1.97,4.446458333333333,-81.54,-82.52
1730017533578458639,1730017533578271627,3,2.58,-0.87,1.97,4.440204333333333,-81.54,-81.21
1730017533678514180,1730017533678321838,3,2.58,-0.87,1.97,4.440204333333333,-79.98,-81.41
1730017533778852958,1730017533778652191,3,2.58,-0.87,1.97,4.427696999999999,-80.82,-81.03
1730017533878187113,1730017533877980947,3,2.58,-0.87,1.97,4.4339509999999995,-80.66,-81.11
1730017533978667559,1730017533978413105,3,2.58,-0.87,1.97,4.427697333333334,-80.54,-81.15
1730017534079026740,1730017534078659772,3,2.58,-0.87,1.97,4.452712333333333,-81.26,-82.66
1730017534178931759,1730017534178512096,3,2.58,-0.87,1.97,4.4652199999999995,-81.23,-82.4
1730017534278448357,1730017534278274536,3,2.58,-0.87,1.97,4.508996666666666,-81.44,-84.45
1730017534378749134,1730017534378490209,3,2.58,-0.87,1.97,4.521504333333334,-83.57,-86.25
1730017534478933838,1730017534478689432,3,2.58,-0.87,1.97,4.5089966666666665,-80.7,-80.97
1730017534679447246,1730017534679194688,3,2.58,-0.87,1.97,4.452712333333333,-80.76,-82.26
1730017535078317421,1730017535077716588,3,2.58,-0.87,1.97,4.340143666666667,-81.59,-85.81
1730017535177865604,1730017535177423000,3,2.58,-0.87,1.97,4.271351666666667,-81.33,-82.13
1730017535878998419,1730017535878730773,3,2.58,-0.87,1.97,3.9086309999999997,-79.22,-80.77
1730017535978575775,1730017535978058576,3,2.58,-0.87,1.97,3.864854333333333,-78.95,-81.09
1730017536079406076,1730017536079125404,3,2.58,-0.87,1.97,3.839839,-78.38,-80.4
1730017536180177576,1730017536179800987,3,2.58,-0.87,1.97,3.808569666666667,-79.14,-80.88
1730017536279739670,1730017536278731107,3,2.58,-0.87,1.97,3.8085696666666666,-78.52,-80.44
1730017536378704254,1730017536378462791,3,2.58,-0.87,1.97,3.7898083333333332,-79.72,-81.18
1730017536478815521,1730017536478590488,3,2.58,-0.87,1.97,3.7960623333333334,-78.82,-80.68
1730017536578765251,1730017536578499078,3,2.58,-0.87,1.97,3.80857,-78.82,-81.92
1730017536679263878,1730017536678966522,3,2.58,-0.87,1.97,3.7960623333333334,-78.29,-80.97
1730017536779440991,1730017536779189109,3,2.58,-0.87,1.97,3.7647933333333334,-78.89,-81.46
1730017536878764372,1730017536878625392,3,2.58,-0.87,1.97,3.6897473333333335,-78.28,-80.62
1730017536978646889,1730017536978372573,3,2.58,-0.87,1.97,3.6334630000000003,-78.32,-80.48
1730017537078629889,1730017537078461408,3,2.58,-0.87,1.97,3.583432333333333,-78.65,-80.81
1730017537178414081,1730017537178258180,3,2.58,-0.87,1.97,3.5584173333333333,-79.19,-80.78
1730017537278659476,1730017537278367757,3,2.58,-0.87,1.97,3.5396559999999995,-79.12,-80.64
1730017537378575525,1730017537378308057,3,2.58,-0.87,1.97,3.5083870000000004,-79.61,-80.9
1730017537478849888,1730017537478643655,3,2.58,-0.87,1.97,3.489625333333333,-78.95,-80.94
1730017537578379635,1730017537578080654,3,2.58,-0.87,1.97,3.477117666666667,-79.01,-80.97
1730017537678924933,1730017537678747892,3,2.58,-0.87,1.97,3.477117666666667,-78.43,-80.89
1730017537778823890,1730017537778657674,3,2.58,-0.87,1.97,3.458356333333333,-78.23,-80.83
1730017537878509954,1730017537878196716,3,2.58,-0.87,1.97,3.4458486666666666,-78.42,-80.5
1730017537978713851,1730017537978455543,3,2.58,-0.87,1.97,3.4083256666666664,-79.26,-81.14
1730017538078574772,1730017538078127145,3,2.58,-0.87,1.97,3.389564333333334,-79.2,-80.82
1730017538178585227,1730017538178365230,3,2.58,-0.87,1.97,3.3833106666666666,-78.53,-80.64
1730017538276412499,1730017538276060581,3,2.58,-0.87,1.97,3.364549333333333,-79.22,-80.48
1730017538376445303,1730017538376098632,3,2.58,-0.87,1.97,3.339534,-79.61,-80.9
1730017538476432648,1730017538476066827,3,2.58,-0.87,1.97,3.3207723333333328,-79.32,-80.71
1730017538576261008,1730017538576065778,3,2.58,-0.87,1.97,3.3207723333333337,-79.46,-80.95
1730017538676422193,1730017538676058292,3,2.58,-0.87,1.97,3.3207723333333337,-78.82,-80.62
1730017538776730214,1730017538776105642,3,2.58,-0.87,1.97,3.308265,-79.03,-80.63
1730017538876594617,1730017538876074314,3,2.58,-0.87,1.97,3.339534,-78.95,-80.76
1730017538978976461,1730017538978832960,3,2.58,-0.87,1.97,3.3770569999999993,-78.82,-80.87
1730017539078824163,1730017539078622102,3,2.58,-0.87,1.97,3.427087333333333,-79.07,-80.88
1730017539178853363,1730017539178604602,3,2.58,-0.87,1.97,3.4521026666666668,-79.08,-81.05
1730017539279518809,1730017539279301404,3,2.58,-0.87,1.97,3.477117666666667,-79.19,-80.56
1730017539378942382,1730017539378728866,3,2.58,-0.87,1.97,3.5021330000000006,-79.21,-80.68
1730017539479171868,1730017539478953838,3,2.58,-0.87,1.97,3.5459096666666667,-79.37,-80.74
1730017539578895185,1730017539578720092,3,2.58,-0.87,1.97,3.564671333333333,-79.01,-80.57
1730017539678800440,1730017539678720951,3,2.58,-0.87,1.97,3.5896863333333333,-79.18,-80.74
1730017539779124294,1730017539778870344,3,2.58,-0.87,1.97,3.6021939999999995,-78.29,-80.57
1730017539879231615,1730017539879017353,3,2.58,-0.87,1.97,3.6459706666666665,-78.91,-80.85
1730017539979124045,1730017539978749036,3,2.58,-0.87,1.97,3.6709860000000005,-78.44,-80.72
1730017540079816658,1730017540079584360,3,2.58,-0.87,1.97,3.7335240000000005,-79.66,-81.28
1730017540179871933,1730017540179662227,3,2.58,-0.87,1.97,3.771046666666667,-79.23,-80.85
1730017540378674727,1730017540378403425,3,2.58,-0.87,1.97,3.864854,-79.11,-80.76
1730017540478485652,1730017540478300571,3,2.58,-0.87,1.97,3.9524073333333334,-79.13,-80.85
1730017540578437417,1730017540578220367,3,2.58,-0.87,1.97,4.014945666666667,-78.83,-80.85
1730017540776697058,1730017540776091098,3,2.58,-0.87,1.97,4.077483666666667,-79.07,-80.57
1730017541178140921,1730017541177737951,3,2.58,-0.87,1.97,4.340143666666667,-79.34,-80.6
1730017541278693330,1730017541278524398,3,2.58,-0.87,1.97,4.396428,-78.79,-80.71
1730017541379229403,1730017541379050254,3,2.58,-0.87,1.97,4.471473666666667,-78.68,-80.93
1730017541477350711,1730017541477246284,3,2.58,-0.87,1.97,4.552773,-78.7,-80.67
1730017541577526318,1730017541577223539,3,2.58,-0.87,1.97,4.634072666666667,-79.38,-80.96
1730017541676484860,1730017541676077365,3,2.58,-0.87,1.97,4.6778493333333335,-78.94,-80.58
1730017541776731058,1730017541776082754,3,2.58,-0.87,1.97,4.765402666666667,-78.75,-80.74
1730017541876668399,1730017541876070261,3,2.58,-0.87,1.97,4.846702,-78.43,-81.12
1730017541976600208,1730017541976106405,3,2.58,-0.87,1.97,4.953016666666667,-78.49,-81.14
1730017542076450141,1730017542076066017,3,2.58,-0.87,1.97,5.028062333333334,-79.12,-80.91
1730017542176390283,1730017542176074743,3,2.58,-0.87,1.97,5.084346666666666,-79.35,-80.67
1730017542276385729,1730017542276110410,3,2.58,-0.87,1.97,5.140631,-78.51,-80.5
1730017542376306907,1730017542376111507,3,2.58,-0.87,1.97,5.196915333333333,-78.27,-80.68
1730017542476513152,1730017542476142168,3,2.58,-0.87,1.97,5.278215,-78.83,-80.96
1730017542576444158,1730017542576073169,3,2.58,-0.87,1.97,5.390783666666667,-78.7,-80.99
1730017542677558654,1730017542677273273,3,2.58,-0.87,1.97,5.465829333333333,-78.23,-80.4
1730017542778161055,1730017542777799844,3,2.58,-0.87,1.97,5.553382666666667,-78.88,-80.64
1730017542877631402,1730017542877458095,3,2.58,-0.87,1.97,5.609666666666667,-79.13,-80.76
1730017542978197613,1730017542977663993,3,2.58,-0.87,1.97,5.715981333333333,-78.65,-80.62
1730017543077805947,1730017543077481031,3,2.58,-0.87,1.97,5.791027,-78.65,-80.59
1730017543177519095,1730017543177338123,3,2.58,-0.87,1.97,5.884834333333334,-79.36,-81.29
1730017543276466604,1730017543276081323,3,2.58,-0.87,1.97,5.972387666666667,-79.55,-80.8
1730017543376475654,1730017543376149654,3,2.58,-0.87,1.97,6.072448666666666,-79.08,-80.76
1730017543577516724,1730017543577248573,3,2.58,-0.87,1.97,6.1912709999999995,-78.81,-81.0
1730017543977575813,1730017543977288484,3,2.58,-0.87,1.97,6.610276666666667,-78.86,-80.55
1730017544077551857,1730017544077258825,3,2.58,-0.87,1.97,6.697830000000001,-78.76,-80.94
1730017544179360584,1730017544179246902,3,2.58,-0.87,1.97,6.797890666666667,-79.07,-80.85
1730017544276486809,1730017544276062488,3,2.58,-0.87,1.97,6.9229666666666665,-78.98,-80.63
1730017544376593744,1730017544376085519,3,2.58,-0.87,1.97,7.023027666666667,-78.8,-80.58
1730017544476392512,1730017544476078987,3,2.58,-0.87,1.97,7.123088666666668,-79.14,-80.62
1730017544576336567,1730017544576054096,3,2.58,-0.87,1.97,7.223149666666667,-79.42,-80.47
1730017544676721539,1730017544676043033,3,2.58,-0.87,1.97,7.329464333333333,-79.07,-80.78
1730017544776448082,1730017544776052236,3,2.58,-0.87,1.97,7.4420329999999995,-79.08,-80.78
1730017544876389567,1730017544876065492,3,2.58,-0.87,1.97,7.554601666666667,-79.19,-81.09
1730017544976547918,1730017544976066350,3,2.58,-0.87,1.97,7.660916333333333,-79.34,-80.84
1730017545076578125,1730017545076069593,3,2.58,-0.87,1.97,7.773484666666666,-79.41,-81.06
1730017545176406113,1730017545176063776,3,2.58,-0.87,1.97,7.867291666666667,-79.91,-80.89
1730017545276500169,1730017545276068449,3,2.58,-0.87,1.97,7.948591333333333,-79.29,-80.5
1730017545376496079,1730017545376074790,3,2.58,-0.87,1.97,8.042398666666665,-79.14,-80.42
1730017545476892606,1730017545476102828,3,2.58,-0.87,1.97,8.161221333333332,-79.51,-80.87
1730017545576651472,1730017545576058864,3,2.58,-0.87,1.97,8.286297666666668,-79.48,-80.88
1730017545676401461,1730017545676064968,3,2.58,-0.87,1.97,8.392612666666666,-79.15,-80.51
1730017545776577690,1730017545776077985,3,2.58,-0.87,1.97,8.473912333333333,-79.23,-80.54
1730017545876369501,1730017545876058340,3,2.58,-0.87,1.97,8.567719333333335,-79.62,-80.84
1730017545976540664,1730017545976119041,3,2.58,-0.87,1.97,8.667779999999999,-80.33,-81.58
1730017546076379202,1730017546076058626,3,2.58,-0.87,1.97,8.774094666666667,-79.47,-81.51
1730017546278118012,1730017546277765989,3,2.58,-0.87,1.97,8.924186,-79.78,-80.66
1730017546676595028,1730017546676053524,3,2.58,-0.87,1.97,9.430744666666666,-79.41,-80.62
1730017546776459856,1730017546776051998,3,2.58,-0.87,1.97,9.530805666666668,-79.58,-80.81
1730017546878733350,1730017546878566980,3,2.58,-0.87,1.97,9.630866666666668,-79.9,-80.98
1730017546978838790,1730017546978615999,3,2.58,-0.87,1.97,9.737181333333332,-79.76,-81.15
1730017547076382039,1730017547076062679,3,2.58,-0.87,1.97,9.849749666666666,-80.35,-82.84
1730017547176639190,1730017547176089763,3,2.58,-0.87,1.97,9.949810666666666,-80.06,-80.66
1730017547376434413,1730017547376045465,3,2.58,-0.87,1.97,10.056125333333334,-79.92,-80.9
1730017547476405153,1730017547476054430,3,2.58,-0.87,1.97,10.156186666666665,-80.18,-80.79
1730017547576411996,1730017547576048851,3,2.58,-0.87,1.97,10.281263,-80.37,-80.8
1730017547676473308,1730017547676057815,3,2.58,-0.87,1.97,10.381324333333334,-80.05,-80.78
1730017547778716198,1730017547778587818,3,2.58,-0.87,1.97,10.475131,-80.33,-81.05
1730017547879395295,1730017547879253387,3,2.58,-0.87,1.97,10.575191666666667,-79.9,-81.11
1730017547976431229,1730017547976067543,3,2.58,-0.87,1.97,10.694014000000001,-80.14,-80.78
1730017548177462444,1730017548177280426,3,2.58,-0.87,1.97,10.837851666666666,-80.21,-80.88
1730017548577964378,1730017548577414751,3,2.58,-0.87,1.97,11.319395,-80.4,-82.33
1730017548679241374,1730017548679109334,3,2.58,-0.87,1.97,11.444471333333334,-80.73,-82.82
1730017548776270488,1730017548776062011,3,2.58,-0.87,1.97,11.569547666666667,-80.81,-81.54
1730017548878289860,1730017548878054380,3,2.58,-0.87,1.97,11.669608666666667,-80.02,-80.71
1730017549079373698,1730017549079167127,3,2.58,-0.87,1.97,11.8197,-80.12,-80.73
1730017549178902096,1730017549178719758,3,2.58,-0.87,1.97,11.951030000000001,-80.36,-80.83
1730017549278718960,1730017549278523683,3,2.58,-0.87,1.97,12.101121,-80.43,-80.86
1730017549378792033,1730017549378587961,3,2.58,-0.87,1.97,12.226196999999999,-80.25,-81.2
1730017549479485658,1730017549479333639,3,2.58,-0.87,1.97,12.351273333333333,-79.93,-80.55
1730017549578821999,1730017549578618288,3,2.58,-0.87,1.97,12.451334666666668,-80.8,-81.3
1730017549677362939,1730017549677174091,3,2.58,-0.87,1.97,12.538888,-80.36,-81.24
1730017549777480789,1730017549777246475,3,2.58,-0.87,1.97,12.638948666666666,-80.73,-81.23
1730017549877473207,1730017549877201557,3,2.58,-0.87,1.97,12.751517,-80.32,-80.98
1730017549977383255,1730017549977149009,3,2.58,-0.87,1.97,12.851578000000002,-80.89,-81.5
1730017550077469035,1730017550077231884,3,2.58,-0.87,1.97,12.964146666666666,-81.46,-83.5
1730017550177465844,1730017550177212238,3,2.58,-0.87,1.97,13.107984333333334,-81.27,-83.23
1730017550277383274,1730017550277172803,3,2.58,-0.87,1.97,13.233060666666667,-82.14,-83.17
1730017550377546824,1730017550377255916,3,2.58,-0.87,1.97,13.351883,-81.94,-83.44
1730017550477389709,1730017550477117776,3,2.58,-0.87,1.97,13.439436333333333,-81.88,-83.67
1730017550577375643,1730017550577135324,3,2.58,-0.87,1.97,13.545751000000001,-82.01,-83.25
1730017550677522925,1730017550677291631,3,2.58,-0.87,1.97,13.639558333333332,-81.08,-81.23
1730017550777485670,1730017550777190208,3,2.58,-0.87,1.97,13.752127,-82.2,-81.83
1730017550877472780,1730017550877080678,3,2.58,-0.87,1.97,13.870949666666666,-81.16,-81.1
1730017550977536106,1730017550977197885,3,2.58,-0.87,1.97,14.002279333333334,-80.68,-80.85
1730017551077578779,1730017551077376365,3,2.58,-0.87,1.97,14.114847666666668,-80.92,-81.26
1730017551177444680,1730017551177262306,3,2.58,-0.87,1.97,14.227416,-80.2,-80.76
1730017551277448879,1730017551277134418,3,2.58,-0.87,1.97,14.333731,-80.67,-81.11
1730017551377399606,1730017551377205610,3,2.58,-0.87,1.97,14.433792333333335,-80.43,-80.91
1730017551477463024,1730017551477262735,3,2.58,-0.87,1.97,14.540107,-80.06,-80.65
1730017551577483129,1730017551577180862,3,2.58,-0.87,1.97,14.658929,-80.67,-80.86
1730017551677625055,1730017551677283287,3,2.58,-0.87,1.97,14.771497333333334,-80.41,-81.34
1730017551777351686,1730017551777074098,3,2.58,-0.87,1.97,14.890319666666665,-80.56,-80.84
1730017551978209353,1730017551977996826,3,2.58,-0.87,1.97,15.027903666666665,-80.49,-81.11
1730017552378799686,1730017552378677129,3,2.58,-0.87,1.97,15.559478,-81.14,-82.9
1730017552579103868,1730017552578903913,3,2.58,-0.87,1.97,15.684554,-82.2,-82.83
1730017552679226891,1730017552679081916,3,2.58,-0.87,1.97,15.80963,-83.06,-84.3
1730017552776423443,1730017552776061773,3,2.58,-0.87,1.97,15.940959999999999,-82.5,-83.89
1730017552876543598,1730017552876077175,3,2.58,-0.87,1.97,16.047274666666667,-82.92,-83.3
1730017552976531668,1730017552976070404,3,2.58,-0.87,1.97,16.153589,-82.9,-84.9
1730017553076602719,1730017553076167821,3,2.58,-0.87,1.97,16.266157333333336,-83.01,-83.64
1730017553178066172,1730017553177942037,3,2.58,-0.87,1.97,16.384979333333334,-82.71,-83.48
1730017553278102478,1730017553277954816,3,2.58,-0.87,1.97,16.497547666666666,-81.8,-83.16
1730017553378316380,1730017553378083229,3,2.58,-0.87,1.97,16.628877666666668,-81.09,-81.8
1730017553478391573,1730017553478261947,3,2.58,-0.87,1.97,16.741446333333332,-81.45,-83.51
1730017553578390778,1730017553578169107,3,2.58,-0.87,1.97,16.835253666666663,-81.48,-82.43
1730017553678331725,1730017553678105115,3,2.58,-0.87,1.97,16.929061,-80.85,-81.26
1730017554077325800,1730017554077133655,3,2.58,-0.87,1.97,17.391842666666665,-81.1,-82.45
1730017554178408332,1730017554178161621,3,2.58,-0.87,1.97,17.47939633333333,-81.28,-82.51
1730017554277808484,1730017554277467727,3,2.58,-0.87,1.97,17.560695666666668,-80.84,-81.57
1730017554377519629,1730017554377303123,3,2.58,-0.87,1.97,17.673264333333332,-81.37,-81.52
1730017554478109984,1730017554477893114,3,2.58,-0.87,1.97,17.773325,-80.67,-80.97
1730017554578762620,1730017554578641891,3,2.58,-0.87,1.97,17.892148000000002,-80.85,-81.18
1730017554676619265,1730017554676074028,3,2.58,-0.87,1.97,17.998463,-81.26,-81.38
1730017554776438510,1730017554776056289,3,2.58,-0.87,1.97,18.111031666666666,-80.95,-82.24
1730017554876486710,1730017554876057386,3,2.58,-0.87,1.97,18.204838666666667,-81.21,-80.95
1730017554976248901,1730017554976070642,3,2.58,-0.87,1.97,18.286137999999998,-81.08,-81.53
1730017555076801073,1730017555076178789,3,2.58,-0.87,1.97,18.361183666666665,-80.65,-81.34
1730017555176334792,1730017555176063776,3,2.58,-0.87,1.97,18.417467666666667,-81.21,-81.43
1730017555276407638,1730017555276094198,3,2.58,-0.87,1.97,18.480006,-81.97,-81.82
1730017555378184897,1730017555378083229,3,2.58,-0.87,1.97,18.530036666666664,-80.98,-80.9
1730017555478356763,1730017555477985620,3,2.58,-0.87,1.97,18.573813666666666,-81.17,-81.25
1730017555578109927,1730017555577904939,3,2.58,-0.87,1.97,18.592575,-81.27,-82.8
1730017555678228138,1730017555677890539,3,2.58,-0.87,1.97,18.56755933333333,-81.81,-81.92
1730017555778152110,1730017555778028011,3,2.58,-0.87,1.97,18.55505133333333,-80.95,-80.94
1730017555878958077,1730017555878615379,3,2.58,-0.87,1.97,18.555051333333335,-81.0,-81.64
1730017555978235825,1730017555978043794,3,2.58,-0.87,1.97,18.598828333333334,-81.46,-81.93
1730017556078314085,1730017556078173160,3,2.58,-0.87,1.97,18.655113,-80.96,-80.93
1730017556178626415,1730017556178397417,3,2.58,-0.87,1.97,18.72390466666667,-81.57,-81.22
1730017556278449877,1730017556278110027,3,2.58,-0.87,1.97,18.761427,-81.49,-81.68
1730017556378395799,1730017556378193616,3,2.58,-0.87,1.97,18.79894966666667,-81.27,-81.39
1730017556478379442,1730017556478181123,3,2.58,-0.87,1.97,18.84272633333333,-81.26,-81.07
1730017556578191050,1730017556577962398,3,2.58,-0.87,1.97,18.924026,-81.67,-81.83
1730017556678718990,1730017556678569078,3,2.58,-0.87,1.97,18.986563999999998,-81.24,-81.1
1730017556778219234,1730017556778021574,3,2.58,-0.87,1.97,19.049102333333334,-81.63,-83.18
1730017556878200957,1730017556877979278,3,2.58,-0.87,1.97,19.11164033333333,-82.35,-82.51
1730017556978453655,1730017556978248357,3,2.58,-0.87,1.97,19.180432333333332,-81.63,-81.42
1730017557078099535,1730017557077814579,3,2.58,-0.87,1.97,19.25547733333333,-81.76,-81.63
1730017557178136299,1730017557178010463,3,2.58,-0.87,1.97,5.165646,-82.08,-82.99
1730017557278330892,1730017557278172731,3,2.58,-0.87,1.97,5.228184,-82.06,-82.27
1730017557378262422,1730017557378037214,3,2.58,-0.87,1.97,5.278215333333335,-82.55,-82.42
1730017557478299435,1730017557478171110,3,2.58,-0.87,1.97,19.468108333333337,-82.4,-83.55
1730017557578161268,1730017557577948570,3,2.58,-0.87,1.97,19.505631,-81.45,-81.45
1730017557678269167,1730017557678108930,3,2.58,-0.87,1.97,19.518138,-81.99,-82.22
1730017557778948786,1730017557778753757,3,2.58,-0.87,1.97,19.536899000000002,-82.0,-81.82
1730017557879025500,1730017557878815174,3,2.58,-0.87,1.97,19.568168,-82.19,-84.1
1730017557978815899,1730017557978650331,3,2.58,-0.87,1.97,19.568168,-82.26,-82.36
1730017558078888945,1730017558078772544,3,2.58,-0.87,1.97,19.555660333333332,-82.67,-82.6
1730017558179081072,1730017558178932189,3,2.58,-0.87,1.97,19.524391333333334,-82.78,-82.45
1730017558279020052,1730017558278774738,3,2.58,-0.87,1.97,19.50563,-83.52,-83.08
1730017558378730344,1730017558378581523,3,2.58,-0.87,1.97,19.505629999999996,-83.71,-85.25
1730017558478659567,1730017558478543043,3,2.58,-0.87,1.97,19.480615,-83.66,-83.41
1730017558578903426,1730017558578641891,3,2.58,-0.87,1.97,19.480615,-83.34,-82.75
1730017558678565582,1730017558678367137,3,2.58,-0.87,1.97,19.455599666666668,-83.23,-82.96
1730017558778601723,1730017558778469324,3,2.58,-0.87,1.97,19.461853333333334,-83.4,-84.93
1730017558878627318,1730017558878426551,3,2.58,-0.87,1.97,19.449345666666666,-82.7,-82.37
1730017558978592917,1730017558978435993,3,2.58,-0.87,1.97,19.43683833333333,-82.41,-83.44
1730017559079048949,1730017559078804731,3,2.58,-0.87,1.97,19.418077,-81.99,-82.27
1730017559179178902,1730017559178915023,3,2.58,-0.87,1.97,19.405569666666665,-81.4,-81.74
1730017559276448149,1730017559276077747,3,2.58,-0.87,1.97,13.845933333333333,-81.69,-100.86
1730017559378856121,1730017559378766059,3,2.58,-0.87,1.97,13.839679666666667,-81.3,-81.51
1730017559478870446,1730017559478782176,3,2.58,-0.87,1.97,13.820917666666666,-82.29,-82.82
1730017559778185640,1730017559777944326,3,2.58,-0.87,1.97,19.349285,-82.06,-81.79
1730017559878438906,1730017559878198623,3,2.58,-0.87,1.97,19.305508333333332,-82.64,-82.75
1730017560576454914,1730017560576057434,3,2.58,-0.87,1.97,19.00532533333333,-81.67,-81.76
1730017560676811714,1730017560676163434,3,2.58,-0.87,1.97,18.961548666666665,-81.14,-81.23
1730017560779224382,1730017560778948068,3,2.58,-0.87,1.97,18.911518333333333,-80.93,-81.91
1730017560878737845,1730017560878574848,3,2.58,-0.87,1.97,18.86774166666667,-80.65,-80.95
1730017560978071938,1730017560977890014,3,2.58,-0.87,1.97,18.79895,-80.78,-81.54
1730017561079959480,1730017561079791307,3,2.58,-0.87,1.97,18.755173666666668,-81.2,-81.43
1730017561178746150,1730017561178561687,3,2.58,-0.87,1.97,18.69888966666667,-80.85,-81.69
1730017561279191480,1730017561279066324,3,2.58,-0.87,1.97,18.630098,-80.83,-81.36
1730017561378498265,1730017561378378868,3,2.58,-0.87,1.97,18.555052,-81.0,-81.05
1730017561479308456,1730017561479180335,3,2.58,-0.87,1.97,18.492513666666667,-80.66,-81.35
1730017561579132867,1730017561578857660,3,2.58,-0.87,1.97,18.45499033333333,-81.22,-81.16
1730017561679056419,1730017561678828716,3,2.58,-0.87,1.97,18.40496,-80.88,-81.03
1730017561779087751,1730017561778984546,3,2.58,-0.87,1.97,18.342422,-80.91,-81.47
1730017561879106198,1730017561878964900,3,2.58,-0.87,1.97,18.254869,-80.49,-80.76
1730017561978827699,1730017561978618860,3,2.58,-0.87,1.97,18.167315333333335,-80.66,-81.1
1730017562079113841,1730017562078838348,3,2.58,-0.87,1.97,18.086016,-81.16,-81.21
1730017562178902015,1730017562178597688,3,2.58,-0.87,1.97,18.02347766666667,-81.06,-80.92
1730017562279128314,1730017562279004096,3,2.58,-0.87,1.97,17.96719366666667,-81.63,-81.86
1730017562378896652,1730017562378650903,3,2.58,-0.87,1.97,17.904655333333334,-81.57,-81.58
1730017562478733440,1730017562478475093,3,2.58,-0.87,1.97,17.829609666666666,-81.79,-81.59
1730017562578726629,1730017562578604221,3,2.58,-0.87,1.97,17.754564,-81.21,-81.05
1730017562709966557,1730017562709673404,3,2.58,-0.87,1.97,17.679518,-81.03,-81.05
1730017562778664363,1730017562778483152,3,2.58,-0.87,1.97,17.591965000000002,-80.82,-81.15
1730017562878705985,1730017562878468275,3,2.58,-0.87,1.97,17.48565,-81.08,-81.36
1730017562978207627,1730017562977909326,3,2.58,-0.87,1.97,14.952857666666668,-80.89,-81.05
1730017563379251997,1730017563379089355,3,2.58,-0.87,1.97,17.141690999999998,-81.56,-81.56
1730017563478878454,1730017563478677749,3,2.58,-0.87,1.97,17.041629999999998,-82.05,-82.0
1730017563578901265,1730017563578685045,3,2.58,-0.87,1.97,16.972838333333332,-82.27,-84.61
1730017563676707147,1730017563676102161,3,2.58,-0.87,1.97,16.891538666666666,-83.03,-83.54
1730017563777234992,1730017563777030229,3,2.58,-0.87,1.97,16.82274633333333,-82.52,-82.92
1730017563877912566,1730017563877810001,3,2.58,-0.87,1.97,16.74770033333333,-82.43,-85.14
1730017563976397212,1730017563976056098,3,2.58,-0.87,1.97,16.672654666666666,-82.79,-84.85
1730017564076369423,1730017564076106071,3,2.58,-0.87,1.97,16.597609666666667,-83.23,-84.28
1730017564176658064,1730017564176116466,3,2.58,-0.87,1.97,16.503802333333336,-83.24,-84.92
1730017564276461205,1730017564276053428,3,2.58,-0.87,1.97,16.422502666666666,-83.78,-86.73
1730017564376316174,1730017564376064062,3,2.58,-0.87,1.97,16.328695333333332,-83.91,-85.38
1730017564476412579,1730017564476056814,3,2.58,-0.87,1.97,16.253649333333332,-82.96,-85.84
1730017564576197086,1730017564576098442,3,2.58,-0.87,1.97,16.184857666666666,-82.7,-83.44
1730017564676846112,1730017564676154851,3,2.58,-0.87,1.97,16.109811666666666,-82.09,-82.82
1730017564776481822,1730017564776077985,3,2.58,-0.87,1.97,16.041020333333332,-82.17,-83.24
1730017564876340926,1730017564876060485,3,2.58,-0.87,1.97,15.965974666666668,-81.52,-82.45
1730017564978360568,1730017564978095293,3,2.58,-0.87,1.97,15.897183333333336,-81.86,-83.21
1730017565078317390,1730017565078057289,3,2.58,-0.87,1.97,15.828391333333334,-81.14,-81.75
1730017565178433110,1730017565178254365,3,2.58,-0.87,1.97,15.740837999999998,-81.12,-82.0
1730017565278460927,1730017565278083324,3,2.58,-0.87,1.97,15.665792000000001,-80.5,-81.27
1730017565377909996,1730017565377739429,3,2.58,-0.87,1.97,15.578238666666666,-80.82,-81.53
1730017565478869776,1730017565478669881,3,2.58,-0.87,1.97,15.515700666666667,-80.61,-81.33
1730017565576547986,1730017565576069831,3,2.58,-0.87,1.97,15.446909,-81.05,-82.02
1730017565676449297,1730017565676075220,3,2.58,-0.87,1.97,15.378117333333334,-80.8,-81.14
1730017565777600884,1730017565777329921,3,2.58,-0.87,1.97,15.328086999999998,-83.23,-83.26
1730017565878386048,1730017565878122568,3,2.58,-0.87,1.97,15.246787666666668,-80.18,-81.39
1730017565978223452,1730017565978030920,3,2.58,-0.87,1.97,15.165488333333334,-80.91,-81.48
1730017566078629490,1730017566078402996,3,2.58,-0.87,1.97,15.052919333333335,-80.43,-80.84
1730017566178582948,1730017566178368568,3,2.58,-0.87,1.97,14.965365999999998,-79.85,-80.64
1730017566279317076,1730017566279184341,3,2.58,-0.87,1.97,14.896574000000001,-80.47,-82.01
1730017566379192412,1730017566379067182,3,2.58,-0.87,1.97,14.815274666666667,-80.03,-80.89
1730017566479629731,1730017566479336977,3,2.58,-0.87,1.97,14.733975000000001,-80.12,-81.02
1730017566579185321,1730017566578759431,3,2.58,-0.87,1.97,14.633913666666666,-80.33,-80.8
1730017566676288402,1730017566676059961,3,2.58,-0.87,1.97,14.540106666666667,-80.45,-81.36
1730017566776480976,1730017566776049375,3,2.58,-0.87,1.97,14.458807,-80.34,-81.43
1730017566979149315,1730017566978922128,3,2.58,-0.87,1.97,14.390015333333332,-80.1,-81.63
1730017567079462369,1730017567079266071,3,2.58,-0.87,1.97,14.333731,-80.63,-81.05
1730017567178919321,1730017567178821086,3,2.58,-0.87,1.97,14.264939333333336,-80.79,-81.58
1730017567278693035,1730017567278485536,3,2.58,-0.87,1.97,14.171132,-80.29,-82.6
1730017567378998788,1730017567378842830,3,2.58,-0.87,1.97,14.083578666666666,-80.53,-82.66
1730017567479224033,1730017567479023456,3,2.58,-0.87,1.97,13.983517666666666,-80.67,-82.89
1730017567578967000,1730017567578794956,3,2.58,-0.87,1.97,13.902218333333332,-81.59,-83.26
1730017567678779223,1730017567678615808,3,2.58,-0.87,1.97,13.808411333333334,-81.66,-83.72
1730017567778549205,1730017567778411865,3,2.58,-0.87,1.97,13.727111666666666,-80.85,-83.32
1730017567879311919,1730017567879134416,3,2.58,-0.87,1.97,13.620796999999998,-81.7,-83.7
1730017567977261006,1730017567977075099,3,2.58,-0.87,1.97,13.526989666666665,-81.3,-83.78
1730017568278496395,1730017568278237104,3,2.58,-0.87,1.97,13.383152,-80.14,-81.66
1730017568677597952,1730017568677214145,3,2.58,-0.87,1.97,12.920370333333333,-80.22,-81.36
1730017568779607040,1730017568779444217,3,2.58,-0.87,1.97,12.857832333333334,-80.19,-80.9
1730017568878973103,1730017568878685235,3,2.58,-0.87,1.97,12.814055333333334,-80.53,-80.78
1730017568978298942,1730017568977968692,3,2.58,-0.87,1.97,12.751517,-80.39,-81.02
1730017569077337820,1730017569077039957,3,2.58,-0.87,1.97,12.676471333333334,-80.36,-80.81
1730017569176455246,1730017569176090955,3,2.58,-0.87,1.97,12.607679666666664,-80.63,-81.24
1730017569278527989,1730017569278367757,3,2.58,-0.87,1.97,12.538887666666668,-80.65,-80.73
1730017569378641785,1730017569378482341,3,2.58,-0.87,1.97,12.47634966666667,-80.4,-81.16
1730017569479294158,1730017569479174137,3,2.58,-0.87,1.97,12.401303666666669,-80.43,-81.38
1730017569578827227,1730017569578534364,3,2.58,-0.87,1.97,12.345019666666666,-80.37,-81.06
1730017569678766429,1730017569678496599,3,2.58,-0.87,1.97,12.269974,-80.72,-81.45
1730017569777150865,1730017569776894092,3,2.58,-0.87,1.97,12.201182333333334,-80.73,-81.17
1730017569977237726,1730017569976960659,3,2.58,-0.87,1.97,12.113628666666665,-80.78,-82.51
1730017570378679887,1730017570378403663,3,2.58,-0.87,1.97,11.888491333333334,-81.94,-83.53
1730017570478807386,1730017570478610038,3,2.58,-0.87,1.97,11.825953666666669,-82.62,-84.74
1730017570577282562,1730017570576960325,3,2.58,-0.87,1.97,11.769669333333335,-82.7,-83.44
1730017570677211889,1730017570676934242,3,2.58,-0.87,1.97,11.700877333333333,-81.64,-81.88
1730017570777928712,1730017570777754306,3,2.58,-0.87,1.97,11.644593,-81.97,-83.82
1730017570877265258,1730017570876993417,3,2.58,-0.87,1.97,11.569547333333333,-81.68,-82.25
1730017570977577438,1730017570977319478,3,2.58,-0.87,1.97,11.525771,-82.12,-86.23
1730017571077608171,1730017571077193260,3,2.58,-0.87,1.97,11.463233,-82.05,-84.75
1730017571177121240,1730017571176935195,3,2.58,-0.87,1.97,11.42571,-82.21,-83.67
1730017571277932564,1730017571277078866,3,2.58,-0.87,1.97,11.369425666666666,-81.9,-83.12
1730017571377403147,1730017571376992702,3,2.58,-0.87,1.97,11.338156333333332,-81.97,-82.28
1730017571477272888,1730017571477024078,3,2.58,-0.87,1.97,11.300633666666664,-82.29,-84.33
1730017571577313281,1730017571577057361,3,2.58,-0.87,1.97,11.244349333333332,-81.63,-82.04
1730017571677598635,1730017571677229642,3,2.58,-0.87,1.97,11.188065333333334,-81.36,-81.98
1730017571777529949,1730017571776999235,3,2.58,-0.87,1.97,11.156796333333332,-81.2,-81.19
1730017571877602933,1730017571877303361,3,2.58,-0.87,1.97,11.138034666666664,-81.74,-83.45
1730017571978210368,1730017571977839708,3,2.58,-0.87,1.97,11.100511666666668,-81.33,-81.64
1730017572077937032,1730017572077726602,3,2.58,-0.87,1.97,11.044227333333334,-81.12,-81.69
1730017572177730707,1730017572177574396,3,2.58,-0.87,1.97,10.994197,-81.18,-82.21
1730017572277708978,1730017572277541160,3,2.58,-0.87,1.97,10.931658666666666,-81.21,-81.65
1730017572378300235,1730017572377539634,3,2.58,-0.87,1.97,10.900389666666667,-81.04,-81.26
1730017572478890287,1730017572478656053,3,2.58,-0.87,1.97,10.856613333333334,-81.16,-81.99
1730017572577641286,1730017572577455759,3,2.58,-0.87,1.97,10.844106000000002,-81.58,-83.09
1730017572678253722,1730017572678013801,3,2.58,-0.87,1.97,10.812837000000002,-81.61,-84.25
1730017572777751516,1730017572777642726,3,2.58,-0.87,1.97,10.787821333333333,-81.97,-83.94
1730017572877731496,1730017572877553224,3,2.58,-0.87,1.97,10.744044333333335,-81.76,-82.13
1730017572977740790,1730017572977490663,3,2.58,-0.87,1.97,10.675252333333333,-82.33,-83.28
1730017573077916344,1730017573077683687,3,2.58,-0.87,1.97,10.625221999999999,-81.34,-81.88
1730017573177789206,1730017573177559852,3,2.58,-0.87,1.97,10.562683999999999,-80.91,-81.42
1730017573277827341,1730017573277618408,3,2.58,-0.87,1.97,10.543922666666667,-80.42,-80.98
1730017573377731947,1730017573377534627,3,2.58,-0.87,1.97,10.500146,-79.36,-80.7
1730017573778510794,1730017573778291463,3,2.58,-0.87,1.97,10.343801333333333,-80.51,-81.14
1730017573978175224,1730017573977886438,3,2.58,-0.87,1.97,10.256248,-79.96,-81.31
1730017574077808015,1730017574077668905,3,2.58,-0.87,1.97,10.187455666666667,-80.49,-83.45
1730017574177760067,1730017574177539587,3,2.58,-0.87,1.97,10.081141,-81.49,-83.99
1730017574278224637,1730017574278000831,3,2.58,-0.87,1.97,10.006095,-81.23,-82.69
1730017574378839674,1730017574378616571,3,2.58,-0.87,1.97,9.924795666666666,-80.43,-81.96
1730017574478372990,1730017574478160142,3,2.58,-0.87,1.97,9.862257333333332,-80.47,-82.17
1730017574578100584,1730017574577744960,3,2.58,-0.87,1.97,9.799719333333334,-80.1,-80.75
1730017574677898935,1730017574677623033,3,2.58,-0.87,1.97,9.724673333333334,-80.39,-81.57
1730017574778721775,1730017574778521537,3,2.58,-0.87,1.97,9.637120000000001,-80.55,-81.05
1730017574878711236,1730017574878506660,3,2.58,-0.87,1.97,9.562074333333333,-80.22,-81.11
1730017574977615495,1730017574977509021,3,2.58,-0.87,1.97,9.480775,-80.16,-81.15
1730017575078574442,1730017575078324317,3,2.58,-0.87,1.97,9.399475666666666,-80.1,-80.84
1730017575178125553,1730017575177862167,3,2.58,-0.87,1.97,9.311922333333333,-79.95,-81.0
1730017575277805692,1730017575277623414,3,2.58,-0.87,1.97,9.224369000000001,-80.09,-81.19
1730017575377763906,1730017575377538204,3,2.58,-0.87,1.97,9.149323333333333,-80.17,-81.69
1730017575779029768,1730017575778904438,3,2.58,-0.87,1.97,8.786602333333333,-80.19,-81.68
1730017575879246355,1730017575879073381,3,2.58,-0.87,1.97,8.705302666666666,-79.9,-81.74
1730017575978565703,1730017575978388309,3,2.58,-0.87,1.97,8.630257333333333,-80.15,-80.95
1730017576078858596,1730017576078643083,3,2.58,-0.87,1.97,8.542703999999999,-80.22,-81.25
1730017576177865851,1730017576177715063,3,2.58,-0.87,1.97,8.448896666666668,-80.03,-81.33
1730017576277957519,1730017576277680397,3,2.58,-0.87,1.97,8.355089333333332,-79.79,-80.76
1730017576378279652,1730017576377820253,3,2.58,-0.87,1.97,8.286297666666668,-79.62,-80.92
1730017576477891230,1730017576477703094,3,2.58,-0.87,1.97,8.173729333333334,-80.13,-81.83
1730017576578022808,1730017576577802896,3,2.58,-0.87,1.97,8.067414333333334,-80.51,-82.16
1730017576678533447,1730017576678310871,3,2.58,-0.87,1.97,7.936084,-80.3,-81.99
1730017576777896519,1730017576777682781,3,2.58,-0.87,1.97,7.854784333333334,-80.19,-82.61
1730017576878100496,1730017576877825260,3,2.58,-0.87,1.97,7.754723666666667,-80.13,-80.86
1730017576978036378,1730017576977649927,3,2.58,-0.87,1.97,7.648409,-80.29,-81.53
1730017577078369004,1730017577078202962,3,2.58,-0.87,1.97,7.560855666666666,-79.8,-81.03
1730017577178517793,1730017577178223371,3,2.58,-0.87,1.97,7.479556,-79.58,-81.31
1730017577278592404,1730017577278320550,3,2.58,-0.87,1.97,7.404509999999999,-80.16,-81.96
1730017577378464875,1730017577378231763,3,2.58,-0.87,1.97,7.279433999999999,-80.29,-81.51
1730017577478969730,1730017577478779554,3,2.58,-0.87,1.97,7.148104,-80.52,-81.5
1730017577578391020,1730017577578282356,3,2.58,-0.87,1.97,7.023028,-80.11,-80.52
1730017577677717494,1730017577677560567,3,2.58,-0.87,1.97,6.935474666666667,-80.16,-81.07
1730017577777911764,1730017577777654170,3,2.58,-0.87,1.97,6.841667666666666,-80.06,-80.89
1730017577877986161,1730017577877701520,3,2.58,-0.87,1.97,6.741606666666667,-80.19,-80.81
1730017577977794661,1730017577977691650,3,2.58,-0.87,1.97,6.622783999999999,-80.2,-83.3
1730017578078134572,1730017578077949762,3,2.58,-0.87,1.97,6.516469,-80.42,-80.87
1730017578177868412,1730017578177637815,3,2.58,-0.87,1.97,6.410154333333334,-80.27,-80.77
1730017578278097873,1730017578277894258,3,2.58,-0.87,1.97,6.347616333333334,-80.95,-82.5
1730017578477422976,1730017578476904153,3,2.58,-0.87,1.97,6.210032666666667,-80.03,-82.77
1730017578878397114,1730017578878185749,3,2.58,-0.87,1.97,5.703473666666667,-79.25,-81.59
1730017578978456837,1730017578978311061,3,2.58,-0.87,1.97,5.584651333333333,-79.74,-81.52
1730017579078906802,1730017579078591585,3,2.58,-0.87,1.97,5.484590666666667,-79.26,-80.71
1730017579177289725,1730017579176985025,3,2.58,-0.87,1.97,5.365768333333333,-79.44,-80.65
1730017579276305070,1730017579276084184,3,2.58,-0.87,1.97,5.2844690000000005,-78.97,-81.2
1730017579376271597,1730017579376071929,3,2.58,-0.87,1.97,5.190661666666666,-79.62,-82.65
1730017579577010633,1730017579576919555,3,2.58,-0.87,1.97,5.065585333333334,-79.8,-80.54
1730017579778417749,1730017579778187036,3,2.58,-0.87,1.97,4.877971,-79.77,-81.85
1730017579977245073,1730017579976954460,3,2.58,-0.87,1.97,4.671595333333333,-79.39,-80.7
1730017580077267880,1730017580077021360,3,2.58,-0.87,1.97,4.515250333333333,-79.36,-83.51
1730017580177089159,1730017580176869869,3,2.58,-0.87,1.97,4.390174333333333,-78.92,-80.78
1730017580376373554,1730017580376075983,3,2.58,-0.87,1.97,4.233829,-78.76,-80.72
1730017580777791762,1730017580777575969,3,2.58,-0.87,1.97,3.771047,-79.17,-81.39
1730017580877811266,1730017580877642869,3,2.58,-0.87,1.97,3.6647320000000003,-79.49,-81.31
1730017580978482716,1730017580978312253,3,2.58,-0.87,1.97,3.589686333333333,-79.37,-81.48
1730017581078404958,1730017581078052043,3,2.58,-0.87,1.97,3.4833716666666668,-78.89,-81.42
1730017581177353056,1730017581177116632,3,2.58,-0.87,1.97,3.402072333333333,-79.2,-81.83
1730017581276313355,1730017581276077508,3,2.58,-0.87,1.97,3.302011333333333,-80.5,-81.32
1730017581376394207,1730017581376059055,3,2.58,-0.87,1.97,3.214458,-79.6,-84.05
1730017581476449807,1730017581476060867,3,2.58,-0.87,1.97,3.114397,-82.38,-85.08
1730017581576437213,1730017581576093196,3,2.58,-0.87,1.97,3.02059,-79.76,-91.13
1730017581676222656,1730017581676063537,3,2.58,-0.87,1.97,2.951798,-81.98,-91.85
1730017581776536563,1730017581776095628,3,2.58,-0.87,1.97,2.88926,-80.5,-87.31
1730017581876541999,1730017581876058578,3,2.58,-0.87,1.97,2.8329756666666666,-79.42,-84.51
1730017581976347491,1730017581976059436,3,2.58,-0.87,1.97,2.7204073333333336,-79.59,-81.33
1730017582076426459,1730017582076058387,3,2.58,-0.87,1.97,2.595331,-78.75,-81.41
1730017582176170761,1730017582176050901,3,2.58,-0.87,1.97,2.4389856666666665,-79.07,-81.03
1730017582276525473,1730017582276067495,3,2.58,-0.87,1.97,2.3076556666666668,-79.16,-80.61
1730017582376459205,1730017582376091480,3,2.58,-0.87,1.97,2.2013409999999998,-79.25,-80.88
1730017582476250100,1730017582476052999,3,2.58,-0.87,1.97,2.107534,-79.2,-80.66
1730017582576396576,1730017582576061487,3,2.58,-0.87,1.97,2.0324880000000003,-79.07,-81.09
1730017582676417484,1730017582676072597,3,2.58,-0.87,1.97,1.9386806666666667,-78.63,-80.55
1730017582776347192,1730017582776057481,3,2.58,-0.87,1.97,1.8698886666666665,-79.34,-81.18
1730017582876411691,1730017582876053810,3,2.58,-0.87,1.97,1.8010969999999997,-79.0,-80.71
1730017582978680307,1730017582978520154,3,2.58,-0.87,1.97,1.7135436666666666,-78.51,-80.8
1730017583079317744,1730017583079089164,3,2.58,-0.87,1.97,1.6447516666666668,-79.23,-80.6
1730017583179131469,1730017583178996562,3,2.58,-0.87,1.97,1.5759596666666666,-78.91,-80.58
1730017583279003854,1730017583278795480,3,2.58,-0.87,1.97,1.5321829999999999,-78.28,-80.61
1730017583378652565,1730017583378477334,3,2.58,-0.87,1.97,1.475899,-78.72,-80.86
1730017583478047410,1730017583477891921,3,2.58,-0.87,1.97,1.413361,-78.96,-81.09
1730017583577801208,1730017583577568769,3,2.58,-0.87,1.97,1.3695843333333333,-78.9,-80.8
1730017583678048210,1730017583677744388,3,2.58,-0.87,1.97,1.344569,-78.97,-80.98
1730017583778196742,1730017583777887344,3,2.58,-0.87,1.97,1.3633303333333335,-79.17,-80.97
1730017583878417813,1730017583878108739,3,2.58,-0.87,1.97,1.4196146666666667,-78.9,-80.67
1730017583978092560,1730017583977963924,3,2.58,-0.87,1.97,1.4321223333333333,-78.53,-80.8
1730017584078407279,1730017584078278064,3,2.58,-0.87,1.97,1.4571376666666669,-78.17,-80.88
1730017584177998331,1730017584177874326,3,2.58,-0.87,1.97,1.4884066666666669,-78.37,-80.51
1730017584377751860,1730017584377597093,3,2.58,-0.87,1.97,1.5884673333333332,-79.59,-80.96
1730017584778946834,1730017584778662681,3,2.58,-0.87,1.97,2.032488,-80.17,-81.34
1730017584878936914,1730017584878772974,3,2.58,-0.87,1.97,2.10128,-79.91,-81.76
1730017584978429669,1730017584978213310,3,2.58,-0.87,1.97,2.1763256666666666,-79.88,-81.18
1730017585078310670,1730017585078184127,3,2.58,-0.87,1.97,2.276386666666667,-80.19,-81.14
1730017585178713555,1730017585178456544,3,2.58,-0.87,1.97,2.401463,-79.53,-84.08
1730017585278943638,1730017585278800487,3,2.58,-0.87,1.97,2.501524,-80.82,-83.5
1730017585378583162,1730017585378451108,3,2.58,-0.87,1.97,2.6203463333333334,-80.37,-84.61
1730017585576294262,1730017585576056003,3,2.58,-0.87,1.97,2.820468,-80.82,-86.4
1730017585977535361,1730017585976817846,3,2.58,-0.87,1.97,3.4646103333333333,-80.48,-84.94
1730017586077279984,1730017586077119350,3,2.58,-0.87,1.97,3.6147016666666665,-81.71,-85.21
1730017586476362415,1730017586476067066,3,2.58,-0.87,1.97,3.833584666666667,-82.55,-87.82
1730017586576416863,1730017586576052904,3,2.58,-0.87,1.97,3.846092333333333,-82.43,-90.8
1730017586676389865,1730017586676055908,3,2.58,-0.87,1.97,4.0837373333333336,-81.25,-84.14
1730017586776534901,1730017586776063680,3,2.58,-0.87,1.97,4.002438,-81.36,-95.47
1730017586877100099,1730017586876909255,3,2.58,-0.87,1.97,3.9524076666666663,-83.47,-100.06
1730017586977361786,1730017586976946115,3,2.58,-0.87,1.97,3.721016666666667,-83.22,-105.14
1730017587077266943,1730017587077102422,3,2.58,-0.87,1.97,3.783554666666667,-80.61,-101.24
1730017587177507283,1730017587177349090,3,2.58,-0.87,1.97,3.908630666666667,-82.28,-95.13
1730017587277395936,1730017587276992082,3,2.58,-0.87,1.97,4.121260333333333,-85.66,-91.14
1730017587477180434,1730017587476953268,3,2.58,-0.87,1.97,4.365158999999999,-81.8,-90.57
1730017587577270870,1730017587577065467,3,2.58,-0.87,1.97,4.627819,-81.51,-86.55
1730017587677180989,1730017587676995038,3,2.58,-0.87,1.97,4.7716563333333335,-82.08,-88.36
1730017587777137936,1730017587776921272,3,2.58,-0.87,1.97,4.8592096666666675,-80.99,-94.03
1730017587877427705,1730017587877033948,3,2.58,-0.87,1.97,4.890478666666667,-81.3,-87.49
1730017587977607246,1730017587977427005,3,2.58,-0.87,1.97,5.071839333333333,-83.35,-85.43
1730017588077328549,1730017588077049493,3,2.58,-0.87,1.97,5.3219916666666665,-84.6,-87.43
1730017588177388113,1730017588177157640,3,2.58,-0.87,1.97,5.378276,-82.36,-89.04
1730017588277138988,1730017588276871204,3,2.58,-0.87,1.97,5.5658900000000004,-82.26,-84.54
1730017588377166270,1730017588376876592,3,2.58,-0.87,1.97,5.528367,-83.42,-83.57
1730017588477009513,1730017588476853132,3,2.58,-0.87,1.97,5.534620666666666,-83.47,-100.48
1730017588577007981,1730017588576816082,3,2.58,-0.87,1.97,5.359514000000001,-83.41,-92.17
1730017588677218545,1730017588676996707,3,2.58,-0.87,1.97,5.415798333333334,-82.65,-88.08
1730017588777693164,1730017588777323246,3,2.58,-0.87,1.97,5.603412666666667,-84.27,-89.95
1730017588877300711,1730017588876964092,3,2.58,-0.87,1.97,5.747250333333334,-85.44,-90.75
1730017588977228883,1730017588976930141,3,2.58,-0.87,1.97,5.847311333333334,-84.22,-87.98
1730017589077133866,1730017589076926469,3,2.58,-0.87,1.97,6.003656666666667,-83.93,-85.36
1730017589177162522,1730017589176914930,3,2.58,-0.87,1.97,6.134986666666667,-83.26,-85.91
1730017589277554262,1730017589277169227,3,2.58,-0.87,1.97,6.2225399999999995,-82.31,-89.83
1730017589376595583,1730017589376097440,3,2.58,-0.87,1.97,6.266316666666666,-82.58,-89.89
1730017589476440705,1730017589476068258,3,2.58,-0.87,1.97,6.335108666666667,-83.31,-90.78
1730017589576469550,1730017589576068878,3,2.58,-0.87,1.97,6.453931,-87.6,-91.03
1730017589676497613,1730017589676061153,3,2.58,-0.87,1.97,6.660306666666667,-82.18,-82.46
1730017589776487830,1730017589776067018,3,2.58,-0.87,1.97,6.797890666666667,-83.53,-85.93
1730017589877090255,1730017589876873731,3,2.58,-0.87,1.97,6.929220666666666,-81.57,-83.66
1730017590077890570,1730017590077673912,3,2.58,-0.87,1.97,6.998012666666667,-85.04,-86.66
1730017590477319835,1730017590476996421,3,2.58,-0.87,1.97,7.5170786666666665,-84.24,-85.56
1730017590578738453,1730017590578636884,3,2.58,-0.87,1.97,7.617139333333333,-83.52,-86.46
1730017590676156125,1730017590676047325,3,2.58,-0.87,1.97,7.742215666666667,-82.2,-83.91
1730017590777304700,1730017590777006387,3,2.58,-0.87,1.97,7.854784333333334,-82.19,-84.42
1730017590977718528,1730017590977548599,3,2.58,-0.87,1.97,8.004876000000001,-81.44,-81.64
1730017591378349572,1730017591378157377,3,2.58,-0.87,1.97,8.492673666666667,-82.85,-85.09
1730017591478342398,1730017591478281259,3,2.58,-0.87,1.97,8.605241999999999,-82.97,-84.61
1730017591577506824,1730017591577057361,3,2.58,-0.87,1.97,8.730317999999999,-82.32,-83.44
1730017591677255617,1730017591676939010,3,2.58,-0.87,1.97,8.855394333333331,-82.07,-82.14
1730017591777504064,1730017591777266979,3,2.58,-0.87,1.97,8.986724333333333,-80.96,-80.92
1730017591877940251,1730017591877586364,3,2.58,-0.87,1.97,9.111800333333333,-81.04,-81.1
1730017591978774969,1730017591978461265,3,2.58,-0.87,1.97,9.236876666666667,-81.41,-81.58
1730017592078048391,1730017592077883481,3,2.58,-0.87,1.97,9.330684,-81.95,-82.25
1730017592477327331,1730017592477016210,3,2.58,-0.87,1.97,9.712165999999998,-84.0,-84.46
1730017592577344965,1730017592576890230,3,2.58,-0.87,1.97,9.856003666666666,-82.44,-82.46
1730017592677656693,1730017592677237510,3,2.58,-0.87,1.97,9.999841,-81.61,-82.21
1730017592777625824,1730017592777323246,3,2.58,-0.87,1.97,10.131171333333333,-81.21,-81.31
1730017592878144905,1730017592877957105,3,2.58,-0.87,1.97,10.243739666666665,-81.51,-82.07
1730017592978060397,1730017592977790832,3,2.58,-0.87,1.97,10.350054666666667,-81.76,-81.84
1730017593077839235,1730017593077695369,3,2.58,-0.87,1.97,10.481384333333333,-82.66,-83.77
1730017593177853459,1730017593177692413,3,2.58,-0.87,1.97,10.581445666666667,-83.08,-83.41
1730017593277950482,1730017593277714729,3,2.58,-0.87,1.97,10.668999,-84.98,-87.11
1730017593377899590,1730017593377704143,3,2.58,-0.87,1.97,10.756552666666666,-86.67,-86.55
1730017593478267289,1730017593478069067,3,2.58,-0.87,1.97,10.862867333333334,-86.63,-87.05
1730017593578186567,1730017593577854156,3,2.58,-0.87,1.97,10.975436,-85.33,-86.8
1730017593678327466,1730017593678151845,3,2.58,-0.87,1.97,11.094258333333334,-84.79,-84.69
1730017593777812224,1730017593777661323,3,2.58,-0.87,1.97,11.225588,-84.13,-84.01
1730017593877990730,1730017593877733469,3,2.58,-0.87,1.97,11.375679,-83.01,-84.87
1730017593977929529,1730017593977682590,3,2.58,-0.87,1.97,11.513262666666668,-82.23,-81.9
1730017594077856546,1730017594077765226,3,2.58,-0.87,1.97,11.638339000000002,-82.17,-82.33
1730017594178041260,1730017594177818536,3,2.58,-0.87,1.97,11.750908,-81.56,-81.43
1730017594278896018,1730017594278666019,3,2.58,-0.87,1.97,11.850968666666667,-82.19,-82.42
1730017594378173607,1730017594377936363,3,2.58,-0.87,1.97,11.957283333333335,-83.04,-82.93
1730017594478083672,1730017594477856159,3,2.58,-0.87,1.97,12.051090333333335,-82.52,-82.42
1730017594577908029,1730017594577699422,3,2.58,-0.87,1.97,12.151151666666665,-82.65,-82.37
1730017594677761716,1730017594677592039,3,2.58,-0.87,1.97,12.226197666666666,-87.35,-87.34
1730017594777815921,1730017594777588844,3,2.58,-0.87,1.97,12.382543,-90.99,-96.28
1730017594878039266,1730017594877815008,3,2.58,-0.87,1.97,12.507619,-85.09,-86.54
1730017594978117774,1730017594977779150,3,2.58,-0.87,1.97,12.620187333333334,-82.15,-81.9
1730017595078145912,1730017595077994346,3,2.58,-0.87,1.97,12.620187333333334,-80.42,-81.52
1730017595178085415,1730017595177805662,3,2.58,-0.87,1.97,12.607679666666668,-80.3,-80.97
1730017595277883874,1730017595277643918,3,2.58,-0.87,1.97,12.601426000000002,-80.12,-81.17
1730017595377754769,1730017595377555131,3,2.58,-0.87,1.97,12.632695,-79.77,-80.8
1730017595778443913,1730017595778285980,3,2.58,-0.87,1.97,12.670217666666666,-80.72,-81.16
1730017595879052563,1730017595878557443,3,2.58,-0.87,1.97,12.651456333333334,-80.18,-81.05
1730017595976512170,1730017595976106166,3,2.58,-0.87,1.97,12.651456333333334,-83.3,-84.5
1730017596076366307,1730017596076077222,3,2.58,-0.87,1.97,12.607679666666668,-80.2,-80.88
1730017596176353017,1730017596176068782,3,2.58,-0.87,1.97,12.582664333333334,-79.98,-80.71
1730017596276369039,1730017596276071071,3,2.58,-0.87,1.97,12.520126333333332,-79.58,-80.78
1730017596376396092,1730017596376056909,3,2.58,-0.87,1.97,12.507618666666666,-79.96,-80.86
1730017596476451480,1730017596476071119,3,2.58,-0.87,1.97,12.482603666666668,-79.64,-80.99
1730017596576414299,1730017596576072216,3,2.58,-0.87,1.97,12.457588333333334,-79.47,-80.82
1730017596676562639,1730017596676126480,3,2.58,-0.87,1.97,12.420065333333334,-79.34,-80.83
1730017596778665826,1730017596778470993,3,2.58,-0.87,1.97,12.420065333333334,-79.63,-80.7
1730017596878759210,1730017596878562927,3,2.58,-0.87,1.97,12.420065333333334,-79.53,-80.74
1730017596977898288,1730017596977695703,3,2.58,-0.87,1.97,12.420065333333334,-79.67,-80.92
1730017597078018496,1730017597077869653,3,2.58,-0.87,1.97,12.376288333333335,-79.93,-80.56
1730017597177744744,1730017597177527904,3,2.58,-0.87,1.97,12.332512,-80.19,-80.67
1730017597277835659,1730017597277635335,3,2.58,-0.87,1.97,12.282481666666667,-80.67,-81.29
1730017597577280956,1730017597577041387,3,2.58,-0.87,1.97,12.219943666666666,-80.26,-80.71
1730017597677295509,1730017597677074670,3,2.58,-0.87,1.97,12.151151666666665,-80.78,-81.38
1730017597878560934,1730017597878400564,3,2.58,-0.87,1.97,12.076106000000001,-80.92,-81.26
1730017598077723526,1730017598077556133,3,2.58,-0.87,1.97,12.001060333333333,-80.75,-80.9
1730017598177298399,1730017598177050352,3,2.58,-0.87,1.97,1.7948433333333327,-80.97,-81.15
1730017598278270537,1730017598278032541,3,2.58,-0.87,1.97,1.7072900000000004,-81.21,-81.29
1730017598476476540,1730017598476086616,3,2.58,-0.87,1.97,1.6134826666666673,-81.27,-81.45
1730017598877262352,1730017598877027750,3,2.58,-0.87,1.97,11.463232666666665,-83.04,-83.81
1730017598977429690,1730017598977173089,3,2.58,-0.87,1.97,11.400694666666666,-83.06,-86.06
1730017599079921879,1730017599079773426,3,2.58,-0.87,1.97,11.338156666666668,-83.09,-83.81
1730017599176496333,1730017599176060438,3,2.58,-0.87,1.97,11.250603333333332,-82.96,-84.78
1730017599276392875,1730017599276097536,3,2.58,-0.87,1.97,11.156796333333332,-83.47,-84.97
1730017599376208674,1730017599376083135,3,2.58,-0.87,1.97,11.075496666666666,-82.48,-83.0
1730017599476399862,1730017599476054668,3,2.58,-0.87,1.97,11.000450666666666,-82.1,-83.78
1730017599576458884,1730017599576063632,3,2.58,-0.87,1.97,10.931658666666666,-81.84,-83.63
1730017599676309167,1730017599676072597,3,2.58,-0.87,1.97,10.856613000000001,-80.96,-81.6
1730017599776344346,1730017599776051998,3,2.58,-0.87,1.97,10.769060000000001,-81.06,-81.36
1730017599876270479,1730017599876056909,3,2.58,-0.87,1.97,10.675252666666667,-81.17,-81.83
1730017599976505880,1730017599976121425,3,2.58,-0.87,1.97,10.587699333333335,-80.91,-81.02
1730017600076528585,1730017600076071977,3,2.58,-0.87,1.97,10.506399333333333,-80.5,-80.93
1730017600176441270,1730017600176054716,3,2.58,-0.87,1.97,10.418846,-81.03,-80.91
1730017600276337795,1730017600276059150,3,2.58,-0.87,1.97,10.331292666666668,-79.98,-81.06
1730017600378444461,1730017600378239631,3,2.58,-0.87,1.97,10.237485999999999,-80.41,-80.84
1730017600478415138,1730017600478272199,3,2.58,-0.87,1.97,10.156186666666667,-80.51,-81.99
1730017600578713291,1730017600578497171,3,2.58,-0.87,1.97,10.056126,-79.96,-80.92
1730017600678110298,1730017600677787065,3,2.58,-0.87,1.97,9.987334,-80.63,-82.61
1730017600777976898,1730017600777804136,3,2.58,-0.87,1.97,9.899780666666667,-80.27,-81.12
1730017600878364142,1730017600878020763,3,2.58,-0.87,1.97,9.818481,-79.97,-80.89
1730017600977874035,1730017600977669715,3,2.58,-0.87,1.97,9.724673666666668,-80.59,-81.73
1730017601077806965,1730017601077590703,3,2.58,-0.87,1.97,9.643374,-80.52,-80.73
1730017601277843470,1730017601277670145,3,2.58,-0.87,1.97,9.537059333333334,-81.16,-81.08
1730017601676353570,1730017601676076889,3,2.58,-0.87,1.97,9.061770000000001,-80.54,-81.68
1730017601777015951,1730017601776082038,3,2.58,-0.87,1.97,8.967962666666667,-80.47,-80.71
1730017601878567015,1730017601878330945,3,2.58,-0.87,1.97,8.886663333333333,-81.79,-83.26
1730017601978536134,1730017601978330373,3,2.58,-0.87,1.97,8.792856,-81.93,-82.28
1730017602078700753,1730017602078444480,3,2.58,-0.87,1.97,8.699049,-80.83,-81.56
1730017602178393981,1730017602178196668,3,2.58,-0.87,1.97,8.598988333333333,-80.07,-80.98
1730017602279185310,1730017602279016494,3,2.58,-0.87,1.97,8.517689,-80.76,-81.02
1730017602379134992,1730017602378927946,3,2.58,-0.87,1.97,8.423881666666666,-81.64,-81.88
1730017602478894651,1730017602478666782,3,2.58,-0.87,1.97,8.336328333333334,-80.43,-80.75
1730017602578351756,1730017602578154325,3,2.58,-0.87,1.97,8.242520999999998,-81.17,-81.76
1730017602678632019,1730017602678470134,3,2.58,-0.87,1.97,8.123698666666668,-80.33,-81.69
1730017602778402552,1730017602778165578,3,2.58,-0.87,1.97,8.023637333333333,-80.38,-81.05
1730017602878704689,1730017602878495693,3,2.58,-0.87,1.97,7.917322666666667,-80.41,-82.88
1730017602978948750,1730017602978733062,3,2.58,-0.87,1.97,7.867292,-81.21,-83.33
1730017603079381726,1730017603079024553,3,2.58,-0.87,1.97,7.804753666666667,-82.32,-82.79
1730017603178797893,1730017603178719282,3,2.58,-0.87,1.97,7.723454,-82.48,-82.33
1730017603279098062,1730017603278611183,3,2.58,-0.87,1.97,7.585870333333333,-79.9,-80.79
1730017603379042016,1730017603378365516,3,2.58,-0.87,1.97,7.435779,-79.46,-80.77
1730017603503304016,1730017603503103017,3,2.58,-0.87,1.97,7.316956666666667,-80.34,-82.98
1730017603878007377,1730017603877821922,3,2.58,-0.87,1.97,7.110581,-80.21,-81.03
1730017603977897332,1730017603977797985,3,2.58,-0.87,1.97,6.922967,-80.13,-80.71
1730017604078877825,1730017604078719377,3,2.58,-0.87,1.97,6.7353526666666665,-80.46,-82.62
1730017604178319472,1730017604178226947,3,2.58,-0.87,1.97,6.647799333333334,-79.6,-80.65
1730017604278243667,1730017604278157711,3,2.58,-0.87,1.97,6.547738333333334,-79.53,-81.39
1730017604877711011,1730017604877503633,3,2.58,-0.87,1.97,6.059940999999999,-79.76,-81.57
1730017604977241600,1730017604976997137,3,2.58,-0.87,1.97,5.922357333333333,-79.92,-81.3
1730017605077615609,1730017605077308177,3,2.58,-0.87,1.97,5.803535,-80.26,-81.01
1730017605178072168,1730017605177910327,3,2.58,-0.87,1.97,5.709727666666667,-80.34,-80.84
1730017605278635235,1730017605278412103,3,2.58,-0.87,1.97,5.622174333333334,-80.19,-80.87
1730017605377736513,1730017605377661228,3,2.58,-0.87,1.97,5.547128666666667,-79.76,-80.97
1730017605478857840,1730017605478671789,3,2.58,-0.87,1.97,5.478336666666666,-79.78,-81.29
1730017605579135814,1730017605578954935,3,2.58,-0.87,1.97,5.3970373333333335,-80.42,-81.29
1730017605679128005,1730017605678833246,3,2.58,-0.87,1.97,5.3157380000000005,-80.4,-81.47
1730017605778649901,1730017605778395175,3,2.58,-0.87,1.97,5.240692666666667,-80.58,-82.32
1730017605879110617,1730017605878890991,3,2.58,-0.87,1.97,5.1656466666666665,-80.21,-81.77
1730017605978788085,1730017605978700876,3,2.58,-0.87,1.97,5.096854666666666,-79.87,-81.47
1730017606079164332,1730017606078966617,3,2.58,-0.87,1.97,4.990539666666667,-80.7,-81.41
1730017606178501291,1730017606178355216,3,2.58,-0.87,1.97,4.928001666666667,-80.36,-80.91
1730017606278742574,1730017606278574943,3,2.58,-0.87,1.97,4.871717333333333,-79.81,-82.43
1730017606379017741,1730017606378767013,3,2.58,-0.87,1.97,4.840448333333334,-79.83,-83.0
1730017606479246949,1730017606479012250,3,2.58,-0.87,1.97,4.759149,-80.05,-83.43
1730017606578987245,1730017606578755617,3,2.58,-0.87,1.97,4.684103333333333,-80.61,-82.3
1730017606679305640,1730017606679092168,3,2.58,-0.87,1.97,4.590296333333334,-80.13,-82.98
1730017606779139568,1730017606778929471,3,2.58,-0.87,1.97,4.5402656666666665,-80.07,-84.19
1730017606878635145,1730017606878466367,3,2.58,-0.87,1.97,4.471473666666666,-79.73,-83.22
1730017606978830959,1730017606978718042,3,2.58,-0.87,1.97,4.396428,-80.73,-80.84
1730017607079592386,1730017607079347133,3,2.58,-0.87,1.97,4.290113333333333,-79.91,-81.53
1730017607277359462,1730017607277115106,3,2.58,-0.87,1.97,4.215067666666667,-78.85,-82.64
