%time,field.header.seq,field.header.stamp,field.header.frame_id,field.status.status,field.status.service,field.latitude,field.longitude,field.altitude,field.position_covariance0,field.position_covariance1,field.position_covariance2,field.position_covariance3,field.position_covariance4,field.position_covariance5,field.position_covariance6,field.position_covariance7,field.position_covariance8,field.position_covariance_type
1730017526684033588,27644,1730017526625169679,gps,2,0,37.5551406,127.0454556,50.043,0.00019600000000000002,0.0,0.0,0.0,0.00019600000000000002,0.0,0.0,0.0,0.00032399999999999996,2
1730017526808413182,27645,1730017526750169681,gps,2,0,37.5551405,127.0454556,50.050000000000004,0.00019600000000000002,0.0,0.0,0.0,0.00019600000000000002,0.0,0.0,0.0,0.00032399999999999996,2
1730017526933644360,27646,1730017526875169684,gps,2,0,37.5551404,127.0454556,50.057,0.00019600000000000002,0.0,0.0,0.0,0.00019600000000000002,0.0,0.0,0.0,0.00032399999999999996,2
1730017527062320106,27647,1730017527000169686,gps,2,0,37.5551405,127.0454556,50.049,0.00019600000000000002,0.0,0.0,0.0,0.00019600000000000002,0.0,0.0,0.0,0.00032399999999999996,2
1730017527185155080,27648,1730017527125169689,gps,2,0,37.5551405,127.0454556,50.047000000000004,0.00019600000000000002,0.0,0.0,0.0,0.00019600000000000002,0.0,0.0,0.0,0.00032399999999999996,2
1730017527310291936,27649,1730017527250169691,gps,2,0,37.5551405,127.0454556,50.056000000000004,0.00019600000000000002,0.0,0.0,0.0,0.00019600000000000002,0.0,0.0,0.0,0.00032399999999999996,2
1730017527430072229,27650,1730017527375169693,gps,2,0,37.5551404,127.0454554,50.038000000000004,0.00019600000000000002,0.0,0.0,0.0,0.00019600000000000002,0.0,0.0,0.0,0.00028900000000000003,2
1730017527560428701,27651,1730017527500169696,gps,2,0,37.5551403,127.0454554,50.024,0.00019600000000000002,0.0,0.0,0.0,0.00019600000000000002,0.0,0.0,0.0,0.00028900000000000003,2
1730017527684631593,27652,1730017527625169698,gps,2,0,37.5551404,127.0454554,50.022,0.00019600000000000002,0.0,0.0,0.0,0.00019600000000000002,0.0,0.0,0.0,0.00028900000000000003,2
1730017527808695102,27653,1730017527750169701,gps,2,0,37.5551404,127.0454554,50.011,0.00019600000000000002,0.0,0.0,0.0,0.00019600000000000002,0.0,0.0,0.0,0.00028900000000000003,2
1730017527932949638,27654,1730017527875169703,gps,2,0,37.5551404,127.0454553,50.001,0.00019600000000000002,0.0,0.0,0.0,0.00019600000000000002,0.0,0.0,0.0,0.00028900000000000003,2
1730017528061559617,27655,1730017528000169706,gps,2,0,37.5551405,127.0454554,49.998,0.00019600000000000002,0.0,0.0,0.0,0.00019600000000000002,0.0,0.0,0.0,0.00028900000000000003,2
1730017528183003790,27656,1730017528125169708,gps,2,0,37.5551405,127.0454553,50.001,0.00019600000000000002,0.0,0.0,0.0,0.00019600000000000002,0.0,0.0,0.0,0.00028900000000000003,2
1730017528307168291,27657,1730017528250169711,gps,2,0,37.5551404,127.0454553,49.998,0.00019600000000000002,0.0,0.0,0.0,0.00019600000000000002,0.0,0.0,0.0,0.00032399999999999996,2
1730017528440631983,27658,1730017528375169713,gps,2,0,37.5551404,127.0454554,50.018,0.00019600000000000002,0.0,0.0,0.0,0.00019600000000000002,0.0,0.0,0.0,0.00032399999999999996,2
1730017528559468781,27659,1730017528500169715,gps,2,0,37.5551404,127.04545549999999,50.031,0.00019600000000000002,0.0,0.0,0.0,0.00019600000000000002,0.0,0.0,0.0,0.00032399999999999996,2
1730017528685126786,27660,1730017528625169718,gps,2,0,37.5551404,127.04545569999999,50.048,0.00019600000000000002,0.0,0.0,0.0,0.00019600000000000002,0.0,0.0,0.0,0.00032399999999999996,2
1730017528809501118,27661,1730017528750169720,gps,2,0,37.5551403,127.0454556,50.055,0.00019600000000000002,0.0,0.0,0.0,0.00019600000000000002,0.0,0.0,0.0,0.00032399999999999996,2
1730017528933376726,27662,1730017528875169722,gps,2,0,37.5551403,127.0454558,50.085,0.00019600000000000002,0.0,0.0,0.0,0.00019600000000000002,0.0,0.0,0.0,0.00044100000000000004,2
1730017529063704216,27663,1730017529000169725,gps,2,0,37.5551403,127.0454558,50.104,0.00019600000000000002,0.0,0.0,0.0,0.00019600000000000002,0.0,0.0,0.0,0.000529,2
1730017529183569629,27664,1730017529125169727,gps,2,0,37.5551404,127.0454558,50.086,0.00019600000000000002,0.0,0.0,0.0,0.00019600000000000002,0.0,0.0,0.0,0.000576,2
1730017529312071240,27665,1730017529250169730,gps,2,0,37.5551403,127.0454556,50.069,0.000225,0.0,0.0,0.0,0.000225,0.0,0.0,0.0,0.000529,2
1730017529434886300,27666,1730017529375169732,gps,2,0,37.5551404,127.04545569999999,50.066,0.00019600000000000002,0.0,0.0,0.0,0.00019600000000000002,0.0,0.0,0.0,0.00044100000000000004,2
1730017529559680680,27667,1730017529500169735,gps,2,0,37.5551403,127.0454556,50.036,0.00019600000000000002,0.0,0.0,0.0,0.00019600000000000002,0.0,0.0,0.0,0.00044100000000000004,2
1730017529683581019,27668,1730017529625169737,gps,2,0,37.5551403,127.04545549999999,50.035000000000004,0.00019600000000000002,0.0,0.0,0.0,0.00019600000000000002,0.0,0.0,0.0,0.00044100000000000004,2
1730017529808782013,27669,1730017529750169740,gps,2,0,37.5551402,127.0454554,50.023,0.00019600000000000002,0.0,0.0,0.0,0.00019600000000000002,0.0,0.0,0.0,0.00048399999999999995,2
1730017529934144294,27670,1730017529875169742,gps,2,0,37.5551403,127.04545549999999,50.034,0.00019600000000000002,0.0,0.0,0.0,0.00019600000000000002,0.0,0.0,0.0,0.00048399999999999995,2
1730017530063403274,27671,1730017530000169745,gps,2,0,37.5551403,127.0454556,50.031,0.00019600000000000002,0.0,0.0,0.0,0.00019600000000000002,0.0,0.0,0.0,0.00048399999999999995,2
1730017530182227119,27672,1730017530125169747,gps,2,0,37.5551403,127.0454556,50.061,0.000225,0.0,0.0,0.0,0.000225,0.0,0.0,0.0,0.000676,2
1730017530315225219,27673,1730017530250169750,gps,2,0,37.5551405,127.04545569999999,50.08,0.000225,0.0,0.0,0.0,0.000225,0.0,0.0,0.0,0.0011560000000000001,2
1730017530432644101,27674,1730017530375169752,gps,2,0,37.5551403,127.0454558,50.121,0.00028900000000000003,0.0,0.0,0.0,0.00028900000000000003,0.0,0.0,0.0,0.0016810000000000002,2
1730017530559726974,27675,1730017530500169755,gps,2,0,37.5551403,127.0454558,50.120000000000005,0.00028900000000000003,0.0,0.0,0.0,0.00028900000000000003,0.0,0.0,0.0,0.002209,2
1730017530684510093,27676,1730017530625169757,gps,2,0,37.5551404,127.0454559,50.138,0.00032399999999999996,0.0,0.0,0.0,0.00032399999999999996,0.0,0.0,0.0,0.0025000000000000005,2
1730017530808776206,27677,1730017530750169760,gps,2,0,37.5551404,127.0454558,50.134,0.00032399999999999996,0.0,0.0,0.0,0.00032399999999999996,0.0,0.0,0.0,0.002704,2
1730017530930649775,27678,1730017530875169762,gps,2,0,37.5551404,127.0454558,50.122,0.00032399999999999996,0.0,0.0,0.0,0.00032399999999999996,0.0,0.0,0.0,0.002809,2
1730017531058491179,27679,1730017531000169765,gps,2,0,37.5551403,127.0454558,50.143,0.00032399999999999996,0.0,0.0,0.0,0.00032399999999999996,0.0,0.0,0.0,0.0029159999999999998,2
1730017531182693158,27680,1730017531125169767,gps,2,0,37.5551402,127.0454558,50.17,0.00032399999999999996,0.0,0.0,0.0,0.00032399999999999996,0.0,0.0,0.0,0.002809,2
1730017531316538969,27681,1730017531250169770,gps,2,0,37.5551403,127.0454558,50.154,0.000361,0.0,0.0,0.0,0.000361,0.0,0.0,0.0,0.0029159999999999998,2
1730017531434445313,27682,1730017531375169772,gps,2,0,37.5551403,127.0454559,50.138,0.000256,0.0,0.0,0.0,0.000256,0.0,0.0,0.0,0.0017640000000000002,2
1730017531560117574,27683,1730017531500169775,gps,2,0,37.5551403,127.0454558,50.142,0.00028900000000000003,0.0,0.0,0.0,0.00028900000000000003,0.0,0.0,0.0,0.0016810000000000002,2
1730017531683666959,27684,1730017531625169777,gps,2,0,37.5551405,127.0454558,50.141,0.00028900000000000003,0.0,0.0,0.0,0.00028900000000000003,0.0,0.0,0.0,0.0016,2
1730017531809414950,27685,1730017531750169780,gps,2,0,37.5551404,127.0454559,50.14,0.000256,0.0,0.0,0.0,0.000256,0.0,0.0,0.0,0.0016,2
1730017531930123883,27686,1730017531875169783,gps,2,0,37.5551404,127.0454556,50.124,0.000361,0.0,0.0,0.0,0.000361,0.0,0.0,0.0,0.0018489999999999997,2
1730017532063636136,27687,1730017532000169785,gps,2,0,37.5551404,127.04545569999999,50.115,0.0004,0.0,0.0,0.0,0.0004,0.0,0.0,0.0,0.002116,2
1730017532184853049,27688,1730017532125169788,gps,2,0,37.5551404,127.04545599999999,50.124,0.000529,0.0,0.0,0.0,0.000529,0.0,0.0,0.0,0.0029159999999999998,2
1730017532319301653,27689,1730017532250169790,gps,2,0,37.5551403,127.04545599999999,50.136,0.000576,0.0,0.0,0.0,0.000576,0.0,0.0,0.0,0.003721,2
1730017532434705119,27690,1730017532375169793,gps,0,0,37.5551403,127.04545599999999,50.156,0.0007840000000000001,0.0,0.0,0.0,0.0007840000000000001,0.0,0.0,0.0,0.0025000000000000005,2
1730017532559510604,27691,1730017532500169795,gps,0,0,37.5551403,127.0454561,50.159,0.0009,0.0,0.0,0.0,0.0009,0.0,0.0,0.0,0.002304,2
1730017532683615605,27692,1730017532625169798,gps,0,0,37.5551403,127.04545619999999,50.167,0.0009,0.0,0.0,0.0,0.0009,0.0,0.0,0.0,0.002116,2
1730017532806216822,27693,1730017532750169801,gps,0,0,37.5551403,127.0454561,50.169000000000004,0.0009,0.0,0.0,0.0,0.0009,0.0,0.0,0.0,0.002116,2
1730017532934455488,27694,1730017532875169803,gps,0,0,37.5551402,127.04545599999999,50.172000000000004,0.0009,0.0,0.0,0.0,0.0009,0.0,0.0,0.0,0.002025,2
1730017533063483392,27695,1730017533000169806,gps,0,0,37.5551404,127.0454561,50.177,0.0009,0.0,0.0,0.0,0.0009,0.0,0.0,0.0,0.002025,2
1730017533184180933,27696,1730017533125169808,gps,0,0,37.5551403,127.0454561,50.188,0.0009,0.0,0.0,0.0,0.0009,0.0,0.0,0.0,0.002025,2
1730017533310124769,27697,1730017533250169811,gps,0,0,37.5551403,127.0454561,50.176,0.0009,0.0,0.0,0.0,0.0009,0.0,0.0,0.0,0.002025,2
1730017533434948211,27698,1730017533375169813,gps,2,0,37.5551404,127.04545549999999,50.024,0.000256,0.0,0.0,0.0,0.000256,0.0,0.0,0.0,0.0009609999999999999,2
1730017533560367048,27699,1730017533500169816,gps,2,0,37.5551405,127.0454554,50.019,0.000225,0.0,0.0,0.0,0.000225,0.0,0.0,0.0,0.000529,2
1730017533682948692,27700,1730017533625169818,gps,2,0,37.5551404,127.04545549999999,50.025,0.000225,0.0,0.0,0.0,0.000225,0.0,0.0,0.0,0.000576,2
1730017533810524967,27701,1730017533750169821,gps,2,0,37.5551404,127.0454556,50.018,0.000256,0.0,0.0,0.0,0.000256,0.0,0.0,0.0,0.0007840000000000001,2
1730017533933371442,27702,1730017533875169824,gps,2,0,37.5551403,127.0454554,50.006,0.000256,0.0,0.0,0.0,0.000256,0.0,0.0,0.0,0.0009,2
1730017534062598391,27703,1730017534000169826,gps,2,0,37.5551405,127.0454554,49.953,0.000256,0.0,0.0,0.0,0.000256,0.0,0.0,0.0,0.0009,2
1730017534182938253,27704,1730017534125169829,gps,2,0,37.5551405,127.04545549999999,49.949,0.000256,0.0,0.0,0.0,0.000256,0.0,0.0,0.0,0.0009,2
1730017534311317973,27705,1730017534250169831,gps,2,0,37.5551403,127.04545569999999,49.975,0.000256,0.0,0.0,0.0,0.000256,0.0,0.0,0.0,0.0009609999999999999,2
1730017534435303754,27706,1730017534375169834,gps,2,0,37.5551403,127.04545619999999,49.981,0.000256,0.0,0.0,0.0,0.000256,0.0,0.0,0.0,0.0010890000000000001,2
1730017534565608899,27707,1730017534500169836,gps,2,0,37.5551402,127.0454565,49.983000000000004,0.000256,0.0,0.0,0.0,0.000256,0.0,0.0,0.0,0.0012250000000000002,2
1730017534685341510,27708,1730017534625169839,gps,2,0,37.5551399,127.04545669999999,49.987,0.000256,0.0,0.0,0.0,0.000256,0.0,0.0,0.0,0.0012959999999999998,2
1730017534809869181,27709,1730017534750169841,gps,2,0,37.5551399,127.0454572,49.983000000000004,0.000256,0.0,0.0,0.0,0.000256,0.0,0.0,0.0,0.0013689999999999998,2
1730017534933778614,27710,1730017534875169844,gps,0,0,37.5551399,127.04545789999999,49.959,0.00048399999999999995,0.0,0.0,0.0,0.00048399999999999995,0.0,0.0,0.0,0.0013689999999999998,2
1730017535064017460,27711,1730017535000169847,gps,0,0,37.5551398,127.04545859999999,49.967,0.000529,0.0,0.0,0.0,0.000529,0.0,0.0,0.0,0.0013689999999999998,2
1730017535184795874,27712,1730017535125169849,gps,0,0,37.555139499999996,127.04545909999999,49.988,0.000529,0.0,0.0,0.0,0.000529,0.0,0.0,0.0,0.0013689999999999998,2
1730017535312876780,27713,1730017535250169852,gps,0,0,37.5551394,127.04545979999999,49.969,0.000529,0.0,0.0,0.0,0.000529,0.0,0.0,0.0,0.0013689999999999998,2
1730017535435396829,27714,1730017535375169854,gps,0,0,37.5551392,127.04546029999999,49.977000000000004,0.00032399999999999996,0.0,0.0,0.0,0.00032399999999999996,0.0,0.0,0.0,0.0012250000000000002,2
1730017535556452672,27715,1730017535500169857,gps,0,0,37.555138899999996,127.0454613,49.986000000000004,0.00032399999999999996,0.0,0.0,0.0,0.00032399999999999996,0.0,0.0,0.0,0.0012250000000000002,2
1730017535683674837,27716,1730017535625169859,gps,0,0,37.5551387,127.04546219999999,49.985,0.00032399999999999996,0.0,0.0,0.0,0.00032399999999999996,0.0,0.0,0.0,0.0012250000000000002,2
1730017535810574445,27717,1730017535750169862,gps,0,0,37.5551384,127.04546289999999,49.980000000000004,0.00032399999999999996,0.0,0.0,0.0,0.00032399999999999996,0.0,0.0,0.0,0.0012250000000000002,2
1730017535935665326,27718,1730017535875169865,gps,0,0,37.5551381,127.04546359999999,49.968,0.00032399999999999996,0.0,0.0,0.0,0.00032399999999999996,0.0,0.0,0.0,0.0012250000000000002,2
1730017536065849929,27719,1730017536000169867,gps,0,0,37.5551379,127.04546429999999,49.980000000000004,0.00032399999999999996,0.0,0.0,0.0,0.00032399999999999996,0.0,0.0,0.0,0.0012250000000000002,2
1730017536185901026,27720,1730017536125169870,gps,0,0,37.5551378,127.0454649,49.999,0.00032399999999999996,0.0,0.0,0.0,0.00032399999999999996,0.0,0.0,0.0,0.0012250000000000002,2
1730017536313409585,27721,1730017536250169872,gps,0,0,37.555137599999995,127.0454657,50.002,0.00032399999999999996,0.0,0.0,0.0,0.00032399999999999996,0.0,0.0,0.0,0.0012250000000000002,2
1730017536437391084,27722,1730017536375169875,gps,2,0,37.555136999999995,127.0454664,50.035000000000004,0.00019600000000000002,0.0,0.0,0.0,0.00019600000000000002,0.0,0.0,0.0,0.001521,2
1730017536560880943,27723,1730017536500169877,gps,2,0,37.5551369,127.0454673,50.07,0.000256,0.0,0.0,0.0,0.000256,0.0,0.0,0.0,0.0008410000000000001,2
1730017536687586383,27724,1730017536625169880,gps,2,0,37.5551367,127.04546819999999,50.063,0.000256,0.0,0.0,0.0,0.000256,0.0,0.0,0.0,0.0007289999999999999,2
1730017536812268308,27725,1730017536750169882,gps,2,0,37.5551366,127.045469,50.04,0.000256,0.0,0.0,0.0,0.000256,0.0,0.0,0.0,0.0007289999999999999,2
1730017536935742136,27726,1730017536875169885,gps,2,0,37.5551361,127.0454699,50.052,0.000256,0.0,0.0,0.0,0.000256,0.0,0.0,0.0,0.0007289999999999999,2
1730017537064749842,27727,1730017537000169887,gps,2,0,37.555135899999996,127.04547079999999,50.055,0.000256,0.0,0.0,0.0,0.000256,0.0,0.0,0.0,0.0007289999999999999,2
1730017537185429068,27728,1730017537125169890,gps,2,0,37.5551357,127.0454719,50.059,0.000256,0.0,0.0,0.0,0.000256,0.0,0.0,0.0,0.0007289999999999999,2
1730017537315400761,27729,1730017537250169893,gps,2,0,37.5551356,127.0454729,50.064,0.000256,0.0,0.0,0.0,0.000256,0.0,0.0,0.0,0.0007289999999999999,2
1730017537437787872,27730,1730017537375169895,gps,2,0,37.5551357,127.04547389999999,50.126,0.00019600000000000002,0.0,0.0,0.0,0.00019600000000000002,0.0,0.0,0.0,0.000529,2
1730017537562561446,27731,1730017537500169897,gps,2,0,37.5551354,127.04547509999999,50.158,0.00019600000000000002,0.0,0.0,0.0,0.00019600000000000002,0.0,0.0,0.0,0.00048399999999999995,2
1730017537685275202,27732,1730017537625169900,gps,2,0,37.5551351,127.04547609999999,50.188,0.00019600000000000002,0.0,0.0,0.0,0.00019600000000000002,0.0,0.0,0.0,0.00044100000000000004,2
1730017537810718836,27733,1730017537750169902,gps,2,0,37.5551348,127.0454774,50.211,0.00019600000000000002,0.0,0.0,0.0,0.00019600000000000002,0.0,0.0,0.0,0.00044100000000000004,2
1730017537934689254,27734,1730017537875169905,gps,2,0,37.555134599999995,127.04547849999999,50.212,0.00019600000000000002,0.0,0.0,0.0,0.00019600000000000002,0.0,0.0,0.0,0.00044100000000000004,2
1730017538064564064,27735,1730017538000169908,gps,2,0,37.5551343,127.0454798,50.207,0.00019600000000000002,0.0,0.0,0.0,0.00019600000000000002,0.0,0.0,0.0,0.00044100000000000004,2
1730017538184636708,27736,1730017538125169910,gps,2,0,37.5551341,127.04548079999999,50.203,0.000225,0.0,0.0,0.0,0.000225,0.0,0.0,0.0,0.00048399999999999995,2
1730017538314306468,27737,1730017538250169913,gps,2,0,37.5551338,127.04548199999999,50.189,0.000225,0.0,0.0,0.0,0.000225,0.0,0.0,0.0,0.00048399999999999995,2
1730017538437520495,27738,1730017538375169916,gps,2,0,37.5551336,127.04548319999999,50.181000000000004,0.00019600000000000002,0.0,0.0,0.0,0.00019600000000000002,0.0,0.0,0.0,0.00044100000000000004,2
1730017538561046805,27739,1730017538500169918,gps,2,0,37.5551332,127.04548439999999,50.166000000000004,0.00019600000000000002,0.0,0.0,0.0,0.00019600000000000002,0.0,0.0,0.0,0.00044100000000000004,2
1730017538685765983,27740,1730017538625169921,gps,2,0,37.555132799999996,127.04548559999999,50.175000000000004,0.00019600000000000002,0.0,0.0,0.0,0.00019600000000000002,0.0,0.0,0.0,0.00044100000000000004,2
1730017538811431191,27741,1730017538750169923,gps,2,0,37.5551325,127.0454869,50.175000000000004,0.000225,0.0,0.0,0.0,0.000225,0.0,0.0,0.0,0.00048399999999999995,2
1730017538935665653,27742,1730017538875169926,gps,2,0,37.555132199999996,127.0454882,50.186,0.00019600000000000002,0.0,0.0,0.0,0.00019600000000000002,0.0,0.0,0.0,0.00048399999999999995,2
1730017539065068475,27743,1730017539000169928,gps,2,0,37.5551318,127.0454894,50.183,0.000225,0.0,0.0,0.0,0.000225,0.0,0.0,0.0,0.00048399999999999995,2
1730017539183594394,27744,1730017539125169931,gps,2,0,37.5551314,127.0454906,50.18,0.000225,0.0,0.0,0.0,0.000225,0.0,0.0,0.0,0.00048399999999999995,2
1730017539317942833,27745,1730017539250169933,gps,2,0,37.5551308,127.045492,50.171,0.000225,0.0,0.0,0.0,0.000225,0.0,0.0,0.0,0.00048399999999999995,2
1730017539436670823,27746,1730017539375169936,gps,2,0,37.555130399999996,127.0454932,50.055,0.00019600000000000002,0.0,0.0,0.0,0.00019600000000000002,0.0,0.0,0.0,0.00028900000000000003,2
1730017539562575177,27747,1730017539500169939,gps,2,0,37.5551299,127.04549429999999,49.999,0.00019600000000000002,0.0,0.0,0.0,0.00019600000000000002,0.0,0.0,0.0,0.000256,2
1730017539685615445,27748,1730017539625169942,gps,2,0,37.555129199999996,127.0454956,49.982,0.00019600000000000002,0.0,0.0,0.0,0.00019600000000000002,0.0,0.0,0.0,0.000256,2
1730017539811901462,27749,1730017539750169944,gps,2,0,37.5551289,127.04549689999999,49.97,0.00019600000000000002,0.0,0.0,0.0,0.00019600000000000002,0.0,0.0,0.0,0.000256,2
1730017539935641216,27750,1730017539875169947,gps,2,0,37.5551284,127.0454982,49.965,0.00019600000000000002,0.0,0.0,0.0,0.00019600000000000002,0.0,0.0,0.0,0.000256,2
1730017540062259078,27751,1730017540000169949,gps,2,0,37.555127999999996,127.04549949999999,49.962,0.000225,0.0,0.0,0.0,0.000225,0.0,0.0,0.0,0.000256,2
1730017540186695842,27752,1730017540125169952,gps,2,0,37.5551277,127.0455009,49.980000000000004,0.000225,0.0,0.0,0.0,0.000225,0.0,0.0,0.0,0.00028900000000000003,2
1730017540314588928,27753,1730017540250169954,gps,2,0,37.5551272,127.04550219999999,49.987,0.00019600000000000002,0.0,0.0,0.0,0.00019600000000000002,0.0,0.0,0.0,0.000256,2
1730017540443360840,27754,1730017540375169957,gps,2,0,37.5551269,127.04550359999999,49.977000000000004,0.00019600000000000002,0.0,0.0,0.0,0.00019600000000000002,0.0,0.0,0.0,0.000256,2
1730017540563594584,27755,1730017540500169960,gps,2,0,37.5551264,127.04550499999999,49.985,0.00019600000000000002,0.0,0.0,0.0,0.00019600000000000002,0.0,0.0,0.0,0.000256,2
1730017540688600407,27756,1730017540625169962,gps,2,0,37.555126,127.0455064,49.978,0.00019600000000000002,0.0,0.0,0.0,0.00019600000000000002,0.0,0.0,0.0,0.000256,2
1730017540812640599,27757,1730017540750169965,gps,2,0,37.5551256,127.0455078,49.97,0.00019600000000000002,0.0,0.0,0.0,0.00019600000000000002,0.0,0.0,0.0,0.000256,2
1730017540932416185,27758,1730017540875169967,gps,2,0,37.5551252,127.04550909999999,49.995000000000005,0.00019600000000000002,0.0,0.0,0.0,0.00019600000000000002,0.0,0.0,0.0,0.000256,2
1730017541067543735,27759,1730017541000169970,gps,2,0,37.555124899999996,127.0455106,49.996,0.00019600000000000002,0.0,0.0,0.0,0.00019600000000000002,0.0,0.0,0.0,0.000256,2
1730017541189379056,27760,1730017541125169972,gps,2,0,37.5551244,127.04551199999999,49.996,0.00019600000000000002,0.0,0.0,0.0,0.00019600000000000002,0.0,0.0,0.0,0.000256,2
1730017541315773252,27761,1730017541250169975,gps,2,0,37.5551241,127.0455133,49.983000000000004,0.000225,0.0,0.0,0.0,0.000225,0.0,0.0,0.0,0.00028900000000000003,2
1730017541439335694,27762,1730017541375169978,gps,2,0,37.555123699999996,127.0455147,49.975,0.00019600000000000002,0.0,0.0,0.0,0.00019600000000000002,0.0,0.0,0.0,0.00019600000000000002,2
1730017541563315729,27763,1730017541500169980,gps,2,0,37.5551234,127.0455162,49.977000000000004,0.00019600000000000002,0.0,0.0,0.0,0.00019600000000000002,0.0,0.0,0.0,0.00019600000000000002,2
1730017541686294752,27764,1730017541625169983,gps,2,0,37.5551229,127.04551769999999,49.999,0.00019600000000000002,0.0,0.0,0.0,0.00019600000000000002,0.0,0.0,0.0,0.00019600000000000002,2
1730017541808708044,27765,1730017541750169985,gps,2,0,37.555122499999996,127.04551909999999,49.991,0.00019600000000000002,0.0,0.0,0.0,0.00019600000000000002,0.0,0.0,0.0,0.000225,2
1730017541938795401,27766,1730017541875169988,gps,2,0,37.5551222,127.0455205,49.985,0.00019600000000000002,0.0,0.0,0.0,0.00019600000000000002,0.0,0.0,0.0,0.000225,2
1730017542069908187,27767,1730017542000169990,gps,2,0,37.555121799999995,127.04552199999999,49.989000000000004,0.00019600000000000002,0.0,0.0,0.0,0.00019600000000000002,0.0,0.0,0.0,0.00019600000000000002,2
1730017542188377621,27768,1730017542125169993,gps,2,0,37.5551214,127.04552349999999,49.977000000000004,0.00019600000000000002,0.0,0.0,0.0,0.00019600000000000002,0.0,0.0,0.0,0.00019600000000000002,2
1730017542313871561,27769,1730017542250169996,gps,2,0,37.5551211,127.045525,49.97,0.00019600000000000002,0.0,0.0,0.0,0.00019600000000000002,0.0,0.0,0.0,0.00019600000000000002,2
1730017542430671318,27770,1730017542375169998,gps,2,0,37.5551204,127.0455265,49.969,0.00028900000000000003,0.0,0.0,0.0,0.00028900000000000003,0.0,0.0,0.0,0.00028900000000000003,2
1730017542554429304,27771,1730017542500170001,gps,0,0,37.5551198,127.04552799999999,49.965,0.003025,0.0,0.0,0.0,0.003025,0.0,0.0,0.0,0.000676,2
1730017542682159746,27772,1730017542625170003,gps,0,0,37.555119399999995,127.04552969999999,49.961,0.006561,0.0,0.0,0.0,0.006561,0.0,0.0,0.0,0.0013689999999999998,2
1730017542812437380,27773,1730017542750170006,gps,0,0,37.555118799999995,127.045531,49.958,0.008649,0.0,0.0,0.0,0.008649,0.0,0.0,0.0,0.0024010000000000004,2
1730017542934193290,27774,1730017542875170009,gps,0,0,37.5551184,127.04553259999999,49.957,0.010403999999999998,0.0,0.0,0.0,0.010403999999999998,0.0,0.0,0.0,0.0038439999999999998,2
1730017543065514728,27775,1730017543000170011,gps,0,0,37.5551179,127.0455339,49.96,0.012321,0.0,0.0,0.0,0.012321,0.0,0.0,0.0,0.005776,2
1730017543185811284,27776,1730017543125170014,gps,0,0,37.5551175,127.0455355,49.956,0.014160999999999998,0.0,0.0,0.0,0.014160999999999998,0.0,0.0,0.0,0.0081,2
1730017543317607124,27777,1730017543250170017,gps,0,0,37.5551172,127.045537,49.956,0.015876,0.0,0.0,0.0,0.015876,0.0,0.0,0.0,0.010816,2
1730017543441378963,27778,1730017543375170019,gps,0,0,37.5551168,127.0455384,49.958,0.017689000000000003,0.0,0.0,0.0,0.017689000000000003,0.0,0.0,0.0,0.013923999999999999,2
1730017543561258277,27779,1730017543500170022,gps,0,0,37.555116399999996,127.04553999999999,49.963,0.019600000000000003,0.0,0.0,0.0,0.019600000000000003,0.0,0.0,0.0,0.017161000000000003,2
1730017543684125450,27780,1730017543625170024,gps,0,0,37.555116,127.04554139999999,49.956,0.021608999999999996,0.0,0.0,0.0,0.021608999999999996,0.0,0.0,0.0,0.021025,2
1730017543810231150,27781,1730017543750170027,gps,0,0,37.5551156,127.0455429,49.955,0.023409,0.0,0.0,0.0,0.023409,0.0,0.0,0.0,0.025281,2
1730017543934236206,27782,1730017543875170029,gps,0,0,37.5551153,127.0455444,49.952,0.0256,0.0,0.0,0.0,0.0256,0.0,0.0,0.0,0.029928999999999997,2
1730017544064215111,27783,1730017544000170032,gps,0,0,37.5551148,127.0455459,49.96,0.027225000000000003,0.0,0.0,0.0,0.027225000000000003,0.0,0.0,0.0,0.034225,2
1730017544187588369,27784,1730017544125170034,gps,0,0,37.5551144,127.04554739999999,49.957,0.029241000000000003,0.0,0.0,0.0,0.029241000000000003,0.0,0.0,0.0,0.039204,2
1730017544314227077,27785,1730017544250170037,gps,0,0,37.5551141,127.0455489,49.959,0.031328999999999996,0.0,0.0,0.0,0.031328999999999996,0.0,0.0,0.0,0.044521,2
1730017544446878081,27786,1730017544375170040,gps,0,0,37.555113999999996,127.04555029999999,49.948,0.012321,0.0,0.0,0.0,0.012321,0.0,0.0,0.0,0.021608999999999996,2
1730017544562586213,27787,1730017544500170042,gps,0,0,37.5551136,127.0455518,49.962,0.007225000000000001,0.0,0.0,0.0,0.007225000000000001,0.0,0.0,0.0,0.014160999999999998,2
1730017544692400870,27788,1730017544625170045,gps,0,0,37.5551132,127.0455533,49.962,0.005475999999999999,0.0,0.0,0.0,0.005475999999999999,0.0,0.0,0.0,0.011024999999999998,2
1730017544817461081,27789,1730017544750170047,gps,0,0,37.555112799999996,127.04555479999999,49.968,0.0047610000000000005,0.0,0.0,0.0,0.0047610000000000005,0.0,0.0,0.0,0.009409,2
1730017544941300024,27790,1730017544875170050,gps,0,0,37.5551123,127.0455564,49.962,0.0043560000000000005,0.0,0.0,0.0,0.0043560000000000005,0.0,0.0,0.0,0.008281,2
1730017545067516837,27791,1730017545000170052,gps,0,0,37.5551118,127.04555789999999,49.968,0.004489000000000001,0.0,0.0,0.0,0.004489000000000001,0.0,0.0,0.0,0.0081,2
1730017545189357005,27792,1730017545125170055,gps,0,0,37.555111499999995,127.04555909999999,49.96,0.0046240000000000005,0.0,0.0,0.0,0.0046240000000000005,0.0,0.0,0.0,0.0081,2
1730017545315309524,27793,1730017545250170057,gps,0,0,37.555111,127.0455604,49.97,0.0047610000000000005,0.0,0.0,0.0,0.0047610000000000005,0.0,0.0,0.0,0.008281,2
1730017545439414817,27794,1730017545375170060,gps,0,0,37.5551105,127.0455621,49.959,0.004900000000000001,0.0,0.0,0.0,0.004900000000000001,0.0,0.0,0.0,0.008464,2
1730017545564250334,27795,1730017545500170063,gps,2,0,37.5551106,127.0455635,49.94,0.00019600000000000002,0.0,0.0,0.0,0.00019600000000000002,0.0,0.0,0.0,0.000169,2
1730017545691602338,27796,1730017545625170065,gps,2,0,37.55511,127.045565,49.947,0.00019600000000000002,0.0,0.0,0.0,0.00019600000000000002,0.0,0.0,0.0,0.00012099999999999999,2
1730017545817176720,27797,1730017545750170068,gps,2,0,37.5551096,127.0455664,49.955,0.00019600000000000002,0.0,0.0,0.0,0.00019600000000000002,0.0,0.0,0.0,0.00012099999999999999,2
1730017545940432085,27798,1730017545875170070,gps,2,0,37.5551092,127.0455679,49.953,0.00019600000000000002,0.0,0.0,0.0,0.00019600000000000002,0.0,0.0,0.0,0.0001,2
1730017546070499661,27799,1730017546000170073,gps,2,0,37.5551087,127.04556939999999,49.957,0.00019600000000000002,0.0,0.0,0.0,0.00019600000000000002,0.0,0.0,0.0,0.0001,2
1730017546191562179,27800,1730017546125170076,gps,2,0,37.5551084,127.0455709,49.953,0.00019600000000000002,0.0,0.0,0.0,0.00019600000000000002,0.0,0.0,0.0,0.0001,2
1730017546321618850,27801,1730017546250170078,gps,2,0,37.555107899999996,127.0455724,49.953,0.00019600000000000002,0.0,0.0,0.0,0.00019600000000000002,0.0,0.0,0.0,0.0001,2
1730017546447324492,27802,1730017546375170081,gps,2,0,37.5551074,127.0455739,49.951,0.00019600000000000002,0.0,0.0,0.0,0.00019600000000000002,0.0,0.0,0.0,0.0001,2
1730017546564592580,27803,1730017546500170083,gps,2,0,37.555107,127.0455753,49.956,0.00019600000000000002,0.0,0.0,0.0,0.00019600000000000002,0.0,0.0,0.0,0.00012099999999999999,2
1730017546689626194,27804,1730017546625170086,gps,2,0,37.5551065,127.0455769,49.971000000000004,0.00019600000000000002,0.0,0.0,0.0,0.00019600000000000002,0.0,0.0,0.0,0.00012099999999999999,2
1730017546817601678,27805,1730017546750170088,gps,2,0,37.555106099999996,127.0455784,49.971000000000004,0.00019600000000000002,0.0,0.0,0.0,0.00019600000000000002,0.0,0.0,0.0,0.000144,2
1730017546934589744,27806,1730017546875170091,gps,0,0,37.555105399999995,127.0455796,49.946,0.000676,0.0,0.0,0.0,0.000676,0.0,0.0,0.0,0.000256,2
1730017547060795778,27807,1730017547000170094,gps,0,0,37.5551047,127.045581,49.938,0.0050409999999999995,0.0,0.0,0.0,0.0050409999999999995,0.0,0.0,0.0,0.0006250000000000001,2
1730017547181203244,27808,1730017547125170096,gps,0,0,37.5551041,127.0455824,49.929,0.012769,0.0,0.0,0.0,0.012769,0.0,0.0,0.0,0.0012959999999999998,2
1730017547314284181,27809,1730017547250170099,gps,0,0,37.5551034,127.04558379999999,49.922000000000004,0.024649,0.0,0.0,0.0,0.024649,0.0,0.0,0.0,0.0024010000000000004,2
1730017547433385716,27810,1730017547375170101,gps,0,0,37.5551029,127.0455851,49.918,0.025921000000000003,0.0,0.0,0.0,0.025921000000000003,0.0,0.0,0.0,0.003969,2
1730017547560738601,27811,1730017547500170104,gps,0,0,37.5551026,127.0455865,49.913000000000004,0.029583999999999996,0.0,0.0,0.0,0.029583999999999996,0.0,0.0,0.0,0.006084,2
1730017547691138913,27812,1730017547625170107,gps,0,0,37.555102,127.0455877,49.901,0.030624999999999996,0.0,0.0,0.0,0.030624999999999996,0.0,0.0,0.0,0.008464,2
1730017547810390721,27813,1730017547750170109,gps,0,0,37.5551016,127.04558929999999,49.897,0.033124,0.0,0.0,0.0,0.033124,0.0,0.0,0.0,0.011448999999999999,2
1730017547935662502,27814,1730017547875170112,gps,0,0,37.555101199999996,127.0455908,49.895,0.034969,0.0,0.0,0.0,0.034969,0.0,0.0,0.0,0.014884,2
1730017548066493065,27815,1730017548000170115,gps,0,0,37.5551007,127.04559219999999,49.883,0.036481,0.0,0.0,0.0,0.036481,0.0,0.0,0.0,0.018225,2
1730017548187690428,27816,1730017548125170117,gps,0,0,37.5551004,127.04559379999999,49.875,0.038025,0.0,0.0,0.0,0.038025,0.0,0.0,0.0,0.021903999999999996,2
1730017548314243564,27817,1730017548250170120,gps,0,0,37.5551002,127.04559529999999,49.873,0.039204,0.0,0.0,0.0,0.039204,0.0,0.0,0.0,0.025281,2
1730017548438188991,27818,1730017548375170122,gps,0,0,37.5550997,127.0455968,49.877,0.040401000000000006,0.0,0.0,0.0,0.040401000000000006,0.0,0.0,0.0,0.028561000000000003,2
1730017548564574775,27819,1730017548500170125,gps,0,0,37.555099399999996,127.0455982,49.872,0.04161599999999999,0.0,0.0,0.0,0.04161599999999999,0.0,0.0,0.0,0.032041,2
1730017548689926341,27820,1730017548625170127,gps,0,0,37.555099,127.04559979999999,49.870000000000005,0.043264,0.0,0.0,0.0,0.043264,0.0,0.0,0.0,0.036481,2
1730017548812574323,27821,1730017548750170130,gps,0,0,37.555098699999995,127.0456016,49.89,0.044944,0.0,0.0,0.0,0.044944,0.0,0.0,0.0,0.04080400000000001,2
1730017548935619136,27822,1730017548875170133,gps,0,0,37.555098099999995,127.04560289999999,49.879,0.047524,0.0,0.0,0.0,0.047524,0.0,0.0,0.0,0.046224999999999995,2
1730017549064680215,27823,1730017549000170135,gps,0,0,37.555098,127.0456045,49.856,0.050625,0.0,0.0,0.0,0.050625,0.0,0.0,0.0,0.051984,2
1730017549190433700,27824,1730017549125170138,gps,0,0,37.555097499999995,127.04560599999999,49.883,0.053361000000000006,0.0,0.0,0.0,0.053361000000000006,0.0,0.0,0.0,0.0576,2
1730017549317855761,27825,1730017549250170140,gps,0,0,37.5550973,127.04560749999999,49.893,0.055224999999999996,0.0,0.0,0.0,0.055224999999999996,0.0,0.0,0.0,0.063001,2
1730017549450971430,27826,1730017549375170143,gps,0,0,37.5550968,127.045609,49.901,0.038809,0.0,0.0,0.0,0.038809,0.0,0.0,0.0,0.046655999999999996,2
1730017549570985485,27827,1730017549500170145,gps,0,0,37.5550964,127.04561029999999,49.868,0.024649,0.0,0.0,0.0,0.024649,0.0,0.0,0.0,0.036481,2
1730017549692910680,27828,1730017549625170148,gps,0,0,37.5550959,127.0456116,49.871,0.019880999999999996,0.0,0.0,0.0,0.019880999999999996,0.0,0.0,0.0,0.030275999999999997,2
1730017549817620267,27829,1730017549750170151,gps,0,0,37.5550955,127.04561299999999,49.891,0.017161000000000003,0.0,0.0,0.0,0.017161000000000003,0.0,0.0,0.0,0.026569000000000002,2
1730017549937385479,27830,1730017549875170153,gps,0,0,37.555095099999996,127.04561439999999,49.888,0.015876,0.0,0.0,0.0,0.015876,0.0,0.0,0.0,0.024649,2
1730017550072989974,27831,1730017550000170156,gps,0,0,37.555094499999996,127.04561589999999,49.888,0.015129,0.0,0.0,0.0,0.015129,0.0,0.0,0.0,0.023104,2
1730017550193662500,27832,1730017550125170158,gps,0,0,37.555094,127.0456174,49.89,0.0144,0.0,0.0,0.0,0.0144,0.0,0.0,0.0,0.022201,2
1730017550320177791,27833,1730017550250170161,gps,0,0,37.5550935,127.0456188,49.892,0.013923999999999999,0.0,0.0,0.0,0.013923999999999999,0.0,0.0,0.0,0.021315999999999998,2
1730017550448783451,27834,1730017550375170164,gps,0,0,37.555093,127.04562019999999,49.888,0.013689000000000002,0.0,0.0,0.0,0.013689000000000002,0.0,0.0,0.0,0.021903999999999996,2
1730017550569604414,27835,1730017550500170166,gps,0,0,37.5550925,127.0456217,49.886,0.012321,0.0,0.0,0.0,0.012321,0.0,0.0,0.0,0.021608999999999996,2
1730017550693692757,27836,1730017550625170169,gps,0,0,37.555091999999995,127.0456232,49.881,0.011663999999999999,0.0,0.0,0.0,0.011663999999999999,0.0,0.0,0.0,0.021608999999999996,2
1730017550815070079,27837,1730017550750170171,gps,0,0,37.555091499999996,127.04562469999999,49.881,0.011236,0.0,0.0,0.0,0.011236,0.0,0.0,0.0,0.021608999999999996,2
1730017550943768654,27838,1730017550875170174,gps,0,0,37.555091,127.0456262,49.882,0.010816,0.0,0.0,0.0,0.010816,0.0,0.0,0.0,0.021903999999999996,2
1730017551073313563,27839,1730017551000170176,gps,0,0,37.5550906,127.04562759999999,49.876,0.010403999999999998,0.0,0.0,0.0,0.010403999999999998,0.0,0.0,0.0,0.021903999999999996,2
1730017551192524881,27840,1730017551125170179,gps,0,0,37.5550901,127.0456291,49.878,0.010608999999999999,0.0,0.0,0.0,0.010608999999999999,0.0,0.0,0.0,0.021903999999999996,2
1730017551319169202,27841,1730017551250170181,gps,0,0,37.555089699999996,127.04563049999999,49.873,0.010816,0.0,0.0,0.0,0.010816,0.0,0.0,0.0,0.022201,2
1730017551445466991,27842,1730017551375170184,gps,0,0,37.5550893,127.04563209999999,49.870000000000005,0.010816,0.0,0.0,0.0,0.010816,0.0,0.0,0.0,0.0225,2
1730017551567642464,27843,1730017551500170187,gps,2,0,37.5550901,127.0456354,49.935,0.00019600000000000002,0.0,0.0,0.0,0.00019600000000000002,0.0,0.0,0.0,0.00028900000000000003,2
1730017551690049218,27844,1730017551625170189,gps,2,0,37.555089599999995,127.04563689999999,49.959,0.00019600000000000002,0.0,0.0,0.0,0.00019600000000000002,0.0,0.0,0.0,0.000225,2
1730017551816468279,27845,1730017551750170192,gps,2,0,37.5550892,127.0456385,49.948,0.00019600000000000002,0.0,0.0,0.0,0.00019600000000000002,0.0,0.0,0.0,0.000225,2
1730017551939088161,27846,1730017551875170194,gps,2,0,37.5550888,127.0456401,49.938,0.00019600000000000002,0.0,0.0,0.0,0.00019600000000000002,0.0,0.0,0.0,0.000225,2
1730017552068645466,27847,1730017552000170197,gps,2,0,37.5550885,127.0456416,49.929,0.00019600000000000002,0.0,0.0,0.0,0.00019600000000000002,0.0,0.0,0.0,0.000225,2
1730017552190561666,27848,1730017552125170199,gps,2,0,37.5550881,127.045643,49.932,0.00019600000000000002,0.0,0.0,0.0,0.00019600000000000002,0.0,0.0,0.0,0.000225,2
1730017552316639445,27849,1730017552250170202,gps,2,0,37.5550877,127.0456445,49.923,0.00019600000000000002,0.0,0.0,0.0,0.00019600000000000002,0.0,0.0,0.0,0.000225,2
1730017552445981925,27850,1730017552375170204,gps,2,0,37.5550873,127.0456459,49.931000000000004,0.00019600000000000002,0.0,0.0,0.0,0.00019600000000000002,0.0,0.0,0.0,0.000225,2
1730017552564293717,27851,1730017552500170207,gps,2,0,37.5550869,127.0456474,49.941,0.00019600000000000002,0.0,0.0,0.0,0.00019600000000000002,0.0,0.0,0.0,0.000225,2
1730017552686443696,27852,1730017552625170209,gps,2,0,37.5550864,127.04564889999999,49.942,0.00019600000000000002,0.0,0.0,0.0,0.00019600000000000002,0.0,0.0,0.0,0.00019600000000000002,2
1730017552811345934,27853,1730017552750170212,gps,2,0,37.5550862,127.0456505,49.932,0.00019600000000000002,0.0,0.0,0.0,0.00019600000000000002,0.0,0.0,0.0,0.000225,2
1730017552935606062,27854,1730017552875170215,gps,2,0,37.5550859,127.0456519,49.926,0.00019600000000000002,0.0,0.0,0.0,0.00019600000000000002,0.0,0.0,0.0,0.000256,2
1730017553065658314,27855,1730017553000170217,gps,2,0,37.5550855,127.04565339999999,49.924,0.00019600000000000002,0.0,0.0,0.0,0.00019600000000000002,0.0,0.0,0.0,0.000225,2
1730017553189389106,27856,1730017553125170220,gps,2,0,37.5550853,127.04565489999999,49.929,0.00019600000000000002,0.0,0.0,0.0,0.00019600000000000002,0.0,0.0,0.0,0.000225,2
1730017553320598755,27857,1730017553250170222,gps,2,0,37.555085,127.04565649999999,49.93,0.00019600000000000002,0.0,0.0,0.0,0.00019600000000000002,0.0,0.0,0.0,0.000225,2
1730017553438752215,27858,1730017553375170225,gps,2,0,37.555084799999996,127.0456579,49.925000000000004,0.00019600000000000002,0.0,0.0,0.0,0.00019600000000000002,0.0,0.0,0.0,0.000225,2
1730017553559532652,27859,1730017553500170227,gps,2,0,37.5550845,127.0456595,49.93,0.00019600000000000002,0.0,0.0,0.0,0.00019600000000000002,0.0,0.0,0.0,0.000225,2
1730017553687423810,27860,1730017553625170230,gps,2,0,37.555084199999996,127.045661,49.924,0.00019600000000000002,0.0,0.0,0.0,0.00019600000000000002,0.0,0.0,0.0,0.00019600000000000002,2
1730017553813889581,27861,1730017553750170233,gps,2,0,37.5550838,127.04566249999999,49.929,0.00019600000000000002,0.0,0.0,0.0,0.00019600000000000002,0.0,0.0,0.0,0.000225,2
1730017553937513427,27862,1730017553875170235,gps,2,0,37.555083499999995,127.0456639,49.922000000000004,0.00019600000000000002,0.0,0.0,0.0,0.00019600000000000002,0.0,0.0,0.0,0.000225,2
1730017554068289540,27863,1730017554000170238,gps,2,0,37.555082999999996,127.04566539999999,49.936,0.00019600000000000002,0.0,0.0,0.0,0.00019600000000000002,0.0,0.0,0.0,0.000225,2
1730017554188775213,27864,1730017554125170240,gps,2,0,37.5550827,127.04566679999999,49.924,0.00019600000000000002,0.0,0.0,0.0,0.00019600000000000002,0.0,0.0,0.0,0.000225,2
1730017554312682824,27865,1730017554250170243,gps,2,0,37.5550822,127.04566799999999,49.935,0.00019600000000000002,0.0,0.0,0.0,0.00019600000000000002,0.0,0.0,0.0,0.00028900000000000003,2
1730017554439244671,27866,1730017554375170245,gps,2,0,37.555081799999996,127.0456694,49.944,0.00019600000000000002,0.0,0.0,0.0,0.00019600000000000002,0.0,0.0,0.0,0.00032399999999999996,2
1730017554562879316,27867,1730017554500170248,gps,2,0,37.5550813,127.04567089999999,49.939,0.00019600000000000002,0.0,0.0,0.0,0.00019600000000000002,0.0,0.0,0.0,0.000361,2
1730017554689207907,27868,1730017554625170250,gps,2,0,37.5550808,127.0456722,49.951,0.00019600000000000002,0.0,0.0,0.0,0.00019600000000000002,0.0,0.0,0.0,0.00032399999999999996,2
1730017554812640526,27869,1730017554750170253,gps,2,0,37.5550803,127.04567329999999,49.962,0.00019600000000000002,0.0,0.0,0.0,0.00019600000000000002,0.0,0.0,0.0,0.00032399999999999996,2
1730017554937580510,27870,1730017554875170255,gps,2,0,37.555079899999996,127.04567429999999,49.961,0.00019600000000000002,0.0,0.0,0.0,0.00019600000000000002,0.0,0.0,0.0,0.00032399999999999996,2
1730017555065322761,27871,1730017555000170258,gps,2,0,37.5550796,127.04567519999999,49.952,0.00019600000000000002,0.0,0.0,0.0,0.00019600000000000002,0.0,0.0,0.0,0.00032399999999999996,2
1730017555187563896,27872,1730017555125170261,gps,2,0,37.555079299999996,127.045676,49.964,0.00019600000000000002,0.0,0.0,0.0,0.00019600000000000002,0.0,0.0,0.0,0.00032399999999999996,2
1730017555316430553,27873,1730017555250170263,gps,2,0,37.555079299999996,127.04567639999999,49.974000000000004,0.00019600000000000002,0.0,0.0,0.0,0.00019600000000000002,0.0,0.0,0.0,0.00032399999999999996,2
1730017555439085093,27874,1730017555375170266,gps,0,0,37.555079299999996,127.04567519999999,49.965,0.0004,0.0,0.0,0.0,0.0004,0.0,0.0,0.0,0.000576,2
1730017555555118910,27875,1730017555500170269,gps,0,0,37.5550796,127.0456741,49.969,0.0036,0.0,0.0,0.0,0.0036,0.0,0.0,0.0,0.0011560000000000001,2
1730017555682230895,27876,1730017555625170271,gps,0,0,37.5550798,127.0456736,49.969,0.010201000000000002,0.0,0.0,0.0,0.010201000000000002,0.0,0.0,0.0,0.002116,2
1730017555810025797,27877,1730017555750170274,gps,0,0,37.5550798,127.0456741,49.969,0.017956000000000003,0.0,0.0,0.0,0.017956000000000003,0.0,0.0,0.0,0.0034809999999999997,2
1730017555934372074,27878,1730017555875170276,gps,0,0,37.5550795,127.04567449999999,49.968,0.021025,0.0,0.0,0.0,0.021025,0.0,0.0,0.0,0.005475999999999999,2
1730017556064301717,27879,1730017556000170279,gps,0,0,37.555079299999996,127.0456753,49.967,0.023409,0.0,0.0,0.0,0.023409,0.0,0.0,0.0,0.007921,2
1730017556185114273,27880,1730017556125170281,gps,0,0,37.5550792,127.045676,49.963,0.025921000000000003,0.0,0.0,0.0,0.025921000000000003,0.0,0.0,0.0,0.011024999999999998,2
1730017556313792714,27881,1730017556250170284,gps,0,0,37.555079,127.0456767,49.965,0.028224000000000003,0.0,0.0,0.0,0.028224000000000003,0.0,0.0,0.0,0.0144,2
1730017556443461927,27882,1730017556375170286,gps,0,0,37.5550788,127.04567739999999,49.972,0.029928999999999997,0.0,0.0,0.0,0.029928999999999997,0.0,0.0,0.0,0.018225,2
1730017556562600432,27883,1730017556500170289,gps,0,0,37.5550785,127.0456782,49.974000000000004,0.031684,0.0,0.0,0.0,0.031684,0.0,0.0,0.0,0.0225,2
1730017556683978118,27884,1730017556625170292,gps,0,0,37.5550783,127.0456789,49.977000000000004,0.034225,0.0,0.0,0.0,0.034225,0.0,0.0,0.0,0.027225000000000003,2
1730017556810426011,27885,1730017556750170294,gps,0,0,37.555078099999996,127.0456799,49.966,0.036481,0.0,0.0,0.0,0.036481,0.0,0.0,0.0,0.0324,2
1730017556938702674,27886,1730017556875170298,gps,0,0,37.5550779,127.0456806,49.952,0.037636,0.0,0.0,0.0,0.037636,0.0,0.0,0.0,0.036481,2
1730017557069604430,27887,1730017557000170301,gps,0,0,37.555077499999996,127.04568169999999,49.961,0.038809,0.0,0.0,0.0,0.038809,0.0,0.0,0.0,0.040401000000000006,2
1730017557184634548,27888,1730017557125170304,gps,0,0,37.5550773,127.04568259999999,49.971000000000004,0.040401000000000006,0.0,0.0,0.0,0.040401000000000006,0.0,0.0,0.0,0.044944,2
1730017557319069539,27889,1730017557250170307,gps,0,0,37.5550774,127.0456832,49.958,0.04202499999999999,0.0,0.0,0.0,0.04202499999999999,0.0,0.0,0.0,0.049284,2
1730017557445171752,27890,1730017557375170310,gps,0,0,37.5550773,127.0456846,49.968,0.023409,0.0,0.0,0.0,0.023409,0.0,0.0,0.0,0.037249000000000004,2
1730017557565658268,27891,1730017557500170312,gps,2,0,37.5550766,127.0456871,49.93,0.00019600000000000002,0.0,0.0,0.0,0.00019600000000000002,0.0,0.0,0.0,0.00019600000000000002,2
1730017557689461512,27892,1730017557625170315,gps,2,0,37.5550764,127.04568739999999,49.942,0.00019600000000000002,0.0,0.0,0.0,0.00019600000000000002,0.0,0.0,0.0,0.000144,2
1730017557811566253,27893,1730017557750170317,gps,2,0,37.5550761,127.04568769999999,49.975,0.00019600000000000002,0.0,0.0,0.0,0.00019600000000000002,0.0,0.0,0.0,0.000225,2
1730017557934042986,27894,1730017557875170320,gps,2,0,37.5550761,127.045688,49.971000000000004,0.00019600000000000002,0.0,0.0,0.0,0.00019600000000000002,0.0,0.0,0.0,0.000256,2
1730017558059517292,27895,1730017558000170323,gps,2,0,37.555076199999995,127.0456883,49.975,0.00019600000000000002,0.0,0.0,0.0,0.00019600000000000002,0.0,0.0,0.0,0.00032399999999999996,2
1730017558185250014,27896,1730017558125170325,gps,2,0,37.5550761,127.04568839999999,49.966,0.00019600000000000002,0.0,0.0,0.0,0.00019600000000000002,0.0,0.0,0.0,0.000361,2
1730017558318755308,27897,1730017558250170328,gps,2,0,37.5550761,127.04568859999999,49.947,0.000225,0.0,0.0,0.0,0.000225,0.0,0.0,0.0,0.00044100000000000004,2
1730017558438532319,27898,1730017558375170331,gps,2,0,37.555076199999995,127.0456887,49.938,0.00032399999999999996,0.0,0.0,0.0,0.00032399999999999996,0.0,0.0,0.0,0.0007840000000000001,2
1730017558564430902,27899,1730017558500170333,gps,2,0,37.555076199999995,127.0456888,49.923,0.0004,0.0,0.0,0.0,0.0004,0.0,0.0,0.0,0.0011560000000000001,2
1730017558689437817,27900,1730017558625170336,gps,2,0,37.555076,127.045689,49.907000000000004,0.0004,0.0,0.0,0.0,0.0004,0.0,0.0,0.0,0.001444,2
1730017558812609744,27901,1730017558750170339,gps,2,0,37.5550759,127.04568909999999,49.895,0.00044100000000000004,0.0,0.0,0.0,0.00044100000000000004,0.0,0.0,0.0,0.001521,2
1730017558933532410,27902,1730017558875170341,gps,2,0,37.5550758,127.04568929999999,49.876,0.00044100000000000004,0.0,0.0,0.0,0.00044100000000000004,0.0,0.0,0.0,0.001521,2
1730017559066458059,27903,1730017559000170344,gps,2,0,37.5550759,127.0456894,49.855000000000004,0.00044100000000000004,0.0,0.0,0.0,0.00044100000000000004,0.0,0.0,0.0,0.001521,2
1730017559187579287,27904,1730017559125170346,gps,2,0,37.5550755,127.0456895,49.864000000000004,0.00048399999999999995,0.0,0.0,0.0,0.00048399999999999995,0.0,0.0,0.0,0.0018489999999999997,2
1730017559316563408,27905,1730017559250170349,gps,0,0,37.5550755,127.0456895,49.864000000000004,0.0006250000000000001,0.0,0.0,0.0,0.0006250000000000001,0.0,0.0,0.0,0.0024010000000000004,2
1730017559439371423,27906,1730017559375170352,gps,0,0,37.5550754,127.04568889999999,49.893,0.000676,0.0,0.0,0.0,0.000676,0.0,0.0,0.0,0.0029159999999999998,2
1730017559567587238,27907,1730017559500170354,gps,2,0,37.5550755,127.04568839999999,49.903,0.00019600000000000002,0.0,0.0,0.0,0.00019600000000000002,0.0,0.0,0.0,0.000576,2
1730017559693673530,27908,1730017559625170357,gps,2,0,37.5550754,127.045688,49.905,0.00019600000000000002,0.0,0.0,0.0,0.00019600000000000002,0.0,0.0,0.0,0.000361,2
1730017559811053939,27909,1730017559750170359,gps,2,0,37.5550753,127.04568739999999,49.898,0.00019600000000000002,0.0,0.0,0.0,0.00019600000000000002,0.0,0.0,0.0,0.0004,2
1730017559938448832,27910,1730017559875170362,gps,2,0,37.5550752,127.04568689999999,49.932,0.00019600000000000002,0.0,0.0,0.0,0.00019600000000000002,0.0,0.0,0.0,0.00048399999999999995,2
1730017560066443082,27911,1730017560000170364,gps,2,0,37.5550754,127.0456863,49.932,0.00019600000000000002,0.0,0.0,0.0,0.00019600000000000002,0.0,0.0,0.0,0.00048399999999999995,2
1730017560187463281,27912,1730017560125170367,gps,2,0,37.5550752,127.0456856,49.931000000000004,0.00019600000000000002,0.0,0.0,0.0,0.00019600000000000002,0.0,0.0,0.0,0.00048399999999999995,2
1730017560314284100,27913,1730017560250170370,gps,2,0,37.5550752,127.04568499999999,49.910000000000004,0.00019600000000000002,0.0,0.0,0.0,0.00019600000000000002,0.0,0.0,0.0,0.00044100000000000004,2
1730017560440951663,27914,1730017560375170372,gps,2,0,37.555075099999996,127.04568429999999,49.913000000000004,0.00019600000000000002,0.0,0.0,0.0,0.00019600000000000002,0.0,0.0,0.0,0.000361,2
1730017560563300272,27915,1730017560500170375,gps,2,0,37.555075099999996,127.0456835,49.9,0.00019600000000000002,0.0,0.0,0.0,0.00019600000000000002,0.0,0.0,0.0,0.00032399999999999996,2
1730017560685760853,27916,1730017560625170378,gps,2,0,37.555074999999995,127.0456827,49.916000000000004,0.00019600000000000002,0.0,0.0,0.0,0.00019600000000000002,0.0,0.0,0.0,0.00032399999999999996,2
1730017560813416547,27917,1730017560750170380,gps,2,0,37.555074999999995,127.0456816,49.899,0.00019600000000000002,0.0,0.0,0.0,0.00019600000000000002,0.0,0.0,0.0,0.00032399999999999996,2
1730017560935264562,27918,1730017560875170383,gps,2,0,37.5550749,127.0456808,49.893,0.00019600000000000002,0.0,0.0,0.0,0.00019600000000000002,0.0,0.0,0.0,0.00032399999999999996,2
1730017561064785084,27919,1730017561000170385,gps,2,0,37.5550748,127.0456799,49.909,0.00019600000000000002,0.0,0.0,0.0,0.00019600000000000002,0.0,0.0,0.0,0.00032399999999999996,2
1730017561187607999,27920,1730017561125170388,gps,2,0,37.5550748,127.04567879999999,49.901,0.00019600000000000002,0.0,0.0,0.0,0.00019600000000000002,0.0,0.0,0.0,0.00032399999999999996,2
1730017561314443394,27921,1730017561250170390,gps,2,0,37.5550749,127.04567779999999,49.897,0.00019600000000000002,0.0,0.0,0.0,0.00019600000000000002,0.0,0.0,0.0,0.00032399999999999996,2
1730017561439246208,27922,1730017561375170393,gps,2,0,37.5550747,127.0456767,49.902,0.00019600000000000002,0.0,0.0,0.0,0.00019600000000000002,0.0,0.0,0.0,0.000361,2
1730017561563422780,27923,1730017561500170396,gps,2,0,37.5550747,127.04567569999999,49.898,0.00019600000000000002,0.0,0.0,0.0,0.00019600000000000002,0.0,0.0,0.0,0.000361,2
1730017561687251699,27924,1730017561625170398,gps,0,0,37.5550747,127.0456746,49.894,0.00019600000000000002,0.0,0.0,0.0,0.00019600000000000002,0.0,0.0,0.0,0.0004,2
1730017561814536852,27925,1730017561750170401,gps,2,0,37.5550748,127.0456734,49.895,0.00019600000000000002,0.0,0.0,0.0,0.00019600000000000002,0.0,0.0,0.0,0.000361,2
1730017561937450918,27926,1730017561875170404,gps,2,0,37.5550747,127.0456722,49.896,0.00019600000000000002,0.0,0.0,0.0,0.00019600000000000002,0.0,0.0,0.0,0.000361,2
1730017562070144542,27927,1730017562000170406,gps,2,0,37.5550747,127.045671,49.910000000000004,0.00019600000000000002,0.0,0.0,0.0,0.00019600000000000002,0.0,0.0,0.0,0.000361,2
1730017562190646069,27928,1730017562125170409,gps,2,0,37.5550748,127.0456699,49.901,0.00019600000000000002,0.0,0.0,0.0,0.00019600000000000002,0.0,0.0,0.0,0.000361,2
1730017562316671853,27929,1730017562250170411,gps,2,0,37.5550747,127.04566879999999,49.899,0.00019600000000000002,0.0,0.0,0.0,0.00019600000000000002,0.0,0.0,0.0,0.000361,2
1730017562444161968,27930,1730017562375170414,gps,2,0,37.5550749,127.0456675,49.935,0.00019600000000000002,0.0,0.0,0.0,0.00019600000000000002,0.0,0.0,0.0,0.000225,2
1730017562560572372,27931,1730017562500170417,gps,2,0,37.555074999999995,127.0456663,49.936,0.00019600000000000002,0.0,0.0,0.0,0.00019600000000000002,0.0,0.0,0.0,0.000144,2
1730017562689594896,27932,1730017562625170419,gps,2,0,37.555075099999996,127.04566489999999,49.93,0.00019600000000000002,0.0,0.0,0.0,0.00019600000000000002,0.0,0.0,0.0,0.000144,2
1730017562814627129,27933,1730017562750170422,gps,2,0,37.555075099999996,127.0456636,49.926,0.00019600000000000002,0.0,0.0,0.0,0.00019600000000000002,0.0,0.0,0.0,0.000144,2
1730017562938673702,27934,1730017562875170425,gps,2,0,37.555075099999996,127.04566229999999,49.922000000000004,0.00019600000000000002,0.0,0.0,0.0,0.00019600000000000002,0.0,0.0,0.0,0.00012099999999999999,2
1730017563069682652,27935,1730017563000170427,gps,2,0,37.555075099999996,127.045661,49.934,0.00019600000000000002,0.0,0.0,0.0,0.00019600000000000002,0.0,0.0,0.0,0.00012099999999999999,2
1730017563192371247,27936,1730017563125170430,gps,2,0,37.555075099999996,127.04565969999999,49.939,0.00019600000000000002,0.0,0.0,0.0,0.00019600000000000002,0.0,0.0,0.0,0.00012099999999999999,2
1730017563318638568,27937,1730017563250170433,gps,2,0,37.555074999999995,127.0456586,49.929,0.00019600000000000002,0.0,0.0,0.0,0.00019600000000000002,0.0,0.0,0.0,0.00012099999999999999,2
1730017563441519981,27938,1730017563375170435,gps,2,0,37.555074999999995,127.0456571,49.923,0.00019600000000000002,0.0,0.0,0.0,0.00019600000000000002,0.0,0.0,0.0,0.00012099999999999999,2
1730017563567367103,27939,1730017563500170438,gps,2,0,37.5550749,127.04565579999999,49.911,0.00019600000000000002,0.0,0.0,0.0,0.00019600000000000002,0.0,0.0,0.0,0.0001,2
1730017563693561303,27940,1730017563625170441,gps,2,0,37.5550748,127.04565459999999,49.914,0.00019600000000000002,0.0,0.0,0.0,0.00019600000000000002,0.0,0.0,0.0,0.0001,2
1730017563818442078,27941,1730017563750170443,gps,2,0,37.5550747,127.04565319999999,49.918,0.00019600000000000002,0.0,0.0,0.0,0.00019600000000000002,0.0,0.0,0.0,0.0001,2
1730017563941676357,27942,1730017563875170446,gps,2,0,37.5550746,127.0456517,49.929,0.00019600000000000002,0.0,0.0,0.0,0.00019600000000000002,0.0,0.0,0.0,0.0001,2
1730017564071698369,27943,1730017564000170448,gps,2,0,37.555074399999995,127.04565029999999,49.935,0.00019600000000000002,0.0,0.0,0.0,0.00019600000000000002,0.0,0.0,0.0,0.0001,2
1730017564195574525,27944,1730017564125170451,gps,2,0,37.5550743,127.04564889999999,49.937,0.00019600000000000002,0.0,0.0,0.0,0.00019600000000000002,0.0,0.0,0.0,0.0001,2
1730017564315218210,27945,1730017564250170454,gps,2,0,37.5550742,127.0456475,49.934,0.00019600000000000002,0.0,0.0,0.0,0.00019600000000000002,0.0,0.0,0.0,0.0001,2
1730017564451205526,27946,1730017564375170456,gps,2,0,37.5550741,127.04564599999999,49.945,0.00019600000000000002,0.0,0.0,0.0,0.00019600000000000002,0.0,0.0,0.0,0.0001,2
1730017564564776412,27947,1730017564500170459,gps,2,0,37.555074,127.0456445,49.979,0.00019600000000000002,0.0,0.0,0.0,0.00019600000000000002,0.0,0.0,0.0,0.000169,2
1730017564689531751,27948,1730017564625170462,gps,2,0,37.555074,127.045643,49.975,0.00019600000000000002,0.0,0.0,0.0,0.00019600000000000002,0.0,0.0,0.0,0.000169,2
1730017564815712670,27949,1730017564750170464,gps,2,0,37.5550741,127.0456416,49.978,0.00019600000000000002,0.0,0.0,0.0,0.00019600000000000002,0.0,0.0,0.0,0.000256,2
1730017564940673033,27950,1730017564875170467,gps,2,0,37.555074,127.0456401,49.972,0.00019600000000000002,0.0,0.0,0.0,0.00019600000000000002,0.0,0.0,0.0,0.00028900000000000003,2
1730017565069708907,27951,1730017565000170470,gps,2,0,37.5550739,127.04563879999999,49.981,0.000256,0.0,0.0,0.0,0.000256,0.0,0.0,0.0,0.000361,2
1730017565184571937,27952,1730017565125170472,gps,0,0,37.555073799999995,127.0456375,49.986000000000004,0.0024010000000000004,0.0,0.0,0.0,0.0024010000000000004,0.0,0.0,0.0,0.0007289999999999999,2
1730017565312392219,27953,1730017565250170475,gps,0,0,37.5550737,127.04563619999999,49.99,0.006889000000000001,0.0,0.0,0.0,0.006889000000000001,0.0,0.0,0.0,0.001444,2
1730017565439173836,27954,1730017565375170478,gps,0,0,37.5550736,127.04563449999999,49.989000000000004,0.005183999999999999,0.0,0.0,0.0,0.005183999999999999,0.0,0.0,0.0,0.0025000000000000005,2
1730017565564250691,27955,1730017565500170480,gps,0,0,37.5550735,127.04563309999999,49.992000000000004,0.005776,0.0,0.0,0.0,0.005776,0.0,0.0,0.0,0.003969,2
1730017565688518419,27956,1730017565625170482,gps,0,0,37.5550734,127.0456317,49.994,0.006561,0.0,0.0,0.0,0.006561,0.0,0.0,0.0,0.005929,2
1730017565819929724,27957,1730017565750170485,gps,0,0,37.5550734,127.04563019999999,50.0,0.007568999999999999,0.0,0.0,0.0,0.007568999999999999,0.0,0.0,0.0,0.008281,2
1730017565941686159,27958,1730017565875170488,gps,0,0,37.555073199999995,127.04562879999999,50.008,0.008464,0.0,0.0,0.0,0.008464,0.0,0.0,0.0,0.011024999999999998,2
1730017566068875836,27959,1730017566000170490,gps,0,0,37.5550731,127.0456274,50.026,0.009409,0.0,0.0,0.0,0.009409,0.0,0.0,0.0,0.014160999999999998,2
1730017566184741169,27960,1730017566125170493,gps,0,0,37.555073,127.04562589999999,50.038000000000004,0.011881,0.0,0.0,0.0,0.011881,0.0,0.0,0.0,0.017956000000000003,2
1730017566314400444,27961,1730017566250170495,gps,0,0,37.555073199999995,127.0456244,50.034,0.013689000000000002,0.0,0.0,0.0,0.013689000000000002,0.0,0.0,0.0,0.021903999999999996,2
1730017566447513123,27962,1730017566375170498,gps,0,0,37.5550731,127.0456229,50.042,0.007743999999999999,0.0,0.0,0.0,0.007743999999999999,0.0,0.0,0.0,0.014884,2
1730017566570695842,27963,1730017566500170500,gps,0,0,37.555073,127.04562139999999,50.034,0.006084,0.0,0.0,0.0,0.006084,0.0,0.0,0.0,0.013225,2
1730017566693915134,27964,1730017566625170503,gps,0,0,37.5550731,127.04561989999999,50.04,0.006241,0.0,0.0,0.0,0.006241,0.0,0.0,0.0,0.014641,2
1730017566819436749,27965,1730017566750170506,gps,0,0,37.555073199999995,127.0456184,50.031,0.0064,0.0,0.0,0.0,0.0064,0.0,0.0,0.0,0.016384,2
1730017566938624577,27966,1730017566875170508,gps,0,0,37.5550733,127.0456169,50.035000000000004,0.007921,0.0,0.0,0.0,0.007921,0.0,0.0,0.0,0.018496000000000002,2
1730017567064527326,27967,1730017567000170511,gps,0,0,37.5550733,127.0456155,50.039,0.009409,0.0,0.0,0.0,0.009409,0.0,0.0,0.0,0.020735999999999997,2
1730017567192798995,27968,1730017567125170514,gps,0,0,37.5550734,127.04561389999999,50.037,0.010403999999999998,0.0,0.0,0.0,0.010403999999999998,0.0,0.0,0.0,0.023409,2
1730017567325769669,27969,1730017567250170516,gps,0,0,37.5550734,127.0456124,50.043,0.011236,0.0,0.0,0.0,0.011236,0.0,0.0,0.0,0.025921000000000003,2
1730017567440581392,27970,1730017567375170519,gps,0,0,37.5550736,127.0456109,50.048,0.013923999999999999,0.0,0.0,0.0,0.013923999999999999,0.0,0.0,0.0,0.029928999999999997,2
1730017567563521189,27971,1730017567500170521,gps,0,0,37.5550737,127.0456093,50.065,0.012996,0.0,0.0,0.0,0.012996,0.0,0.0,0.0,0.029241000000000003,2
1730017567688508203,27972,1730017567625170524,gps,0,0,37.5550736,127.04560769999999,50.069,0.015375999999999999,0.0,0.0,0.0,0.015375999999999999,0.0,0.0,0.0,0.033124,2
1730017567819068003,27973,1730017567750170527,gps,0,0,37.555073799999995,127.0456062,50.078,0.015129,0.0,0.0,0.0,0.015129,0.0,0.0,0.0,0.036481,2
1730017567934634081,27974,1730017567875170529,gps,0,0,37.5550739,127.0456045,50.106,0.016384,0.0,0.0,0.0,0.016384,0.0,0.0,0.0,0.04080400000000001,2
1730017568072112219,27975,1730017568000170532,gps,0,0,37.555074,127.04560289999999,50.109,0.018225,0.0,0.0,0.0,0.018225,0.0,0.0,0.0,0.045795999999999996,2
1730017568186782151,27976,1730017568125170535,gps,0,0,37.5550741,127.0456014,50.11,0.020448999999999995,0.0,0.0,0.0,0.020448999999999995,0.0,0.0,0.0,0.051529000000000005,2
1730017568315356107,27977,1730017568250170537,gps,0,0,37.5550743,127.0455999,50.069,0.022201,0.0,0.0,0.0,0.022201,0.0,0.0,0.0,0.0576,2
1730017568450336684,27978,1730017568375170540,gps,0,0,37.555074399999995,127.045598,50.076,0.015876,0.0,0.0,0.0,0.015876,0.0,0.0,0.0,0.04080400000000001,2
1730017568570573188,27979,1730017568500170542,gps,0,0,37.555074499999996,127.0455963,50.049,0.012996,0.0,0.0,0.0,0.012996,0.0,0.0,0.0,0.032761,2
1730017568695488377,27980,1730017568625170545,gps,0,0,37.5550746,127.04559479999999,50.058,0.011024999999999998,0.0,0.0,0.0,0.011024999999999998,0.0,0.0,0.0,0.027556000000000004,2
1730017568810425262,27981,1730017568750170547,gps,0,0,37.5550746,127.0455934,50.046,0.011663999999999999,0.0,0.0,0.0,0.011663999999999999,0.0,0.0,0.0,0.026569000000000002,2
1730017568941274320,27982,1730017568875170550,gps,0,0,37.5550747,127.04559189999999,50.033,0.012996,0.0,0.0,0.0,0.012996,0.0,0.0,0.0,0.027225000000000003,2
1730017569074535345,27983,1730017569000170553,gps,0,0,37.5550746,127.0455904,50.019,0.0144,0.0,0.0,0.0,0.0144,0.0,0.0,0.0,0.029583999999999996,2
1730017569195982539,27984,1730017569125170555,gps,0,0,37.5550746,127.04558879999999,50.029,0.015876,0.0,0.0,0.0,0.015876,0.0,0.0,0.0,0.0324,2
1730017569317990638,27985,1730017569250170558,gps,0,0,37.5550746,127.045587,50.037,0.017689000000000003,0.0,0.0,0.0,0.017689000000000003,0.0,0.0,0.0,0.036864,2
1730017569446899366,27986,1730017569375170560,gps,0,0,37.5550746,127.04558549999999,50.041000000000004,0.019600000000000003,0.0,0.0,0.0,0.019600000000000003,0.0,0.0,0.0,0.04161599999999999,2
1730017569570248581,27987,1730017569500170563,gps,0,0,37.555074399999995,127.0455841,50.037,0.021608999999999996,0.0,0.0,0.0,0.021608999999999996,0.0,0.0,0.0,0.046655999999999996,2
1730017569690142201,27988,1730017569625170566,gps,0,0,37.5550743,127.0455825,50.044000000000004,0.023716,0.0,0.0,0.0,0.023716,0.0,0.0,0.0,0.052441,2
1730017569817514063,27989,1730017569750170568,gps,0,0,37.5550742,127.04558089999999,50.046,0.0256,0.0,0.0,0.0,0.0256,0.0,0.0,0.0,0.058564,2
1730017569940761472,27990,1730017569875170571,gps,0,0,37.5550742,127.0455793,50.035000000000004,0.027556000000000004,0.0,0.0,0.0,0.027556000000000004,0.0,0.0,0.0,0.064516,2
1730017570065381680,27991,1730017570000170573,gps,0,0,37.5550741,127.0455781,50.017,0.030624999999999996,0.0,0.0,0.0,0.030624999999999996,0.0,0.0,0.0,0.07236100000000001,2
1730017570187079040,27992,1730017570125170576,gps,0,0,37.555073799999995,127.0455765,50.003,0.034969,0.0,0.0,0.0,0.034969,0.0,0.0,0.0,0.08065599999999999,2
1730017570317275927,27993,1730017570250170579,gps,0,0,37.5550739,127.0455751,49.989000000000004,0.041209,0.0,0.0,0.0,0.041209,0.0,0.0,0.0,0.09,2
1730017570439191144,27994,1730017570375170581,gps,0,0,37.5550739,127.04557349999999,49.969,0.04409999999999999,0.0,0.0,0.0,0.04409999999999999,0.0,0.0,0.0,0.096721,2
1730017570568697492,27995,1730017570500170584,gps,0,0,37.5550735,127.04557159999999,49.971000000000004,0.045369,0.0,0.0,0.0,0.045369,0.0,0.0,0.0,0.10304100000000001,2
1730017570687354738,27996,1730017570625170587,gps,0,0,37.5550735,127.04557,49.951,0.046655999999999996,0.0,0.0,0.0,0.046655999999999996,0.0,0.0,0.0,0.109561,2
1730017570814355130,27997,1730017570750170589,gps,0,0,37.5550734,127.0455686,49.945,0.049284,0.0,0.0,0.0,0.049284,0.0,0.0,0.0,0.11560000000000002,2
1730017570939369969,27998,1730017570875170592,gps,0,0,37.5550735,127.04556699999999,49.946,0.051076,0.0,0.0,0.0,0.051076,0.0,0.0,0.0,0.12180099999999998,2
