%time,field.stamp,field.id,field.x,field.y,field.z,field.distanceFromTag,field.rssi,field.rssi_fp
1732085150572620650,1732085150572330713,12,0.69,0.87,0.5,6.128732666666667,-79.16,-81.08
1732085150672740340,1732085150672555923,12,0.69,0.87,0.5,6.128732666666667,-78.96,-81.06
1732085150772821392,1732085150772625207,12,0.69,0.87,0.5,6.122478999999999,-78.84,-81.02
1732085150873352308,1732085150873197793,12,0.69,0.87,0.5,6.1287329999999995,-78.81,-81.17
1732085150972866060,1732085150972699642,12,0.69,0.87,0.5,6.1162253333333325,-78.79,-80.82
1732085151073568833,1732085151073344945,12,0.69,0.87,0.5,6.122478999999999,-78.93,-81.04
1732085151173754983,1732085151173547029,12,0.69,0.87,0.5,6.128732666666667,-78.63,-80.9
1732085151274252948,1732085151274053573,12,0.69,0.87,0.5,6.1600019999999995,-79.08,-80.98
1732085151373582465,1732085151373280048,12,0.69,0.87,0.5,6.141240666666666,-78.69,-80.58
1732085151473302312,1732085151473157167,12,0.69,0.87,0.5,6.134987,-79.07,-81.15
1732085151672720165,1732085151672572612,12,0.69,0.87,0.5,6.116225333333333,-79.01,-81.49
1732085151773596866,1732085151773289442,12,0.69,0.87,0.5,6.1287329999999995,-78.81,-80.69
1732085151873610961,1732085151873401880,12,0.69,0.87,0.5,6.134986666666666,-78.87,-80.76
1732085151973320482,1732085151973109245,12,0.69,0.87,0.5,6.147494333333333,-78.93,-80.74
1732085152074531997,1732085152074317216,12,0.69,0.87,0.5,6.141240333333333,-78.87,-80.85
1732085152173644411,1732085152173420429,12,0.69,0.87,0.5,6.128732666666667,-79.03,-81.31
1732085152272268347,1732085152272167205,12,0.69,0.87,0.5,6.122478999999999,-79.36,-80.61
1732085152371863781,1732085152371631622,12,0.69,0.87,0.5,6.122478999999999,-79.04,-81.36
1732085152472096652,1732085152471788883,12,0.69,0.87,0.5,6.134986666666666,-78.76,-80.82
1732085152572159973,1732085152571958541,12,0.69,0.87,0.5,6.141240333333333,-79.13,-81.14
1732085152671905142,1732085152671622514,12,0.69,0.87,0.5,6.153748,-79.04,-81.07
1732085152771825574,1732085152771626710,12,0.69,0.87,0.5,6.147494333333333,-78.92,-80.79
1732085152871880324,1732085152871664047,12,0.69,0.87,0.5,6.1287329999999995,-79.04,-81.18
1732085153002323342,1732085153002073049,12,0.69,0.87,0.5,6.109971666666667,-78.93,-80.66
1732085153072057121,1732085153071739435,12,0.69,0.87,0.5,6.116225333333333,-79.28,-80.77
1732085153171831753,1732085153171632051,12,0.69,0.87,0.5,6.128733,-78.69,-80.92
1732085153272332008,1732085153271997690,12,0.69,0.87,0.5,6.147494333333333,-78.74,-81.07
1732085153372388068,1732085153372136354,12,0.69,0.87,0.5,6.147494333333333,-78.95,-80.64
1732085153471878989,1732085153471601247,12,0.69,0.87,0.5,6.141240666666666,-79.01,-80.85
1732085153571949101,1732085153571641445,12,0.69,0.87,0.5,6.1287329999999995,-78.92,-80.91
1732085153670906506,1732085153670454978,12,0.69,0.87,0.5,6.1287329999999995,-78.67,-80.71
1732085153770993625,1732085153770523309,12,0.69,0.87,0.5,6.1287329999999995,-78.81,-80.72
1732085153873578265,1732085153873461008,12,0.69,0.87,0.5,6.141240666666666,-78.7,-81.2
1732085153973428228,1732085153973304510,12,0.69,0.87,0.5,6.134986666666666,-78.69,-80.61
1732085154073464019,1732085154073244333,12,0.69,0.87,0.5,6.141240333333333,-78.72,-81.33
1732085154173607852,1732085154173412322,12,0.69,0.87,0.5,6.134986666666666,-78.87,-81.12
1732085154272845658,1732085154272593259,12,0.69,0.87,0.5,6.1287329999999995,-78.93,-81.2
1732085154370859675,1732085154370455026,12,0.69,0.87,0.5,6.134987,-78.67,-80.61
1732085154470843406,1732085154470462560,12,0.69,0.87,0.5,6.1412406666666675,-79.23,-81.07
1732085154570890541,1732085154570461750,12,0.69,0.87,0.5,6.153748333333333,-78.72,-81.27
1732085154670902198,1732085154670458316,12,0.69,0.87,0.5,6.141240666666666,-78.74,-80.89
1732085154770755125,1732085154770459651,12,0.69,0.87,0.5,6.1287329999999995,-78.68,-80.74
1732085154870902318,1732085154870513677,12,0.69,0.87,0.5,6.122478999999999,-78.81,-81.06
1732085154970895188,1732085154970451116,12,0.69,0.87,0.5,6.128732666666667,-79.13,-80.85
1732085155070841604,1732085155070482015,12,0.69,0.87,0.5,6.141240333333333,-79.14,-81.07
1732085155170856616,1732085155170474767,12,0.69,0.87,0.5,6.134986666666667,-78.95,-80.99
1732085155270914377,1732085155270507574,12,0.69,0.87,0.5,6.122479000000001,-79.03,-80.85
1732085155370876811,1732085155370455265,12,0.69,0.87,0.5,6.122479000000001,-78.95,-81.12
1732085155470934349,1732085155470493078,12,0.69,0.87,0.5,6.134986666666666,-78.81,-80.68
1732085155570928204,1732085155570512056,12,0.69,0.87,0.5,6.134986666666666,-79.04,-81.4
1732085155671013211,1732085155670480728,12,0.69,0.87,0.5,6.122478999999999,-79.15,-81.05
1732085155770783435,1732085155770560979,12,0.69,0.87,0.5,6.116225,-78.87,-80.75
1732085155870874041,1732085155870474100,12,0.69,0.87,0.5,6.134986666666666,-78.83,-80.74
1732085155970800202,1732085155970454454,12,0.69,0.87,0.5,6.134986666666666,-78.85,-81.04
1732085156070871334,1732085156070470333,12,0.69,0.87,0.5,6.134986666666666,-79.04,-80.91
1732085156170805036,1732085156170457124,12,0.69,0.87,0.5,6.116225,-79.04,-80.9
1732085156271054535,1732085156270515441,12,0.69,0.87,0.5,6.122478999999999,-78.88,-80.69
1732085156370666133,1732085156370461940,12,0.69,0.87,0.5,6.1287329999999995,-78.95,-80.76
1732085156470627983,1732085156470461130,12,0.69,0.87,0.5,6.1287329999999995,-78.95,-80.92
1732085156570862379,1732085156570477962,12,0.69,0.87,0.5,6.1287329999999995,-78.74,-80.8
1732085156670837834,1732085156670447826,12,0.69,0.87,0.5,6.1162253333333325,-78.66,-80.69
1732085156771121705,1732085156770564079,12,0.69,0.87,0.5,6.128733,-78.73,-80.85
1732085156970810466,1732085156970473289,12,0.69,0.87,0.5,6.134986666666667,-78.81,-80.81
1732085157071913603,1732085157071595430,12,0.69,0.87,0.5,6.153748,-78.85,-80.78
1732085157171686573,1732085157171581029,12,0.69,0.87,0.5,6.141240333333333,-78.81,-80.94
1732085157272224946,1732085157272022247,12,0.69,0.87,0.5,6.134986666666666,-79.21,-81.5
1732085157372806962,1732085157372526407,12,0.69,0.87,0.5,6.122478999999999,-78.7,-80.92
1732085157473576912,1732085157473331928,12,0.69,0.87,0.5,6.134986666666666,-78.8,-81.64
1732085157573514468,1732085157573409080,12,0.69,0.87,0.5,6.128732666666667,-78.7,-80.63
1732085157672246619,1732085157671903848,12,0.69,0.87,0.5,6.128732666666667,-78.93,-80.97
1732085157772166835,1732085157771928787,12,0.69,0.87,0.5,6.116225,-78.76,-80.99
1732085157870799262,1732085157870478153,12,0.69,0.87,0.5,6.122478999999999,-78.82,-80.48
1732085157970841087,1732085157970467567,12,0.69,0.87,0.5,6.1287329999999995,-78.75,-80.73
1732085158070732061,1732085158070451021,12,0.69,0.87,0.5,6.1287329999999995,-78.95,-81.1
1732085158170896383,1732085158170481920,12,0.69,0.87,0.5,6.134986666666666,-78.67,-81.1
1732085158270802265,1732085158270511865,12,0.69,0.87,0.5,6.141240333333333,-79.31,-81.54
1732085158370775402,1732085158370480060,12,0.69,0.87,0.5,6.141240333333333,-78.8,-80.76
1732085158470816998,1732085158470468044,12,0.69,0.87,0.5,6.116225,-78.89,-81.49
1732085158870880343,1732085158870524883,12,0.69,0.87,0.5,6.09121,-79.57,-80.95
1732085158970819491,1732085158970502853,12,0.69,0.87,0.5,6.059940999999999,-78.94,-81.11
1732085159070934592,1732085159070491075,12,0.69,0.87,0.5,6.028672,-79.01,-80.88
1732085159171161969,1732085159170485258,12,0.69,0.87,0.5,5.978641333333333,-79.06,-80.8
1732085159274380254,1732085159274187803,12,0.69,0.87,0.5,5.953626,-79.29,-81.27
1732085159373656216,1732085159373505592,12,0.69,0.87,0.5,5.922357000000001,-79.32,-80.87
1732085159470897281,1732085159470504999,12,0.69,0.87,0.5,5.891088,-79.37,-81.19
1732085159573438647,1732085159573201656,12,0.69,0.87,0.5,5.834803666666666,-79.27,-81.06
1732085159673043632,1732085159672919511,12,0.69,0.87,0.5,5.784773333333334,-78.98,-80.76
1732085159773855933,1732085159773770093,12,0.69,0.87,0.5,5.747250666666666,-79.08,-80.54
1732085159873224963,1732085159873058557,12,0.69,0.87,0.5,5.747250666666666,-79.6,-81.06
1732085159973113978,1732085159973049879,12,0.69,0.87,0.5,5.722235333333333,-79.43,-81.18
1732085160073378845,1732085160073122978,12,0.69,0.87,0.5,5.697219999999999,-79.47,-81.22
1732085160172753799,1732085160172565221,12,0.69,0.87,0.5,5.653443333333333,-79.01,-80.66
1732085160273542179,1732085160273228406,12,0.69,0.87,0.5,5.653443333333333,-79.48,-80.9
1732085160372909495,1732085160372394323,12,0.69,0.87,0.5,5.634682000000001,-79.07,-80.7
1732085160472774595,1732085160472543239,12,0.69,0.87,0.5,5.603413,-79.46,-81.29
1732085160572939257,1732085160572718381,12,0.69,0.87,0.5,5.559636333333333,-78.95,-80.76
1732085160672499027,1732085160672347545,12,0.69,0.87,0.5,5.528367333333333,-79.42,-80.6
1732085160772600740,1732085160772448062,12,0.69,0.87,0.5,5.515859666666667,-79.2,-80.59
1732085160873021273,1732085160872766733,12,0.69,0.87,0.5,5.490844333333334,-79.5,-81.11
1732085160972878955,1732085160972666025,12,0.69,0.87,0.5,5.472082666666666,-79.45,-80.59
1732085161073169735,1732085161072789192,12,0.69,0.87,0.5,5.440813666666667,-79.24,-80.67
1732085161173245573,1732085161172879695,12,0.69,0.87,0.5,5.415798666666667,-79.22,-80.61
1732085161273455763,1732085161273202419,12,0.69,0.87,0.5,5.390783666666667,-79.26,-80.88
1732085161372363453,1732085161371944189,12,0.69,0.87,0.5,5.372022333333334,-79.27,-80.87
1732085161471635769,1732085161471512556,12,0.69,0.87,0.5,5.353261,-79.54,-80.7
1732085161571789959,1732085161571604490,12,0.69,0.87,0.5,5.3219916666666665,-79.26,-80.8
1732085161671839762,1732085161671588182,12,0.69,0.87,0.5,5.284468666666666,-79.41,-80.83
1732085161772005684,1732085161771680116,12,0.69,0.87,0.5,5.259453333333333,-79.36,-81.05
1732085161872397363,1732085161871946811,12,0.69,0.87,0.5,5.246946,-79.35,-80.66
1732085161970868892,1732085161970466613,12,0.69,0.87,0.5,5.2532,-79.7,-80.93
1732085162071064347,1732085162070489645,12,0.69,0.87,0.5,5.240692333333333,-79.3,-81.02
1732085162170955704,1732085162170452594,12,0.69,0.87,0.5,5.221931,-79.38,-81.42
1732085162270815452,1732085162270462751,12,0.69,0.87,0.5,5.2094233333333335,-79.69,-81.2
1732085162371250076,1732085162370449304,12,0.69,0.87,0.5,5.2094233333333335,-79.12,-80.81
1732085162470939236,1732085162470468282,12,0.69,0.87,0.5,5.2094233333333335,-79.3,-81.0
1732085162571079198,1732085162570502281,12,0.69,0.87,0.5,5.1969156666666665,-79.08,-80.67
1732085162671063864,1732085162670474529,12,0.69,0.87,0.5,5.178154,-79.03,-80.96
1732085162771232123,1732085162770464181,12,0.69,0.87,0.5,5.190661333333334,-79.6,-80.84
1732085162871132465,1732085162870476245,12,0.69,0.87,0.5,5.203169,-79.09,-80.66
1732085162970863126,1732085162970446109,12,0.69,0.87,0.5,5.203169,-79.18,-81.38
1732085163070957347,1732085163070442676,12,0.69,0.87,0.5,5.184407666666666,-79.99,-81.01
1732085163173259519,1732085163171763896,12,0.69,0.87,0.5,5.184407666666666,-79.62,-81.33
1732085163273246132,1732085163273018360,12,0.69,0.87,0.5,5.221930666666666,-79.27,-81.08
1732085163372711141,1732085163372563600,12,0.69,0.87,0.5,5.234438333333333,-79.67,-81.58
1732085163471792980,1732085163471686363,12,0.69,0.87,0.5,5.259453333333333,-79.61,-81.14
1732085163572480315,1732085163572123050,12,0.69,0.87,0.5,5.2907226666666665,-79.47,-81.07
1732085163671397755,1732085163670489072,12,0.69,0.87,0.5,5.3219916666666665,-79.43,-80.94
1732085163770903337,1732085163770524978,12,0.69,0.87,0.5,5.3470070000000005,-79.39,-81.09
1732085163870945509,1732085163870503187,12,0.69,0.87,0.5,5.365768333333333,-79.37,-80.82
1732085163970889672,1732085163970504522,12,0.69,0.87,0.5,5.390783333333334,-80.13,-81.46
1732085164070901421,1732085164070454597,12,0.69,0.87,0.5,5.415798666666666,-79.15,-80.97
1732085164170823894,1732085164170458078,12,0.69,0.87,0.5,5.4595753333333334,-79.12,-80.94
1732085164770767453,1732085164770465373,12,0.69,0.87,0.5,5.684712333333334,-79.22,-81.33
1732085164870793807,1732085164870457172,12,0.69,0.87,0.5,5.722235333333333,-79.41,-81.47
1732085164970985016,1732085164970502376,12,0.69,0.87,0.5,5.766012,-79.11,-80.44
1732085165070968289,1732085165070515871,12,0.69,0.87,0.5,5.816042333333333,-79.3,-81.03
1732085165170846577,1732085165170462608,12,0.69,0.87,0.5,5.872326666666666,-79.57,-80.94
1732085165273574653,1732085165273371934,12,0.69,0.87,0.5,5.928611,-79.89,-80.92
1732085165374355348,1732085165373988151,12,0.69,0.87,0.5,5.978641666666667,-79.12,-80.66
1732085165473305864,1732085165473097801,12,0.69,0.87,0.5,6.0036570000000005,-79.27,-80.74
1732085165573593542,1732085165573427438,12,0.69,0.87,0.5,6.047433666666667,-79.06,-80.84
1732085165673709448,1732085165673491001,12,0.69,0.87,0.5,6.084956333333333,-79.14,-80.53
1732085165773633660,1732085165773288965,12,0.69,0.87,0.5,6.134986666666667,-79.37,-80.79
1732085165873311906,1732085165873056173,12,0.69,0.87,0.5,6.172509333333333,-79.29,-80.61
1732085165973450116,1732085165973276376,12,0.69,0.87,0.5,6.2350476666666665,-79.15,-80.93
1732085166073193153,1732085166073058128,12,0.69,0.87,0.5,6.2850779999999995,-79.73,-81.08
1732085166173759463,1732085166173596858,12,0.69,0.87,0.5,6.366377666666668,-79.1,-80.51
1732085166273536595,1732085166273319244,12,0.69,0.87,0.5,6.447677,-80.26,-80.66
1732085166373182627,1732085166373030662,12,0.69,0.87,0.5,6.516469,-80.13,-81.25
1732085166473851700,1732085166473651647,12,0.69,0.87,0.5,6.579007,-79.63,-80.52
1732085166574445438,1732085166574120759,12,0.69,0.87,0.5,6.622783666666667,-80.25,-81.03
1732085166673314502,1732085166673196077,12,0.69,0.87,0.5,6.691575666666666,-79.38,-80.73
1732085166773910107,1732085166773613452,12,0.69,0.87,0.5,6.7666216666666665,-79.46,-80.68
1732085166873617740,1732085166873211383,12,0.69,0.87,0.5,6.866682666666667,-78.99,-80.67
1732085166973188135,1732085166973051786,12,0.69,0.87,0.5,6.954235999999999,-79.62,-80.55
1732085167073571609,1732085167073359251,12,0.69,0.87,0.5,7.029281666666667,-78.78,-80.88
1732085167172870246,1732085167172641038,12,0.69,0.87,0.5,7.079312333333334,-79.33,-80.46
1732085167273549360,1732085167273413181,12,0.69,0.87,0.5,7.148104333333333,-79.47,-81.01
1732085167372575890,1732085167372371912,12,0.69,0.87,0.5,7.254419000000001,-79.04,-80.97
1732085167472645588,1732085167472462654,12,0.69,0.87,0.5,7.360733666666667,-79.39,-80.65
1732085167572651488,1732085167572414636,12,0.69,0.87,0.5,7.460794666666668,-79.08,-81.13
1732085167672926595,1732085167672677040,12,0.69,0.87,0.5,7.510825,-79.16,-80.47
1732085167773064920,1732085167772757768,12,0.69,0.87,0.5,7.604632,-79.0,-81.03
1732085167872439052,1732085167872279405,12,0.69,0.87,0.5,7.692185333333334,-79.26,-80.84
1732085168003112351,1732085168002951383,12,0.69,0.87,0.5,7.785992666666666,-78.99,-80.54
1732085168072734659,1732085168072546958,12,0.69,0.87,0.5,7.854784666666667,-78.95,-80.5
1732085168172696218,1732085168172464847,12,0.69,0.87,0.5,7.936084,-79.21,-80.89
1732085168272722925,1732085168272576570,12,0.69,0.87,0.5,8.036145,-79.49,-81.04
1732085168372875277,1732085168372762680,12,0.69,0.87,0.5,8.129952333333334,-79.47,-80.87
1732085168472895894,1732085168472613096,12,0.69,0.87,0.5,8.217506,-79.73,-80.77
1732085168573423580,1732085168573131322,12,0.69,0.87,0.5,8.311313,-79.29,-81.42
1732085168671928062,1732085168671759843,12,0.69,0.87,0.5,8.405120333333334,-79.26,-80.65
1732085168772636232,1732085168772483110,12,0.69,0.87,0.5,8.480165666666666,-78.96,-80.86
1732085168872019363,1732085168871648788,12,0.69,0.87,0.5,8.561465333333333,-79.31,-80.61
1732085168971967030,1732085168971743822,12,0.69,0.87,0.5,8.66778,-79.39,-80.63
1732085169071869133,1732085169071686029,12,0.69,0.87,0.5,8.799110333333333,-79.63,-80.64
1732085169173209189,1732085169173002719,12,0.69,0.87,0.5,8.892917333333335,-79.27,-80.61
1732085169272421893,1732085169272035121,12,0.69,0.87,0.5,8.967962666666667,-79.47,-80.78
1732085169372057179,1732085169371827602,12,0.69,0.87,0.5,9.036754333333334,-79.41,-80.88
1732085169470864259,1732085169470458984,12,0.69,0.87,0.5,9.130561666666667,-79.51,-80.85
1732085169570936150,1732085169570473909,12,0.69,0.87,0.5,9.230623000000001,-79.56,-82.07
1732085169670974376,1732085169670461177,12,0.69,0.87,0.5,9.336938,-79.63,-80.99
1732085169771132170,1732085169770463228,12,0.69,0.87,0.5,9.424491333333334,-80.15,-82.14
1732085169870938515,1732085169870484590,12,0.69,0.87,0.5,9.524552,-80.65,-83.39
1732085169973314818,1732085169973049879,12,0.69,0.87,0.5,9.637120333333334,-81.3,-82.07
1732085170772555941,1732085170772161722,12,0.69,0.87,0.5,10.400085333333333,-80.51,-81.76
1732085170871878315,1732085170871613264,12,0.69,0.87,0.5,10.575191666666667,-79.89,-81.04
1732085170972020006,1732085170971783876,12,0.69,0.87,0.5,10.662745,-80.15,-80.6
1732085171072363160,1732085171072115182,12,0.69,0.87,0.5,10.762806333333335,-80.24,-81.22
1732085171173598643,1732085171173455476,12,0.69,0.87,0.5,10.881628666666666,-80.12,-80.93
1732085171271050624,1732085171270517826,12,0.69,0.87,0.5,11.000451,-80.22,-80.76
1732085171374083721,1732085171373851060,12,0.69,0.87,0.5,11.125527,-80.19,-81.04
1732085171473496508,1732085171473347902,12,0.69,0.87,0.5,11.250603,-80.19,-81.1
1732085171573764891,1732085171573635578,12,0.69,0.87,0.5,11.363171666666666,-80.43,-80.99
1732085171673417293,1732085171673200130,12,0.69,0.87,0.5,11.475740333333334,-80.46,-81.12
1732085171773341580,1732085171773197174,12,0.69,0.87,0.5,11.582055333333335,-80.26,-81.24
1732085171873402757,1732085171873235702,12,0.69,0.87,0.5,11.675862333333333,-80.48,-81.88
1732085171973771802,1732085171973462820,12,0.69,0.87,0.5,11.794684333333334,-81.27,-82.48
1732085172073749671,1732085172073437452,12,0.69,0.87,0.5,11.894745333333333,-80.38,-81.86
1732085172174017632,1732085172173751592,12,0.69,0.87,0.5,11.976045,-81.01,-81.55
1732085172273239658,1732085172273095607,12,0.69,0.87,0.5,12.026075666666665,-80.59,-81.27
1732085172373715036,1732085172373502492,12,0.69,0.87,0.5,12.101121,-81.58,-81.57
1732085172473324279,1732085172473125457,12,0.69,0.87,0.5,12.226196999999999,-80.56,-81.22
1732085172573486691,1732085172573384284,12,0.69,0.87,0.5,12.332511666666667,-80.41,-81.21
1732085172673657181,1732085172673346757,12,0.69,0.87,0.5,12.438826666666666,-80.35,-81.04
1732085172773998609,1732085172773713827,12,0.69,0.87,0.5,12.526379999999998,-80.61,-80.73
1732085172873726404,1732085172873476982,12,0.69,0.87,0.5,12.645202666666668,-80.88,-81.08
1732085173004596065,1732085173004379034,12,0.69,0.87,0.5,12.751517333333334,-80.66,-81.5
1732085173073374904,1732085173073160409,12,0.69,0.87,0.5,12.864086,-80.74,-81.12
1732085173173764188,1732085173173561334,12,0.69,0.87,0.5,12.970400666666668,-81.23,-81.51
1732085173273797642,1732085173273576974,12,0.69,0.87,0.5,13.089222999999999,-80.95,-81.3
1732085173373767052,1732085173373465299,12,0.69,0.87,0.5,13.214299000000002,-81.36,-81.67
1732085173473661060,1732085173473469734,12,0.69,0.87,0.5,13.333121333333333,-80.92,-82.03
1732085173573443354,1732085173573275804,12,0.69,0.87,0.5,13.451944,-81.27,-81.48
1732085173673773399,1732085173673552751,12,0.69,0.87,0.5,13.570766333333333,-80.84,-81.28
1732085173773730035,1732085173773504018,12,0.69,0.87,0.5,13.683334666666667,-82.42,-82.25
1732085173870995618,1732085173870467662,12,0.69,0.87,0.5,13.783395333333333,-81.5,-81.48
1732085173970834192,1732085173970479965,12,0.69,0.87,0.5,13.877202666666667,-82.14,-82.13
1732085174070781711,1732085174070478916,12,0.69,0.87,0.5,13.977264,-83.62,-83.9
1732085174170790834,1732085174170484781,12,0.69,0.87,0.5,14.077325,-84.61,-86.04
1732085174270897516,1732085174270527839,12,0.69,0.87,0.5,14.189893666666668,-83.06,-86.01
1732085174370761550,1732085174370484828,12,0.69,0.87,0.5,14.283700333333334,-82.86,-84.59
1732085174470926349,1732085174470498323,12,0.69,0.87,0.5,14.390015,-82.55,-83.53
1732085174570881225,1732085174570480346,12,0.69,0.87,0.5,14.490076,-82.94,-83.07
1732085174670926760,1732085174670527458,12,0.69,0.87,0.5,14.596390999999999,-82.07,-83.89
1732085174770779796,1732085174770474672,12,0.69,0.87,0.5,14.708959666666667,-82.05,-82.22
1732085174870923602,1732085174870484828,12,0.69,0.87,0.5,14.802766666666669,-82.52,-83.34
1732085174970866652,1732085174970513582,12,0.69,0.87,0.5,14.909081333333333,-82.42,-83.79
1732085175070926047,1732085175070543766,12,0.69,0.87,0.5,15.015396333333333,-82.62,-82.32
1732085175170890022,1732085175170539617,12,0.69,0.87,0.5,15.127964666666665,-82.94,-84.32
1732085175273165086,1732085175272994995,12,0.69,0.87,0.5,15.234279333333333,-83.68,-83.67
1732085175372945860,1732085175372666597,12,0.69,0.87,0.5,15.328086333333333,-84.91,-85.16
1732085175473069493,1732085175472835779,12,0.69,0.87,0.5,15.428147333333333,-83.8,-83.99
1732085175572796783,1732085175572662591,12,0.69,0.87,0.5,15.540715999999998,-83.36,-86.38
1732085175673157226,1732085175672931671,12,0.69,0.87,0.5,15.653284333333334,-83.7,-85.25
1732085175772956221,1732085175772779464,12,0.69,0.87,0.5,15.778360666666666,-84.37,-84.67
1732085175871935487,1732085175871681213,12,0.69,0.87,0.5,15.903437000000002,-84.08,-85.49
1732085175971981606,1732085175971596479,12,0.69,0.87,0.5,16.01600566666667,-84.4,-84.43
1732085176372134031,1732085176371896982,12,0.69,0.87,0.5,16.416248333333332,-86.68,-89.72
1732085176570832784,1732085176570462703,12,0.69,0.87,0.5,16.547578333333334,-87.23,-88.36
1732085176672683361,1732085176672550678,12,0.69,0.87,0.5,16.672654666666663,-87.63,-87.74
1732085176773019201,1732085176771815061,12,0.69,0.87,0.5,16.82274633333333,-86.8,-87.92
1732085176871942347,1732085176871740341,12,0.69,0.87,0.5,16.954075999999997,-87.47,-89.44
1732085176971902395,1732085176971613645,12,0.69,0.87,0.5,17.09165966666667,-87.4,-87.27
1732085177070971201,1732085177070459127,12,0.69,0.87,0.5,17.204228333333333,-87.57,-87.0
1732085177172092320,1732085177171796321,12,0.69,0.87,0.5,17.323051,-87.11,-88.19
1732085177272100446,1732085177271948337,12,0.69,0.87,0.5,17.448127,-86.71,-86.05
1732085177371988903,1732085177371677875,12,0.69,0.87,0.5,17.573203333333336,-88.31,-87.56
1732085177472744243,1732085177472292661,12,0.69,0.87,0.5,17.685772,-87.28,-86.73
1732085177572172086,1732085177571966171,12,0.69,0.87,0.5,17.767071666666666,-87.7,-87.28
1732085177672730608,1732085177672242641,12,0.69,0.87,0.5,17.854624666666666,-88.4,-88.87
1732085177771917881,1732085177771646261,12,0.69,0.87,0.5,17.948432,-87.92,-88.24
1732085177872052895,1732085177871764659,12,0.69,0.87,0.5,18.054747000000003,-87.58,-89.23
1732085178002571965,1732085178002343893,12,0.69,0.87,0.5,18.192331,-86.16,-88.87
1732085178071810789,1732085178071635007,12,0.69,0.87,0.5,18.317407,-86.13,-87.54
1732085178171976295,1732085178171747684,12,0.69,0.87,0.5,18.429975333333335,-85.01,-85.39
1732085178272196133,1732085178271953821,12,0.69,0.87,0.5,18.523782666666666,-84.78,-84.82
1732085178372378683,1732085178372063636,12,0.69,0.87,0.5,18.630097000000003,-84.35,-86.57
1732085178472071359,1732085178471840858,12,0.69,0.87,0.5,18.748919333333333,-83.68,-85.7
1732085178572073314,1732085178571858406,12,0.69,0.87,0.5,18.86774133333333,-83.19,-83.02
1732085178671944666,1732085178671635866,12,0.69,0.87,0.5,18.98031,-83.47,-83.22
1732085178772330642,1732085178771900415,12,0.69,0.87,0.5,19.19294,-82.39,-82.31
1732085178871959317,1732085178871713876,12,0.69,0.87,0.5,19.280493666666665,-82.08,-82.4
1732085179170674568,1732085179170489549,12,0.69,0.87,0.5,19.430584666666665,-81.59,-81.31
1732085179270892670,1732085179270454883,12,0.69,0.87,0.5,19.59318366666667,-82.31,-82.04
1732085179370938279,1732085179370485544,12,0.69,0.87,0.5,19.75578266666667,-81.64,-81.43
1732085179470728144,1732085179470460414,12,0.69,0.87,0.5,19.868351333333333,-81.63,-82.7
1732085179570851356,1732085179570477008,12,0.69,0.87,0.5,19.962158333333335,-81.2,-81.64
1732085179670701204,1732085179670448780,12,0.69,0.87,0.5,20.068473333333333,-81.69,-81.73
1732085179772842959,1732085179772614955,12,0.69,0.87,0.5,20.156026999999998,-81.33,-81.55
1732085179872552623,1732085179872328281,12,0.69,0.87,0.5,20.274849333333332,-81.04,-81.37
1732085179973048191,1732085179972810506,12,0.69,0.87,0.5,20.393671333333334,-80.53,-80.84
1732085180072780973,1732085180072575330,12,0.69,0.87,0.5,20.506240000000002,-80.69,-80.71
1732085180172933384,1732085180172724246,12,0.69,0.87,0.5,20.62506266666667,-80.57,-81.34
1732085180272525972,1732085180272336483,12,0.69,0.87,0.5,20.71887,-80.56,-80.99
1732085180372678902,1732085180372433185,12,0.69,0.87,0.5,20.837692,-80.85,-81.37
1732085180472607094,1732085180472497224,12,0.69,0.87,0.5,20.937752666666665,-80.96,-81.29
1732085180573436560,1732085180573069334,12,0.69,0.87,0.5,21.056574666666666,-81.26,-81.37
1732085180671897773,1732085180671682119,12,0.69,0.87,0.5,21.175397333333336,-81.21,-81.32
1732085180772110983,1732085180771692276,12,0.69,0.87,0.5,21.294219333333334,-80.83,-80.96
1732085180871881137,1732085180871579647,12,0.69,0.87,0.5,21.400534333333336,-80.97,-81.0
1732085180972283504,1732085180971850156,12,0.69,0.87,0.5,21.494341000000002,-81.33,-81.49
1732085181072159404,1732085181071774244,12,0.69,0.87,0.5,21.600655999999997,-81.27,-81.52
1732085181171749220,1732085181171467542,12,0.69,0.87,0.5,21.713224666666665,-81.54,-82.06
1732085181271941428,1732085181271694660,12,0.69,0.87,0.5,21.832047333333332,-81.29,-81.13
1732085181372211350,1732085181371880769,12,0.69,0.87,0.5,21.938362333333334,-81.26,-81.31
1732085181472879108,1732085181472718238,12,0.69,0.87,0.5,22.069692000000003,-81.77,-81.62
1732085181574223668,1732085181574090957,12,0.69,0.87,0.5,22.188513999999998,-81.27,-81.15
1732085181670759587,1732085181670456171,12,0.69,0.87,0.5,22.307336333333335,-81.67,-81.69
1732085181770884662,1732085181770461082,12,0.69,0.87,0.5,22.41365133333333,-81.66,-81.42
1732085181873175693,1732085181872993230,12,0.69,0.87,0.5,22.52622,-81.83,-81.41
1732085181972333715,1732085181971795082,12,0.69,0.87,0.5,22.657549666666664,-82.21,-81.9
1732085182072108791,1732085182071899175,12,0.69,0.87,0.5,22.770118333333333,-82.95,-82.45
1732085182172534795,1732085182172299623,12,0.69,0.87,0.5,22.882687,-81.96,-81.6
1732085182272604112,1732085182272475481,12,0.69,0.87,0.5,22.989002,-82.19,-81.89
1732085182371481332,1732085182371292114,12,0.69,0.87,0.5,23.126586,-82.25,-81.85
1732085182471865520,1732085182471528053,12,0.69,0.87,0.5,23.25791633333333,-82.78,-82.79
1732085182571839948,1732085182571507215,12,0.69,0.87,0.5,23.470545666666666,-82.01,-82.0
1732085182672083274,1732085182671819210,12,0.69,0.87,0.5,23.589367666666664,-82.5,-82.31
1732085182772003730,1732085182771773338,12,0.69,0.87,0.5,23.708190333333334,-81.87,-81.92
1732085182871957252,1732085182871665954,12,0.69,0.87,0.5,23.820759,-81.91,-81.66
1732085183002816073,1732085183002440214,12,0.69,0.87,0.5,23.927074,-82.4,-82.08
1732085183072042915,1732085183071652650,12,0.69,0.87,0.5,24.045896,-82.06,-81.8
1732085183172317633,1732085183171957731,12,0.69,0.87,0.5,24.164718000000004,-82.28,-82.38
1732085183272027684,1732085183271769285,12,0.69,0.87,0.5,24.271032333333334,-82.46,-82.37
1732085183372078401,1732085183371772527,12,0.69,0.87,0.5,24.371093000000002,-83.72,-83.59
1732085183471825742,1732085183471628189,12,0.69,0.87,0.5,24.477408,-83.17,-82.83
1732085183570843831,1732085183570531129,12,0.69,0.87,0.5,24.596230666666667,-84.44,-85.69
1732085183670807174,1732085183670495033,12,0.69,0.87,0.5,24.70879933333333,-84.04,-83.96
1732085183771008488,1732085183770476579,12,0.69,0.87,0.5,24.821368000000003,-84.61,-85.42
1732085183870916068,1732085183870438098,12,0.69,0.87,0.5,24.933936666666664,-85.78,-86.43
1732085183970755403,1732085183970467805,12,0.69,0.87,0.5,25.059013000000004,-86.95,-87.9
1732085184070894011,1732085184070475578,12,0.69,0.87,0.5,25.146565999999996,-86.46,-89.96
1732085184170822509,1732085184170472860,12,0.69,0.87,0.5,25.22786533333333,-86.88,-89.01
1732085184270907165,1732085184270518064,12,0.69,0.87,0.5,25.315419000000002,-87.22,-88.96
1732085184370747290,1732085184370467662,12,0.69,0.87,0.5,25.421734,-87.54,-90.85
1732085184470819327,1732085184470475196,12,0.69,0.87,0.5,25.528048666666663,-85.56,-89.5
1732085184570853886,1732085184570448875,12,0.69,0.87,0.5,7.404509999999998,-87.24,-90.39
1732085184670784792,1732085184670449733,12,0.69,0.87,0.5,7.510825,-87.49,-90.51
1732085184770987328,1732085184770498514,12,0.69,0.87,0.5,7.604632,-90.75,-94.31
1732085184873709052,1732085184873514652,12,0.69,0.87,0.5,25.897023,-87.61,-91.76
1732085184973823672,1732085184973556756,12,0.69,0.87,0.5,26.003337333333334,-88.85,-93.74
1732085185073754401,1732085185073474407,12,0.69,0.87,0.5,26.12841366666667,-87.82,-90.22
1732085185173165571,1732085185172963380,12,0.69,0.87,0.5,26.265997999999996,-87.31,-91.01
1732085185272799370,1732085185272643089,12,0.69,0.87,0.5,26.391074,-86.58,-90.2
1732085185372938013,1732085185372679948,12,0.69,0.87,0.5,26.516150333333332,-86.81,-91.27
1732085185472740495,1732085185472491025,12,0.69,0.87,0.5,26.634972333333334,-86.58,-89.71
1732085185572817696,1732085185572662115,12,0.69,0.87,0.5,26.747541000000002,-85.22,-89.28
1732085185672670151,1732085185672492504,12,0.69,0.87,0.5,26.866362999999996,-86.2,-90.56
1732085185772448136,1732085185772189378,12,0.69,0.87,0.5,26.991439333333336,-85.37,-88.17
1732085185872865802,1732085185872618436,12,0.69,0.87,0.5,27.110262000000002,-86.62,-89.1
1732085185972794439,1732085185972263574,12,0.69,0.87,0.5,27.222830666666667,-86.18,-89.32
1732085186073068363,1732085186072770118,12,0.69,0.87,0.5,27.347907000000003,-85.39,-87.0
1732085186172604888,1732085186172373294,12,0.69,0.87,0.5,27.460475666666667,-85.28,-87.98
1732085186272414779,1732085186272203683,12,0.69,0.87,0.5,27.57929833333333,-84.89,-88.11
1732085186372758239,1732085186372601270,12,0.69,0.87,0.5,27.685612666666668,-84.77,-86.64
1732085186472254307,1732085186472034215,12,0.69,0.87,0.5,27.816942333333333,-84.7,-88.97
1732085186572482660,1732085186572392702,12,0.69,0.87,0.5,27.923257333333336,-85.07,-86.68
1732085186672949332,1732085186672847986,12,0.69,0.87,0.5,28.04208,-85.24,-86.42
1732085186773051415,1732085186772864103,12,0.69,0.87,0.5,28.154648666666663,-86.08,-86.75
1732085186873430074,1732085186873281240,12,0.69,0.87,0.5,28.273470666666665,-84.82,-86.66
1732085186973521433,1732085186973286390,12,0.69,0.87,0.5,28.386038999999997,-85.98,-88.26
1732085187073979278,1732085187073818922,12,0.69,0.87,0.5,28.492354000000002,-83.56,-84.82
1732085187172572908,1732085187172377586,12,0.69,0.87,0.5,28.598669,-84.34,-88.99
1732085187272718673,1732085187272458076,12,0.69,0.87,0.5,28.71749133333333,-83.43,-85.52
1732085187372961095,1732085187372693538,12,0.69,0.87,0.5,28.836313333333333,-83.88,-84.12
1732085187471649166,1732085187471391916,12,0.69,0.87,0.5,28.955135333333335,-84.39,-84.66
1732085187570871839,1732085187570471763,12,0.69,0.87,0.5,29.06770366666667,-83.84,-83.63
1732085187671605948,1732085187671318531,12,0.69,0.87,0.5,29.180272333333335,-83.47,-83.2
1732085187771784097,1732085187771536588,12,0.69,0.87,0.5,29.28658733333333,-84.34,-85.45
1732085187871664827,1732085187871501922,12,0.69,0.87,0.5,29.399156,-83.1,-83.23
1732085188000380244,1732085188000182628,12,0.69,0.87,0.5,29.499216666666666,-82.77,-83.51
1732085188073286143,1732085188072815895,12,0.69,0.87,0.5,29.624292999999998,-83.63,-83.75
1732085188172680394,1732085188172395706,12,0.69,0.87,0.5,29.736862333333335,-82.5,-82.38
1732085188272101567,1732085188271780490,12,0.69,0.87,0.5,29.849431,-82.85,-84.9
1732085188373184578,1732085188373017311,12,0.69,0.87,0.5,29.955745333333336,-82.54,-82.43
1732085188472611995,1732085188472474575,12,0.69,0.87,0.5,30.062059666666666,-82.34,-82.47
1732085188572954809,1732085188572653770,12,0.69,0.87,0.5,30.174628666666667,-82.79,-83.27
1732085188671903366,1732085188671633005,12,0.69,0.87,0.5,30.28094366666667,-82.46,-82.62
1732085188772320961,1732085188772139072,12,0.69,0.87,0.5,30.393512,-83.76,-83.79
1732085188871900076,1732085188871661663,12,0.69,0.87,0.5,30.506080666666666,-82.21,-82.05
1732085188971878924,1732085188971768379,12,0.69,0.87,0.5,30.612395666666668,-82.17,-82.43
1732085189072754898,1732085189072371959,12,0.69,0.87,0.5,30.718710666666666,-82.81,-82.84
1732085189171992643,1732085189171764373,12,0.69,0.87,0.5,30.825025,-82.12,-81.86
1732085189272789497,1732085189272594451,12,0.69,0.87,0.5,30.937593666666668,-82.64,-84.72
1732085189371770921,1732085189371648073,12,0.69,0.87,0.5,31.068923666666667,-81.94,-81.91
1732085189472696254,1732085189472374200,12,0.69,0.87,0.5,31.200253666666665,-82.4,-82.39
1732085189572225649,1732085189571884870,12,0.69,0.87,0.5,31.325329333333332,-82.37,-82.17
1732085189671939641,1732085189671676397,12,0.69,0.87,0.5,31.425390000000004,-82.28,-82.21
1732085189771927041,1732085189771725893,12,0.69,0.87,0.5,31.519197000000002,-82.2,-82.18
1732085189872270250,1732085189871908187,12,0.69,0.87,0.5,31.631765333333334,-82.71,-82.82
1732085189972444277,1732085189972323179,12,0.69,0.87,0.5,31.738080333333333,-83.19,-83.25
1732085190071956330,1732085190071808099,12,0.69,0.87,0.5,31.869411,-82.16,-81.77
1732085190172631897,1732085190172274589,12,0.69,0.87,0.5,31.988234000000002,-83.31,-82.79
1732085190270964914,1732085190270528554,12,0.69,0.87,0.5,32.11331033333334,-81.92,-81.88
1732085190370760920,1732085190370475053,12,0.69,0.87,0.5,24.027134666666665,-82.5,-82.25
1732085190572173025,1732085190571809291,12,0.69,0.87,0.5,24.214749,-82.33,-81.99
1732085190674072141,1732085190673861026,12,0.69,0.87,0.5,24.41487033333333,-83.11,-82.64
1732085190774322955,1732085190774118185,12,0.69,0.87,0.5,32.788721,-82.39,-82.47
1732085190873701471,1732085190873518228,12,0.69,0.87,0.5,32.901289,-82.0,-81.9
1732085190971944877,1732085190971647262,12,0.69,0.87,0.5,33.007604666666666,-82.2,-82.39
1732085191074105386,1732085191073864698,12,0.69,0.87,0.5,33.126426333333335,-82.04,-81.97
1732085191172845482,1732085191172534465,12,0.69,0.87,0.5,33.23274166666667,-82.25,-82.21
1732085191272681166,1732085191272419691,12,0.69,0.87,0.5,33.33280266666666,-81.98,-82.5
1732085191373362610,1732085191373164653,12,0.69,0.87,0.5,33.46413366666666,-82.56,-82.35
1732085191473346032,1732085191473090648,12,0.69,0.87,0.5,33.58921,-83.3,-84.35
1732085191573081575,1732085191572780132,12,0.69,0.87,0.5,33.72679333333334,-83.41,-83.26
1732085191672971699,1732085191672812461,12,0.69,0.87,0.5,33.83310766666667,-82.48,-83.76
1732085191774434068,1732085191773251533,12,0.69,0.87,0.5,33.93316866666667,-83.04,-82.74
1732085191872571001,1732085191872252225,12,0.69,0.87,0.5,34.03322933333333,-83.4,-84.95
1732085191970789704,1732085191970486879,12,0.69,0.87,0.5,34.13954366666667,-83.37,-83.27
1732085192071111734,1732085192070490837,12,0.69,0.87,0.5,34.25211133333334,-82.47,-83.04
1732085192171126883,1732085192170509338,12,0.69,0.87,0.5,34.370934,-82.62,-82.68
1732085192270956096,1732085192270477533,12,0.69,0.87,0.5,34.49601033333334,-82.44,-82.36
1732085192370652052,1732085192370481729,12,0.69,0.87,0.5,34.602326000000005,-83.17,-84.5
1732085192470574669,1732085192470449447,12,0.69,0.87,0.5,34.702386999999995,-83.25,-83.61
1732085192573374587,1732085192573147296,12,0.69,0.87,0.5,34.814956333333335,-83.73,-83.46
1732085192672859493,1732085192672669410,12,0.69,0.87,0.5,34.933778,-83.71,-84.14
1732085192773007412,1732085192772713422,12,0.69,0.87,0.5,35.05260066666667,-84.06,-84.0
1732085192873148741,1732085192872842073,12,0.69,0.87,0.5,35.158915,-83.56,-85.8
1732085193000479054,1732085193000207424,12,0.69,0.87,0.5,35.265230333333335,-84.11,-86.02
1732085193073064154,1732085193072890281,12,0.69,0.87,0.5,35.37779833333334,-83.85,-83.77
1732085193172843491,1732085193172688245,12,0.69,0.87,0.5,35.48411266666667,-85.59,-85.27
1732085193272714055,1732085193272516012,12,0.69,0.87,0.5,35.62169633333333,-85.45,-87.1
1732085193373841323,1732085193373550176,12,0.69,0.87,0.5,35.746772666666665,-83.62,-83.08
1732085193473398370,1732085193473005533,12,0.69,0.87,0.5,35.86559533333334,-85.1,-84.78
1732085193572925335,1732085193572775125,12,0.69,0.87,0.5,35.97190966666667,-84.17,-84.11
1732085193672863587,1732085193672635078,12,0.69,0.87,0.5,36.078224,-84.17,-83.83
1732085193773443966,1732085193772582292,12,0.69,0.87,0.5,36.18453833333333,-83.89,-84.83
1732085193872851003,1732085193872653961,12,0.69,0.87,0.5,36.284599,-83.66,-85.47
1732085193973498536,1732085193973233222,12,0.69,0.87,0.5,36.415929999999996,-85.8,-85.85
1732085194072642387,1732085194072447299,12,0.69,0.87,0.5,36.52224566666666,-83.65,-84.04
1732085194172776977,1732085194172550916,12,0.69,0.87,0.5,36.65357566666667,-88.35,-89.8
1732085194273500216,1732085194273281574,12,0.69,0.87,0.5,36.74738166666667,-83.59,-84.42
1732085194373549175,1732085194373334646,12,0.69,0.87,0.5,36.878711333333335,-85.76,-87.63
1732085194473609824,1732085194473384618,12,0.69,0.87,0.5,36.997534,-83.96,-86.54
1732085194573311526,1732085194573185443,12,0.69,0.87,0.5,37.122610333333334,-84.75,-87.73
1732085194674124147,1732085194673908233,12,0.69,0.87,0.5,37.210164,-85.74,-88.12
1732085194773724712,1732085194773524284,12,0.69,0.87,0.5,37.303971000000004,-85.24,-86.28
1732085194874187050,1732085194873926877,12,0.69,0.87,0.5,37.397777999999995,-86.63,-89.19
1732085194973668435,1732085194973443508,12,0.69,0.87,0.5,37.529108,-86.19,-85.96
1732085195074071896,1732085195073831796,12,0.69,0.87,0.5,37.64167733333334,-85.78,-86.24
1732085195173354366,1732085195173241138,12,0.69,0.87,0.5,37.747993,-86.14,-85.89
1732085195273419266,1732085195273340702,12,0.69,0.87,0.5,37.86681433333333,-84.31,-85.72
1732085195373366622,1732085195373200178,12,0.69,0.87,0.5,37.98563566666667,-85.56,-85.45
1732085195470829880,1732085195470469474,12,0.69,0.87,0.5,38.10445733333333,-83.72,-84.88
1732085195672573290,1732085195672346830,12,0.69,0.87,0.5,38.25454933333333,-85.68,-87.92
1732085195773709686,1732085195773478984,12,0.69,0.87,0.5,38.410894666666664,-84.24,-84.55
1732085195872532926,1732085195872439861,12,0.69,0.87,0.5,38.579748333333335,-83.97,-84.82
1732085196273443377,1732085196273037195,12,0.69,0.87,0.5,33.41410266666667,-86.02,-88.26
1732085196370955656,1732085196370495080,12,0.69,0.87,0.5,33.520417,-84.44,-86.61
1732085196470929619,1732085196470491170,12,0.69,0.87,0.5,39.236398666666666,-84.72,-86.4
1732085196570768208,1732085196570461750,12,0.69,0.87,0.5,39.37398233333334,-87.58,-89.88
1732085196672497116,1732085196672421216,12,0.69,0.87,0.5,39.49905866666667,-86.84,-89.68
1732085196773342717,1732085196772670269,12,0.69,0.87,0.5,39.611626666666666,-84.71,-86.84
1732085196873014391,1732085196872832298,12,0.69,0.87,0.5,39.72419566666667,-88.4,-89.84
1732085196972516811,1732085196972375631,12,0.69,0.87,0.5,39.849272000000006,-84.74,-87.72
1732085197071666631,1732085197071336269,12,0.69,0.87,0.5,39.968094666666666,-87.56,-88.62
1732085197172240123,1732085197171780824,12,0.69,0.87,0.5,40.074409,-83.92,-85.35
1732085197271942033,1732085197271750926,12,0.69,0.87,0.5,40.17446966666667,-85.09,-85.78
1732085197372018614,1732085197371754407,12,0.69,0.87,0.5,40.280784000000004,-85.53,-86.39
1732085197471566333,1732085197471304416,12,0.69,0.87,0.5,40.387098333333334,-86.22,-87.61
1732085197570797285,1732085197570458412,12,0.69,0.87,0.5,40.49966766666667,-85.05,-85.41
1732085197670731704,1732085197670462369,12,0.69,0.87,0.5,40.612237,-88.55,-89.27
1732085197770866847,1732085197770493030,12,0.69,0.87,0.5,40.73105966666667,-85.22,-84.96
1732085197870979666,1732085197870507240,12,0.69,0.87,0.5,40.849881,-86.6,-87.26
1732085197970747941,1732085197970456600,12,0.69,0.87,0.5,40.96870233333333,-85.04,-85.25
1732085198070825516,1732085198070413351,12,0.69,0.87,0.5,41.08752533333333,-85.24,-87.61
1732085198270849311,1732085198270531177,12,0.69,0.87,0.5,41.22511,-84.99,-85.51
1732085198370809927,1732085198370464563,12,0.69,0.87,0.5,41.38771033333333,-84.88,-87.62
1732085198470681793,1732085198470502138,12,0.69,0.87,0.5,41.53780066666666,-86.5,-87.84
1732085198570856002,1732085198570444107,12,0.69,0.87,0.5,41.775445,-84.59,-86.54
1732085198670593446,1732085198670463323,12,0.69,0.87,0.5,41.88801433333333,-86.41,-86.03
1732085198774950372,1732085198774747610,12,0.69,0.87,0.5,41.99432866666666,-85.88,-86.86
1732085198873706416,1732085198873547554,12,0.69,0.87,0.5,42.100643,-85.39,-85.29
1732085198973205876,1732085198973045349,12,0.69,0.87,0.5,42.21321066666666,-85.94,-85.98
1732085199073770946,1732085199073591709,12,0.69,0.87,0.5,42.338287,-87.14,-86.74
1732085199173229746,1732085199173134565,12,0.69,0.87,0.5,42.450855999999995,-88.06,-87.65
1732085199273482410,1732085199273337364,12,0.69,0.87,0.5,42.575932333333334,-86.25,-86.65
1732085199373743477,1732085199373445034,12,0.69,0.87,0.5,42.682246666666664,-86.24,-86.15
1732085199473406395,1732085199473211765,12,0.69,0.87,0.5,42.79481466666667,-86.52,-86.53
1732085199573325040,1732085199573147058,12,0.69,0.87,0.5,42.89487566666667,-86.87,-87.81
1732085199673746782,1732085199673552751,12,0.69,0.87,0.5,43.001191000000006,-87.51,-89.38
1732085199773579425,1732085199773469209,12,0.69,0.87,0.5,43.132520666666665,-87.59,-87.58
1732085199873395242,1732085199873252153,12,0.69,0.87,0.5,43.23883633333333,-85.43,-85.83
1732085199973501181,1732085199973291635,12,0.69,0.87,0.5,43.357657999999994,-86.64,-88.35
1732085200073646105,1732085200073355436,12,0.69,0.87,0.5,43.457719,-87.12,-87.12
1732085200173652929,1732085200173472404,12,0.69,0.87,0.5,43.582795000000004,-87.47,-87.19
1732085200273907264,1732085200273843288,12,0.69,0.87,0.5,43.701617666666664,-86.6,-87.75
1732085200373765059,1732085200373565435,12,0.69,0.87,0.5,43.826694,-86.4,-86.05
1732085200473471011,1732085200473345756,12,0.69,0.87,0.5,43.93926200000001,-87.43,-87.94
1732085200573376904,1732085200573166847,12,0.69,0.87,0.5,44.03932266666666,-87.69,-88.5
1732085200673644980,1732085200673434972,12,0.69,0.87,0.5,44.151891666666664,-87.6,-87.16
1732085200774010660,1732085200773810386,12,0.69,0.87,0.5,44.25195233333333,-89.79,-89.93
1732085200873147505,1732085200873045206,12,0.69,0.87,0.5,44.37702866666666,-87.05,-88.63
1732085200974063105,1732085200973309278,12,0.69,0.87,0.5,44.47708933333333,-88.5,-88.29
1732085201073360201,1732085201073152542,12,0.69,0.87,0.5,44.60841933333333,-87.29,-88.69
1732085201173722577,1732085201173435926,12,0.69,0.87,0.5,44.70222666666666,-88.19,-88.95
1732085201273382186,1732085201273218870,12,0.69,0.87,0.5,44.814796,-88.54,-88.71
1732085201373590356,1732085201373281717,12,0.69,0.87,0.5,44.90860333333333,-90.04,-91.05
1732085201473501633,1732085201473273038,12,0.69,0.87,0.5,45.04618666666667,-88.39,-89.93
1732085201573220748,1732085201573086977,12,0.69,0.87,0.5,45.165008,-89.33,-88.88
1732085201673556329,1732085201673276185,12,0.69,0.87,0.5,45.28383066666667,-88.66,-88.49
1732085201774699261,1732085201773888111,12,0.69,0.87,0.5,45.38389133333334,-88.4,-89.77
1732085201873221516,1732085201873093128,12,0.69,0.87,0.5,45.490207,-88.09,-88.72
1732085202071948503,1732085202071792364,12,0.69,0.87,0.5,45.64655233333334,-89.49,-91.28
1732085202171906680,1732085202171614646,12,0.69,0.87,0.5,45.78413733333333,-90.58,-92.23
1732085202272558221,1732085202272225618,12,0.69,0.87,0.5,45.94048133333333,-89.74,-89.66
1732085202471725199,1732085202471546888,12,0.69,0.87,0.5,46.090573000000006,-89.26,-91.01
1732085202572004787,1732085202571678876,12,0.69,0.87,0.5,46.25317166666667,-89.46,-89.27
1732085202672532496,1732085202672375917,12,0.69,0.87,0.5,46.40951733333333,-88.89,-88.48
1732085202771552823,1732085202770489931,12,0.69,0.87,0.5,46.515831666666664,-89.95,-90.71
1732085202871588463,1732085202871414184,12,0.69,0.87,0.5,46.63465466666667,-90.41,-90.22
1732085203000469335,1732085203000130653,12,0.69,0.87,0.5,46.740970000000004,-91.38,-91.5
1732085203073898877,1732085203073500394,12,0.69,0.87,0.5,46.85353799999999,-90.0,-90.52
1732085203171745821,1732085203171555757,12,0.69,0.87,0.5,46.966105666666664,-91.37,-92.96
1732085203272324881,1732085203272028923,12,0.69,0.87,0.5,47.07867366666667,-90.14,-90.03
1732085203371177653,1732085203370530843,12,0.69,0.87,0.5,47.210005,-89.75,-91.89
1732085203470795081,1732085203470462799,12,0.69,0.87,0.5,47.322574333333336,-89.33,-89.36
1732085203570767415,1732085203570458650,12,0.69,0.87,0.5,47.44765066666667,-91.12,-92.58
1732085203672669036,1732085203672463655,12,0.69,0.87,0.5,47.553965000000005,-90.35,-92.67
1732085203772534689,1732085203772281885,12,0.69,0.87,0.5,47.65402566666666,-90.5,-91.3
1732085203873328906,1732085203873018980,12,0.69,0.87,0.5,47.766595,-91.23,-93.46
1732085203972800197,1732085203972520351,12,0.69,0.87,0.5,47.87290933333333,-90.84,-92.5
1732085204073749334,1732085204072970867,12,0.69,0.87,0.5,48.010492666666664,-90.22,-91.45
1732085204173213712,1732085204172821998,12,0.69,0.87,0.5,48.123060333333335,-90.52,-90.87
1732085204272943640,1732085204272681951,12,0.69,0.87,0.5,48.23562933333333,-90.12,-91.04
1732085204373305033,1732085204373106002,12,0.69,0.87,0.5,48.323183,-92.3,-92.31
1732085204472825129,1732085204472679138,12,0.69,0.87,0.5,48.44200566666667,-91.01,-91.06
1732085204572840278,1732085204572570085,12,0.69,0.87,0.5,48.579589,-90.75,-90.9
1732085204671998090,1732085204671618461,12,0.69,0.87,0.5,48.70466533333333,-90.75,-93.41
1732085204771893820,1732085204771756172,12,0.69,0.87,0.5,48.779710666666666,-93.27,-94.67
1732085204872117761,1732085204871845006,12,0.69,0.87,0.5,48.873518,-89.47,-89.57
1732085204973183910,1732085204972982883,12,0.69,0.87,0.5,48.954817,-92.82,-94.28
1732085205171805122,1732085205171503543,12,0.69,0.87,0.5,49.06113266666667,-91.4,-91.96
1732085205272035510,1732085205271646261,12,0.69,0.87,0.5,49.11741733333333,-92.76,-92.59
1732085205372012947,1732085205371861219,12,0.69,0.87,0.5,49.173701666666666,-92.14,-94.85
1732085205472324258,1732085205471778631,12,0.69,0.87,0.5,49.19246233333333,-88.73,-90.21
1732085205571855615,1732085205571604967,12,0.69,0.87,0.5,49.223731333333326,-89.9,-89.6
1732085205673367766,1732085205673140287,12,0.69,0.87,0.5,49.248747,-90.63,-90.65
1732085205770769837,1732085205770434141,12,0.69,0.87,0.5,49.248747,-91.01,-92.34
1732085205870728458,1732085205870446443,12,0.69,0.87,0.5,49.24249333333333,-88.05,-87.66
1732085205970912340,1732085205970441102,12,0.69,0.87,0.5,49.23623966666667,-90.33,-90.85
1732085206070893937,1732085206070459842,12,0.69,0.87,0.5,49.23623966666667,-89.85,-90.47
1732085206170971790,1732085206170514106,12,0.69,0.87,0.5,49.24249333333333,-93.42,-92.72
1732085206271786268,1732085206271500587,12,0.69,0.87,0.5,49.25500066666666,-93.98,-93.53
1732085206473477417,1732085206473281621,12,0.69,0.87,0.5,49.28001633333333,-91.34,-91.21
1732085206573634199,1732085206573452949,12,0.69,0.87,0.5,49.267508,-91.44,-92.56
1732085206673519591,1732085206673365354,12,0.69,0.87,0.5,49.25500066666667,-90.39,-91.35
1732085206773447291,1732085206773256540,12,0.69,0.87,0.5,49.229985,-91.52,-93.38
1732085206873945527,1732085206873721122,12,0.69,0.87,0.5,49.21747666666666,-92.18,-93.07
1732085206974203616,1732085206973865270,12,0.69,0.87,0.5,49.198716,-92.46,-92.46
1732085207070853062,1732085207070465564,12,0.69,0.87,0.5,49.19246233333333,-88.21,-88.4
1732085207171104920,1732085207170573711,12,0.69,0.87,0.5,49.198716,-88.88,-88.86
1732085207270936128,1732085207270464420,12,0.69,0.87,0.5,49.198716,-92.63,-92.3
1732085207573184045,1732085207573041439,12,0.69,0.87,0.5,49.217478,-90.93,-93.52
1732085207771951777,1732085207771684169,12,0.69,0.87,0.5,49.20497066666667,-91.22,-92.14
1732085207870804874,1732085207870454311,12,0.69,0.87,0.5,49.23623966666667,-89.52,-90.9
1732085207970724022,1732085207970447778,12,0.69,0.87,0.5,49.242493333333336,-92.91,-94.5
1732085208070980488,1732085208070417881,12,0.69,0.87,0.5,49.28001600000001,-89.77,-89.58
1732085208170738761,1732085208170461893,12,0.69,0.87,0.5,49.280015999999996,-91.86,-93.21
1732085208271603576,1732085208271466732,12,0.69,0.87,0.5,49.280015999999996,-90.52,-90.94
1732085208470684250,1732085208470461845,12,0.69,0.87,0.5,49.26125533333334,-91.79,-92.05
1732085208771578501,1732085208771390914,12,0.69,0.87,0.5,49.27376266666667,-91.91,-92.33
1732085208870780358,1732085208870506048,12,0.69,0.87,0.5,49.267509,-93.25,-94.31
1732085209070673250,1732085209070466041,12,0.69,0.87,0.5,49.28001633333333,-92.45,-96.32
1732085209173173830,1732085209172973155,12,0.69,0.87,0.5,49.28001633333333,-93.55,-95.61
1732085209273581767,1732085209273313760,12,0.69,0.87,0.5,49.28001633333333,-91.71,-93.17
1732085209373605085,1732085209373377323,12,0.69,0.87,0.5,49.29252333333333,-94.02,-93.67
1732085209470863631,1732085209470495700,12,0.69,0.87,0.5,49.29877666666666,-90.26,-92.71
1732085209570770580,1732085209570499181,12,0.69,0.87,0.5,49.33629933333333,-90.07,-89.86
1732085209673371714,1732085209673216819,12,0.69,0.87,0.5,49.34255433333334,-88.61,-88.52
1732085209773072696,1732085209772835731,12,0.69,0.87,0.5,49.36757,-90.31,-90.22
1732085209872911359,1732085209872761487,12,0.69,0.87,0.5,49.36757,-87.23,-87.96
1732085209973301148,1732085209973019123,12,0.69,0.87,0.5,49.380077,-87.72,-88.77
1732085210073802444,1732085210073579311,12,0.69,0.87,0.5,49.38633066666667,-87.41,-87.0
1732085210173445040,1732085210173279523,12,0.69,0.87,0.5,49.380077,-86.04,-85.52
1732085210273193195,1732085210273124933,12,0.69,0.87,0.5,49.380077,-85.82,-85.48
1732085210373898849,1732085210373669385,12,0.69,0.87,0.5,49.348807666666666,-85.87,-86.21
1732085210473303007,1732085210473098516,12,0.69,0.87,0.5,49.33629933333333,-85.71,-86.61
1732085210573514547,1732085210573309659,12,0.69,0.87,0.5,49.32379233333334,-88.28,-87.8
1732085210673501196,1732085210673225164,12,0.69,0.87,0.5,49.336301,-85.4,-84.87
1732085210773369622,1732085210773155212,12,0.69,0.87,0.5,49.34880933333333,-85.19,-86.32
1732085210873396711,1732085210873245477,12,0.69,0.87,0.5,49.34255433333334,-85.15,-87.62
1732085210973625922,1732085210973434925,12,0.69,0.87,0.5,49.33629933333333,-84.07,-83.44
1732085211073613886,1732085211073437452,12,0.69,0.87,0.5,49.323791,-84.89,-85.15
1732085211173508168,1732085211173365831,12,0.69,0.87,0.5,49.31753733333333,-84.99,-84.75
1732085211273367576,1732085211273186445,12,0.69,0.87,0.5,49.31753733333333,-84.08,-85.58
1732085211374443933,1732085211374186515,12,0.69,0.87,0.5,49.30503033333334,-85.02,-86.8
1732085211473293802,1732085211473135471,12,0.69,0.87,0.5,49.30503033333334,-84.51,-84.3
1732085211573384928,1732085211573198080,12,0.69,0.87,0.5,49.31128533333333,-84.89,-85.6
1732085211673995393,1732085211673752307,12,0.69,0.87,0.5,49.32379233333334,-83.88,-83.65
1732085211773334238,1732085211773211956,12,0.69,0.87,0.5,49.330046,-83.59,-83.49
1732085211873538404,1732085211873363256,12,0.69,0.87,0.5,49.31753733333333,-84.1,-85.2
1732085211973174293,1732085211972934961,12,0.69,0.87,0.5,49.31753733333333,-84.86,-87.21
1732085212072696816,1732085212072388172,12,0.69,0.87,0.5,49.32379233333334,-83.36,-83.31
1732085212172892121,1732085212172731399,12,0.69,0.87,0.5,49.336301,-83.85,-85.79
1732085212272995874,1732085212272713661,12,0.69,0.87,0.5,49.355063,-83.76,-83.6
1732085212372950327,1732085212372793912,12,0.69,0.87,0.5,49.355063,-83.56,-85.55
1732085212471840053,1732085212471603155,12,0.69,0.87,0.5,49.355063,-83.27,-83.07
1732085212572941567,1732085212572730302,12,0.69,0.87,0.5,49.342556,-84.6,-85.47
1732085212672700509,1732085212672434806,12,0.69,0.87,0.5,49.355063,-83.46,-83.24
1732085212773230872,1732085212772834300,12,0.69,0.87,0.5,49.36757,-85.6,-86.11
1732085212872933677,1732085212872756004,12,0.69,0.87,0.5,49.392584,-84.55,-84.25
1732085213003429554,1732085213003247022,12,0.69,0.87,0.5,49.411346,-84.32,-84.11
1732085213071862955,1732085213071575403,12,0.69,0.87,0.5,49.411346,-83.97,-84.64
1732085213172397826,1732085213172033786,12,0.69,0.87,0.5,49.411346,-84.69,-85.14
1732085213272910010,1732085213272807121,12,0.69,0.87,0.5,49.423853,-84.94,-86.56
1732085213370867424,1732085213370448827,12,0.69,0.87,0.5,49.46137566666667,-85.51,-85.13
1732085213471779190,1732085213471511363,12,0.69,0.87,0.5,49.473884,-84.37,-85.31
1732085213570982963,1732085213570539712,12,0.69,0.87,0.5,49.473884,-86.5,-88.3
1732085213672366425,1732085213671907186,12,0.69,0.87,0.5,49.461376666666666,-85.41,-86.78
1732085213772230183,1732085213771864652,12,0.69,0.87,0.5,49.473884,-86.0,-86.08
1732085213872580312,1732085213871606588,12,0.69,0.87,0.5,49.486391,-86.68,-87.87
1732085213970837890,1732085213970445632,12,0.69,0.87,0.5,49.49889833333334,-87.17,-87.07
1732085214070911346,1732085214070465564,12,0.69,0.87,0.5,49.50515166666667,-87.62,-87.8
1732085214171089311,1732085214170503854,12,0.69,0.87,0.5,49.49889833333334,-87.78,-88.62
1732085214271391408,1732085214270590782,12,0.69,0.87,0.5,49.50515166666667,-88.78,-88.61
1732085214671946728,1732085214671751022,12,0.69,0.87,0.5,49.561438,-91.31,-91.45
1732085214770599415,1732085214770441293,12,0.69,0.87,0.5,49.592707,-87.95,-89.81
1732085214872191088,1732085214871747493,12,0.69,0.87,0.5,49.605214,-88.17,-87.99
1732085214972619128,1732085214972381591,12,0.69,0.87,0.5,49.64273666666667,-85.91,-87.12
1732085215070894160,1732085215070445299,12,0.69,0.87,0.5,49.64273666666667,-86.69,-86.95
1732085215170970578,1732085215170461416,12,0.69,0.87,0.5,49.630227999999995,-86.27,-85.99
1732085215270828174,1732085215270461797,12,0.69,0.87,0.5,49.617719666666666,-86.09,-87.32
1732085215370720139,1732085215370440721,12,0.69,0.87,0.5,49.62397466666667,-84.56,-84.64
1732085215473229530,1732085215473051071,12,0.69,0.87,0.5,49.64273666666667,-84.3,-83.91
1732085215573351038,1732085215573182582,12,0.69,0.87,0.5,49.674005666666666,-84.44,-86.28
1732085215673177008,1732085215672999858,12,0.69,0.87,0.5,49.686512666666665,-84.61,-85.8
1732085215773414607,1732085215773231983,12,0.69,0.87,0.5,49.69902,-83.92,-85.07
1732085215873081924,1732085215872873067,12,0.69,0.87,0.5,49.70527366666667,-83.3,-84.2
1732085215974243707,1732085215973983526,12,0.69,0.87,0.5,49.71152733333333,-84.55,-84.01
1732085216073822727,1732085216073679685,12,0.69,0.87,0.5,49.72403566666666,-83.38,-84.84
1732085216173387762,1732085216173227071,12,0.69,0.87,0.5,49.717782,-83.31,-83.56
1732085216273280655,1732085216273149728,12,0.69,0.87,0.5,49.705275,-84.76,-85.01
1732085216373406393,1732085216373180389,12,0.69,0.87,0.5,49.686513,-86.74,-86.63
1732085216473383336,1732085216473157167,12,0.69,0.87,0.5,49.69276666666667,-84.05,-86.74
1732085216573662740,1732085216573509216,12,0.69,0.87,0.5,49.686513,-85.55,-85.62
1732085216673634278,1732085216673449516,12,0.69,0.87,0.5,49.66775233333334,-85.15,-84.77
1732085216773760499,1732085216773543834,12,0.69,0.87,0.5,49.63022966666667,-87.76,-89.33
1732085216873863503,1732085216873184442,12,0.69,0.87,0.5,49.605214,-86.47,-87.36
1732085216973340318,1732085216973224401,12,0.69,0.87,0.5,49.56769,-86.25,-86.93
1732085217074005444,1732085217073879957,12,0.69,0.87,0.5,49.54267433333334,-85.69,-86.18
1732085217173677827,1732085217173427343,12,0.69,0.87,0.5,49.50515166666667,-88.09,-88.03
1732085217273780994,1732085217273604631,12,0.69,0.87,0.5,49.486391,-86.3,-87.29
1732085217374007453,1732085217373763799,12,0.69,0.87,0.5,49.455123333333326,-88.3,-87.86
1732085217473906621,1732085217473743438,12,0.69,0.87,0.5,49.455123333333326,-89.34,-88.8
1732085217570738919,1732085217570461273,12,0.69,0.87,0.5,49.44261633333334,-89.12,-91.22
1732085217670755430,1732085217670477151,12,0.69,0.87,0.5,49.43636133333333,-89.95,-91.82
1732085217770874393,1732085217770494699,12,0.69,0.87,0.5,49.423853,-88.48,-88.36
1732085217870798617,1732085217870455741,12,0.69,0.87,0.5,49.417598,-87.53,-87.37
1732085217970782781,1732085217970483541,12,0.69,0.87,0.5,49.417598,-90.0,-90.44
1732085218070842355,1732085218070442676,12,0.69,0.87,0.5,49.417598,-90.97,-91.55
1732085218170786320,1732085218170487880,12,0.69,0.87,0.5,49.423853,-87.61,-88.27
1732085218270906694,1732085218270476579,12,0.69,0.87,0.5,49.405092333333336,-88.3,-90.6
1732085218370761182,1732085218370474576,12,0.69,0.87,0.5,49.398839,-89.66,-89.46
1732085218470851829,1732085218470482826,12,0.69,0.87,0.5,49.380077,-88.57,-89.56
1732085218570881061,1732085218570477485,12,0.69,0.87,0.5,49.40509266666667,-89.29,-90.81
1732085218670756895,1732085218670476198,12,0.69,0.87,0.5,49.398839,-88.43,-89.38
1732085218770743768,1732085218770463466,12,0.69,0.87,0.5,49.417601,-88.11,-87.5
1732085218870873592,1732085218870483636,12,0.69,0.87,0.5,49.398839,-88.26,-88.25
1732085218972800678,1732085218972587108,12,0.69,0.87,0.5,49.411346,-88.19,-87.48
1732085219072647621,1732085219072432041,12,0.69,0.87,0.5,49.392584,-88.1,-87.65
1732085219173218260,1732085219172915697,12,0.69,0.87,0.5,49.39883766666666,-89.15,-88.6
1732085219272677854,1732085219272504568,12,0.69,0.87,0.5,49.37382366666666,-88.2,-89.1
1732085219372502165,1732085219372308015,12,0.69,0.87,0.5,49.37382366666666,-87.37,-86.78
1732085219472782241,1732085219472487449,12,0.69,0.87,0.5,49.355063,-88.61,-87.94
1732085219570808731,1732085219570488929,12,0.69,0.87,0.5,49.348808,-87.35,-87.03
1732085219771859151,1732085219771640300,12,0.69,0.87,0.5,49.298777,-87.98,-88.59
1732085219870801663,1732085219870488166,12,0.69,0.87,0.5,49.24249233333333,-89.26,-89.23
1732085219970855047,1732085219970479965,12,0.69,0.87,0.5,49.192462666666664,-89.18,-89.64
1732085220070738630,1732085220070474863,12,0.69,0.87,0.5,49.14868633333333,-88.19,-87.98
1732085220171892430,1732085220171625614,12,0.69,0.87,0.5,49.10490866666667,-88.18,-89.77
1732085220272060343,1732085220271761178,12,0.69,0.87,0.5,49.048624,-87.26,-88.68
1732085220373583814,1732085220373194932,12,0.69,0.87,0.5,49.004848,-87.93,-89.44
1732085220470790188,1732085220470489025,12,0.69,0.87,0.5,48.973579,-87.2,-88.64
1732085220870776052,1732085220870442390,12,0.69,0.87,0.5,48.71091933333333,-88.08,-88.46
1732085220970986696,1732085220970496416,12,0.69,0.87,0.5,48.64838233333333,-88.48,-89.53
1732085221070939369,1732085221070492982,12,0.69,0.87,0.5,48.59209766666667,-88.82,-89.32
1732085221171105442,1732085221170495748,12,0.69,0.87,0.5,48.517051,-88.11,-87.99
1732085221270765510,1732085221270466804,12,0.69,0.87,0.5,48.46076633333333,-87.33,-87.34
1732085221373505343,1732085221373209238,12,0.69,0.87,0.5,48.37946633333333,-87.89,-88.06
1732085221473100529,1732085221472739219,12,0.69,0.87,0.5,48.30442133333333,-88.82,-89.69
1732085221573557681,1732085221573391914,12,0.69,0.87,0.5,48.216867666666666,-88.69,-89.39
1732085221672006255,1732085221671607494,12,0.69,0.87,0.5,48.166838000000006,-87.86,-88.06
1732085221772317589,1732085221771841764,12,0.69,0.87,0.5,48.08553766666666,-87.84,-88.3
1732085221872160907,1732085221871828556,12,0.69,0.87,0.5,48.022999666666664,-87.23,-87.25
1732085221971810691,1732085221971512079,12,0.69,0.87,0.5,47.92919233333333,-87.94,-89.85
1732085222072260971,1732085222071773529,12,0.69,0.87,0.5,47.854147000000005,-88.29,-89.86
1732085222171223190,1732085222170459508,12,0.69,0.87,0.5,47.760339666666674,-87.96,-89.12
1732085222270588598,1732085222270438194,12,0.69,0.87,0.5,47.679039666666675,-90.71,-92.66
1732085222370837605,1732085222370441198,12,0.69,0.87,0.5,47.58523266666666,-87.67,-87.17
1732085222470818391,1732085222470452547,12,0.69,0.87,0.5,47.491425666666665,-88.61,-89.26
1732085222571038639,1732085222570434808,12,0.69,0.87,0.5,47.40387333333333,-88.09,-87.71
1732085222670891218,1732085222670467376,12,0.69,0.87,0.5,47.316319666666665,-88.62,-89.51
1732085222771137635,1732085222770500898,12,0.69,0.87,0.5,47.235020666666664,-87.71,-90.11
1732085222870910177,1732085222870463848,12,0.69,0.87,0.5,47.13495833333334,-87.52,-87.33
1732085222970940712,1732085222970474243,12,0.69,0.87,0.5,47.047406,-87.03,-88.44
1732085223070993971,1732085223070510625,12,0.69,0.87,0.5,46.953598666666664,-87.89,-90.13
1732085223171061987,1732085223170501708,12,0.69,0.87,0.5,46.86604633333334,-87.82,-88.45
1732085223270770349,1732085223270461797,12,0.69,0.87,0.5,46.76598533333333,-87.99,-90.36
1732085223370917756,1732085223370448589,12,0.69,0.87,0.5,46.672178333333335,-88.27,-89.07
1732085223470821541,1732085223470441818,12,0.69,0.87,0.5,46.572117666666664,-88.42,-88.23
1732085223570953037,1732085223570559740,12,0.69,0.87,0.5,46.365739999999995,-86.91,-86.3
1732085223672234114,1732085223670454263,12,0.69,0.87,0.5,46.259424333333335,-88.29,-89.23
1732085223770882559,1732085223770477056,12,0.69,0.87,0.5,46.165617,-89.37,-89.18
1732085223870869261,1732085223870437860,12,0.69,0.87,0.5,46.065556333333326,-87.31,-87.91
1732085223970855274,1732085223970473051,12,0.69,0.87,0.5,45.96549566666667,-87.42,-87.14
