%time,field.stamp,field.id,field.x,field.y,field.z,field.distanceFromTag,field.rssi,field.rssi_fp
1732085150571773934,1732085150571546316,3,2.5775,-0.87,1.97,6.210032333333333,-79.89,-80.65
1732085150671781391,1732085150671681165,3,2.5775,-0.87,1.97,6.203778666666667,-79.86,-81.19
1732085150771974888,1732085150771732568,3,2.5775,-0.87,1.97,6.2225399999999995,-79.93,-80.69
1732085150872516801,1732085150872093200,3,2.5775,-0.87,1.97,6.2225399999999995,-80.07,-81.02
1732085150972057234,1732085150971875905,3,2.5775,-0.87,1.97,6.2350476666666665,-79.98,-80.85
1732085151072329236,1732085151072124719,3,2.5775,-0.87,1.97,6.241301666666666,-80.79,-80.86
1732085151173074279,1732085151172828912,3,2.5775,-0.87,1.97,6.266317,-81.16,-81.46
1732085151273098494,1732085151272979497,3,2.5775,-0.87,1.97,6.260063,-80.09,-80.9
1732085151372646356,1732085151372488975,3,2.5775,-0.87,1.97,6.260063,-80.64,-80.92
1732085151472577173,1732085151472410202,3,2.5775,-0.87,1.97,6.2350476666666665,-80.61,-80.87
1732085151872880238,1732085151872649431,3,2.5775,-0.87,1.97,6.210032333333333,-80.02,-80.69
1732085151972643470,1732085151972463130,3,2.5775,-0.87,1.97,6.197524666666666,-79.77,-80.71
1732085152073620127,1732085152073439121,3,2.5775,-0.87,1.97,6.191270666666667,-79.81,-80.79
1732085152172852649,1732085152172703981,3,2.5775,-0.87,1.97,6.210032000000001,-79.65,-80.91
1732085152273552970,1732085152273216962,3,2.5775,-0.87,1.97,6.210032000000001,-79.88,-80.44
1732085152372592761,1732085152372409343,3,2.5775,-0.87,1.97,6.203778333333333,-79.87,-80.79
1732085152472776170,1732085152472646474,3,2.5775,-0.87,1.97,6.203778333333333,-79.78,-80.93
1732085152573768802,1732085152573419332,3,2.5775,-0.87,1.97,6.203778333333333,-79.72,-81.64
1732085152672731440,1732085152672536373,3,2.5775,-0.87,1.97,6.228793666666667,-81.1,-81.22
1732085152773111234,1732085152772408008,3,2.5775,-0.87,1.97,6.2413013333333325,-79.98,-80.7
1732085152873050845,1732085152872725009,3,2.5775,-0.87,1.97,6.228794,-79.81,-80.68
1732085153003279530,1732085153003112077,3,2.5775,-0.87,1.97,6.210032333333333,-80.1,-80.85
1732085153373488346,1732085153373266696,3,2.5775,-0.87,1.97,6.216285999999999,-80.25,-81.28
1732085153472806930,1732085153472491741,3,2.5775,-0.87,1.97,6.210032000000001,-80.23,-80.99
1732085153773132653,1732085153772650718,3,2.5775,-0.87,1.97,6.210032000000001,-79.96,-80.91
1732085153872598131,1732085153872250318,3,2.5775,-0.87,1.97,6.216286,-79.59,-80.78
1732085153971982752,1732085153971683740,3,2.5775,-0.87,1.97,6.2287936666666655,-79.25,-81.13
1732085154072021988,1732085154071810483,3,2.5775,-0.87,1.97,6.2225399999999995,-79.89,-81.21
1732085154172520764,1732085154171642541,3,2.5775,-0.87,1.97,6.2225399999999995,-79.62,-80.67
1732085154273521593,1732085154273282766,3,2.5775,-0.87,1.97,6.2225399999999995,-79.77,-81.13
1732085154373288768,1732085154372990608,3,2.5775,-0.87,1.97,6.2225399999999995,-79.86,-80.91
1732085154472723985,1732085154472494363,3,2.5775,-0.87,1.97,6.216286,-80.72,-81.08
1732085154573227658,1732085154572416067,3,2.5775,-0.87,1.97,6.210032333333333,-80.9,-81.21
1732085154672696946,1732085154672543287,3,2.5775,-0.87,1.97,6.2287936666666655,-81.41,-81.32
1732085154772824021,1732085154772582054,3,2.5775,-0.87,1.97,6.2350476666666665,-80.04,-80.52
1732085154872973205,1732085154872748136,3,2.5775,-0.87,1.97,6.2287936666666655,-80.55,-80.86
1732085154972711862,1732085154972503900,3,2.5775,-0.87,1.97,6.210032333333333,-80.04,-81.09
1732085155073063973,1732085155072865486,3,2.5775,-0.87,1.97,6.197524666666666,-80.28,-81.57
1732085155172984783,1732085155172804117,3,2.5775,-0.87,1.97,6.197524666666666,-79.83,-81.0
1732085155273167859,1732085155272901773,3,2.5775,-0.87,1.97,6.210032333333333,-80.03,-80.7
1732085155372715822,1732085155372534990,3,2.5775,-0.87,1.97,6.2287936666666655,-80.82,-81.26
1732085155473083030,1732085155472930669,3,2.5775,-0.87,1.97,6.2413013333333325,-81.07,-81.32
1732085155573067236,1732085155572837352,3,2.5775,-0.87,1.97,6.228793666666667,-80.26,-81.1
1732085155672804662,1732085155672570466,3,2.5775,-0.87,1.97,6.2225399999999995,-79.61,-80.81
1732085155773496906,1732085155772850036,3,2.5775,-0.87,1.97,6.216286333333334,-80.25,-80.6
1732085155873177884,1732085155872988939,3,2.5775,-0.87,1.97,6.2350476666666665,-80.71,-80.79
1732085155972692355,1732085155972544193,3,2.5775,-0.87,1.97,6.2413013333333325,-80.09,-80.73
1732085156072987554,1732085156072774171,3,2.5775,-0.87,1.97,6.241301333333333,-79.72,-80.6
1732085156172567375,1732085156172345161,3,2.5775,-0.87,1.97,6.2287936666666655,-80.7,-81.28
1732085156272797712,1732085156272629737,3,2.5775,-0.87,1.97,6.210032333333333,-79.98,-80.78
1732085156372929263,1732085156372745990,3,2.5775,-0.87,1.97,6.228793666666667,-80.71,-81.1
1732085156472604358,1732085156472367525,3,2.5775,-0.87,1.97,6.228793666666667,-80.01,-81.07
1732085156572769807,1732085156572498798,3,2.5775,-0.87,1.97,6.235047333333334,-80.16,-80.89
1732085156672863381,1732085156672500133,3,2.5775,-0.87,1.97,6.203778333333333,-80.13,-81.43
1732085156773003401,1732085156772800445,3,2.5775,-0.87,1.97,6.203778333333333,-79.88,-80.87
1732085156873474105,1732085156872805356,3,2.5775,-0.87,1.97,6.203778333333333,-79.52,-80.86
1732085157070853588,1732085157070466518,3,2.5775,-0.87,1.97,6.210032000000001,-80.19,-80.71
1732085157471899273,1732085157471567630,3,2.5775,-0.87,1.97,6.2225399999999995,-80.37,-80.86
1732085157572124719,1732085157571800947,3,2.5775,-0.87,1.97,6.210032666666667,-79.92,-80.72
1732085157673780822,1732085157673693418,3,2.5775,-0.87,1.97,6.210032666666667,-80.52,-81.66
1732085157773589595,1732085157773444652,3,2.5775,-0.87,1.97,6.197525,-79.86,-81.08
1732085157873398067,1732085157873173475,3,2.5775,-0.87,1.97,6.216286333333334,-79.97,-80.62
1732085158004462690,1732085158004234790,3,2.5775,-0.87,1.97,6.203778666666667,-80.28,-80.85
1732085158073222477,1732085158073039293,3,2.5775,-0.87,1.97,6.203778666666667,-80.08,-80.87
1732085158173431985,1732085158173303365,3,2.5775,-0.87,1.97,6.216286333333334,-80.54,-80.89
1732085158273833481,1732085158273581504,3,2.5775,-0.87,1.97,6.210032666666667,-79.92,-80.86
1732085158373663379,1732085158373528242,3,2.5775,-0.87,1.97,6.216286333333334,-81.12,-81.31
1732085158473449600,1732085158473216295,3,2.5775,-0.87,1.97,6.185017333333334,-80.18,-81.22
1732085158670975156,1732085158670548439,3,2.5775,-0.87,1.97,6.172509666666667,-79.61,-80.67
1732085159174002768,1732085159173752784,3,2.5775,-0.87,1.97,5.991149,-79.53,-81.02
1732085159273608467,1732085159273325681,3,2.5775,-0.87,1.97,5.947372333333334,-79.17,-81.07
1732085159373032523,1732085159372755765,3,2.5775,-0.87,1.97,5.916103333333333,-79.44,-80.92
1732085159472576522,1732085159472345590,3,2.5775,-0.87,1.97,5.872326666666667,-79.55,-81.64
1732085159570714568,1732085159570472717,3,2.5775,-0.87,1.97,5.822296333333334,-79.74,-80.86
1732085159671732121,1732085159671436548,3,2.5775,-0.87,1.97,5.766012,-79.69,-80.67
1732085159772350895,1732085159771973133,3,2.5775,-0.87,1.97,5.703474,-79.79,-80.89
1732085159871642252,1732085159871452331,3,2.5775,-0.87,1.97,5.634682000000001,-79.9,-80.98
1732085159971795705,1732085159971561431,3,2.5775,-0.87,1.97,5.5909053333333345,-79.57,-80.49
1732085160071819690,1732085160071620702,3,2.5775,-0.87,1.97,5.547128666666667,-79.56,-80.65
1732085160170863445,1732085160170505046,3,2.5775,-0.87,1.97,5.497098,-79.55,-80.96
1732085160271141503,1732085160270514965,3,2.5775,-0.87,1.97,5.440813666666667,-79.3,-80.51
1732085160370846688,1732085160370453596,3,2.5775,-0.87,1.97,5.378275666666667,-79.16,-80.74
1732085160471033390,1732085160470487117,3,2.5775,-0.87,1.97,5.315737666666667,-79.57,-81.03
1732085160571131611,1732085160570453643,3,2.5775,-0.87,1.97,5.246946,-80.03,-80.95
1732085160670745554,1732085160670399427,3,2.5775,-0.87,1.97,5.203169333333332,-79.52,-80.49
1732085160770848722,1732085160770466327,3,2.5775,-0.87,1.97,5.134377333333334,-79.8,-81.12
1732085160870686151,1732085160870481014,3,2.5775,-0.87,1.97,5.071839000000001,-79.26,-81.18
1732085160970888655,1732085160970504283,3,2.5775,-0.87,1.97,4.984285666666666,-79.47,-80.86
1732085161070790887,1732085161070479869,3,2.5775,-0.87,1.97,4.921747666666667,-79.29,-80.61
1732085161170711771,1732085161170506715,3,2.5775,-0.87,1.97,4.852956,-79.18,-80.64
1732085161271030562,1732085161270492315,3,2.5775,-0.87,1.97,4.790418,-79.79,-80.97
1732085161374135541,1732085161373888492,3,2.5775,-0.87,1.97,4.734134,-79.66,-80.48
1732085161473605385,1732085161473479270,3,2.5775,-0.87,1.97,4.665342,-79.39,-81.01
1732085161573487744,1732085161573322057,3,2.5775,-0.87,1.97,4.609057666666667,-79.13,-80.43
1732085161673307025,1732085161673085689,3,2.5775,-0.87,1.97,4.546519333333333,-78.93,-80.8
1732085161773647181,1732085161773528814,3,2.5775,-0.87,1.97,4.483981333333333,-79.24,-81.25
1732085161874142544,1732085161873820066,3,2.5775,-0.87,1.97,4.408935666666667,-79.04,-80.57
1732085161972972376,1732085161972802400,3,2.5775,-0.87,1.97,4.358905333333333,-79.4,-81.03
1732085162073239269,1732085162072813510,3,2.5775,-0.87,1.97,4.308874666666667,-78.99,-80.59
1732085162172855456,1732085162172603368,3,2.5775,-0.87,1.97,4.271351666666667,-78.8,-80.55
1732085162272891991,1732085162272632837,3,2.5775,-0.87,1.97,4.227575,-79.03,-80.96
1732085162373056210,1732085162372920989,3,2.5775,-0.87,1.97,4.177544666666667,-79.07,-81.27
1732085162472654533,1732085162472489118,3,2.5775,-0.87,1.97,4.115006666666667,-78.95,-80.45
1732085162573785659,1732085162573558568,3,2.5775,-0.87,1.97,4.046214666666667,-79.14,-80.37
1732085162672721877,1732085162672481536,3,2.5775,-0.87,1.97,4.002438,-79.27,-80.48
1732085162873202410,1732085162872981786,3,2.5775,-0.87,1.97,3.946153666666666,-79.2,-80.58
1732085163270914336,1732085163270479202,3,2.5775,-0.87,1.97,3.7335240000000005,-79.82,-80.77
1732085163371022170,1732085163370460271,3,2.5775,-0.87,1.97,3.7272703333333332,-79.28,-80.47
1732085163473499465,1732085163473234653,3,2.5775,-0.87,1.97,3.6960013333333337,-79.35,-80.76
1732085163574181909,1732085163573907852,3,2.5775,-0.87,1.97,3.6709860000000005,-79.41,-81.6
1732085163673892189,1732085163673703908,3,2.5775,-0.87,1.97,3.658478333333333,-78.93,-80.6
1732085163774183512,1732085163773935556,3,2.5775,-0.87,1.97,3.6772396666666665,-78.93,-80.57
1732085163873283287,1732085163873173236,3,2.5775,-0.87,1.97,3.6709860000000005,-78.76,-80.54
1732085163973549655,1732085163973375797,3,2.5775,-0.87,1.97,3.6584783333333335,-79.26,-81.05
1732085164074026961,1732085164073573827,3,2.5775,-0.87,1.97,3.627209333333333,-78.86,-80.54
1732085164173331616,1732085164173142671,3,2.5775,-0.87,1.97,3.6147016666666665,-78.91,-80.51
1732085164370739596,1732085164370471954,3,2.5775,-0.87,1.97,3.5896863333333333,-79.13,-80.6
1732085165073573926,1732085165073358535,3,2.5775,-0.87,1.97,3.6021940000000003,-79.32,-80.52
1732085165173516007,1732085165173251152,3,2.5775,-0.87,1.97,3.6397166666666663,-79.4,-80.65
1732085165270812180,1732085165270461082,3,2.5775,-0.87,1.97,3.6772396666666665,-79.2,-80.78
1732085165370918397,1732085165370524406,3,2.5775,-0.87,1.97,3.6897473333333335,-79.02,-80.41
1732085165470783911,1732085165470461130,3,2.5775,-0.87,1.97,3.708508666666667,-79.14,-80.65
1732085165572007722,1732085165571774005,3,2.5775,-0.87,1.97,3.7147623333333333,-79.05,-80.53
1732085165671907129,1732085165671690464,3,2.5775,-0.87,1.97,3.7647929999999996,-79.39,-80.86
1732085165771843913,1732085165771623611,3,2.5775,-0.87,1.97,3.80857,-79.09,-80.85
1732085165871725799,1732085165871488809,3,2.5775,-0.87,1.97,3.864854333333333,-79.41,-81.08
1732085165972024145,1732085165971695423,3,2.5775,-0.87,1.97,3.8898696666666663,-79.49,-80.74
1732085166071889243,1732085166071599006,3,2.5775,-0.87,1.97,3.914884666666667,-79.53,-80.39
1732085166172095069,1732085166171700239,3,2.5775,-0.87,1.97,3.958661333333333,-79.56,-80.95
1732085166271951062,1732085166271682024,3,2.5775,-0.87,1.97,4.0399606666666665,-78.91,-80.68
1732085166371805471,1732085166371582984,3,2.5775,-0.87,1.97,4.108752666666667,-78.78,-80.5
1732085166471885749,1732085166471570730,3,2.5775,-0.87,1.97,4.171290666666667,-78.9,-80.46
1732085166572455081,1732085166572223901,3,2.5775,-0.87,1.97,4.215067333333333,-79.03,-80.51
1732085166672049317,1732085166671756029,3,2.5775,-0.87,1.97,4.252590333333333,-79.42,-80.49
1732085166772228409,1732085166771924018,3,2.5775,-0.87,1.97,4.315128666666666,-78.95,-81.03
1732085166871962387,1732085166871579408,3,2.5775,-0.87,1.97,4.3714129999999995,-79.17,-80.98
1732085166971769668,1732085166971580505,3,2.5775,-0.87,1.97,4.458966333333333,-78.95,-80.54
1732085167072054861,1732085167071748018,3,2.5775,-0.87,1.97,4.496489,-79.83,-80.99
1732085167271663965,1732085167271534919,3,2.5775,-0.87,1.97,4.59655,-79.41,-80.84
1732085167370874226,1732085167370442390,3,2.5775,-0.87,1.97,4.690357,-78.78,-81.03
1732085167470867411,1732085167470461845,3,2.5775,-0.87,1.97,4.815433333333334,-79.03,-80.58
1732085167570840798,1732085167570441961,3,2.5775,-0.87,1.97,4.877971333333334,-79.35,-80.91
1732085167670869807,1732085167670463323,3,2.5775,-0.87,1.97,4.946763,-79.4,-80.71
1732085167770688057,1732085167770457029,3,2.5775,-0.87,1.97,5.028062333333334,-78.66,-80.67
1732085167870829312,1732085167870461225,3,2.5775,-0.87,1.97,5.134377000000001,-79.2,-81.0
1732085167970884037,1732085167970448732,3,2.5775,-0.87,1.97,5.228184333333334,-78.91,-81.29
1732085168070992587,1732085168070456027,3,2.5775,-0.87,1.97,5.296976333333333,-78.87,-80.51
1732085168170654171,1732085168170459032,3,2.5775,-0.87,1.97,5.359514333333333,-79.38,-80.99
1732085168270775472,1732085168270453929,3,2.5775,-0.87,1.97,5.465828999999999,-79.41,-80.94
1732085168370975009,1732085168370436429,3,2.5775,-0.87,1.97,5.5658900000000004,-79.18,-80.84
1732085168471119136,1732085168470468282,3,2.5775,-0.87,1.97,5.678458666666667,-80.13,-80.61
1732085168571986418,1732085168571610689,3,2.5775,-0.87,1.97,5.734742999999999,-79.43,-80.39
1732085168772090301,1732085168771682500,3,2.5775,-0.87,1.97,5.847311333333333,-79.04,-80.78
1732085169172035650,1732085169171643018,3,2.5775,-0.87,1.97,6.297586,-79.33,-80.4
1732085169273718231,1732085169273576021,3,2.5775,-0.87,1.97,6.378885333333334,-79.08,-80.93
1732085169373762253,1732085169373639583,3,2.5775,-0.87,1.97,6.466438666666666,-79.0,-80.95
1732085169473412373,1732085169473224401,3,2.5775,-0.87,1.97,6.572753333333334,-79.11,-81.13
1732085169573793559,1732085169573567390,3,2.5775,-0.87,1.97,6.685321999999999,-79.01,-81.17
1732085169673119813,1732085169672980070,3,2.5775,-0.87,1.97,6.791636666666666,-79.09,-81.26
1732085169774316139,1732085169774159669,3,2.5775,-0.87,1.97,6.87919,-79.29,-80.94
1732085169873515390,1732085169873326778,3,2.5775,-0.87,1.97,6.960489333333334,-79.28,-80.96
1732085169972213747,1732085169972017049,3,2.5775,-0.87,1.97,7.0730580000000005,-79.46,-80.57
1732085170272627490,1732085170272433757,3,2.5775,-0.87,1.97,7.248164666666668,-79.22,-83.93
1732085170470841409,1732085170470447540,3,2.5775,-0.87,1.97,7.4482870000000005,-79.03,-81.85
1732085171171899761,1732085171171697378,3,2.5775,-0.87,1.97,8.267536,-80.05,-81.13
1732085171274286689,1732085171274048328,3,2.5775,-0.87,1.97,8.373851,-79.99,-80.89
1732085171371204173,1732085171370467424,3,2.5775,-0.87,1.97,8.480166000000002,-79.88,-80.99
1732085171471819842,1732085171471667528,3,2.5775,-0.87,1.97,8.580226666666666,-79.91,-80.91
1732085171572161391,1732085171571941852,3,2.5775,-0.87,1.97,8.692795333333335,-80.3,-80.79
1732085171672019079,1732085171671684980,3,2.5775,-0.87,1.97,8.811617666666667,-80.06,-80.89
1732085171771961113,1732085171771767616,3,2.5775,-0.87,1.97,8.936694,-79.85,-80.57
1732085171871880425,1732085171871672630,3,2.5775,-0.87,1.97,9.049262333333333,-79.75,-80.89
1732085171972084378,1732085171971775770,3,2.5775,-0.87,1.97,9.149323333333333,-80.4,-81.4
1732085172072319194,1732085172071833848,3,2.5775,-0.87,1.97,9.243130666666666,-80.03,-81.94
1732085172171934163,1732085172171656370,3,2.5775,-0.87,1.97,9.355699333333334,-80.06,-81.05
1732085172271933773,1732085172271559715,3,2.5775,-0.87,1.97,9.468267666666668,-80.58,-81.17
1732085172372230301,1732085172371964216,3,2.5775,-0.87,1.97,9.58709,-80.45,-81.37
1732085172471980280,1732085172471634149,3,2.5775,-0.87,1.97,9.687151,-80.52,-81.37
1732085172571826727,1732085172571652650,3,2.5775,-0.87,1.97,9.812227333333333,-80.01,-80.55
1732085172672060040,1732085172671718835,3,2.5775,-0.87,1.97,9.937303333333334,-79.99,-80.76
1732085172772232924,1732085172771831750,3,2.5775,-0.87,1.97,10.056125333333334,-80.63,-80.67
1732085172871885897,1732085172871781587,3,2.5775,-0.87,1.97,10.168694,-80.42,-80.68
1732085173002322356,1732085173002055168,3,2.5775,-0.87,1.97,10.256247333333333,-80.03,-80.53
1732085173072137244,1732085173071701765,3,2.5775,-0.87,1.97,10.362562333333335,-80.15,-81.27
1732085173171911990,1732085173171675205,3,2.5775,-0.87,1.97,10.456369666666667,-80.58,-81.18
1732085173272293760,1732085173272020578,3,2.5775,-0.87,1.97,10.562684666666668,-80.8,-81.44
1732085173372111036,1732085173371761322,3,2.5775,-0.87,1.97,10.675253333333336,-80.56,-81.21
1732085173472188825,1732085173472002506,3,2.5775,-0.87,1.97,10.794075333333334,-81.0,-81.44
1732085173572919655,1732085173571793317,3,2.5775,-0.87,1.97,10.925405,-81.45,-81.99
1732085173672221618,1732085173671975612,3,2.5775,-0.87,1.97,11.037973666666666,-81.08,-81.53
1732085173771935922,1732085173771611690,3,2.5775,-0.87,1.97,11.150542333333334,-81.28,-81.45
1732085173873180657,1732085173872927665,3,2.5775,-0.87,1.97,11.250603333333332,-80.41,-81.36
1732085173972874615,1732085173972705364,3,2.5775,-0.87,1.97,11.381932999999998,-80.2,-80.64
1732085174072656247,1732085174072479963,3,2.5775,-0.87,1.97,11.500755333333332,-80.38,-81.0
1732085174172846480,1732085174172581195,3,2.5775,-0.87,1.97,11.625831666666665,-80.52,-81.01
1732085174273737048,1732085174273284673,3,2.5775,-0.87,1.97,11.713385,-80.12,-80.63
1732085174372722757,1732085174372412204,3,2.5775,-0.87,1.97,11.813445999999999,-80.67,-81.1
1732085174473074244,1732085174472896814,3,2.5775,-0.87,1.97,11.926014333333333,-81.45,-81.7
1732085174572621106,1732085174572432041,3,2.5775,-0.87,1.97,12.044836666666669,-80.94,-81.26
1732085174673181134,1732085174673006534,3,2.5775,-0.87,1.97,12.144897333333335,-80.92,-81.41
1732085174772495465,1732085174772330045,3,2.5775,-0.87,1.97,12.238704666666665,-81.21,-82.32
1732085174873087010,1732085174872858285,3,2.5775,-0.87,1.97,12.351273333333333,-82.1,-83.05
1732085174972953554,1732085174972681760,3,2.5775,-0.87,1.97,12.476349666666666,-81.79,-84.42
1732085175073780112,1732085175073453664,3,2.5775,-0.87,1.97,12.576410333333333,-81.65,-82.24
1732085175270814386,1732085175270494461,3,2.5775,-0.87,1.97,12.720247999999998,-81.68,-82.63
1732085175370842371,1732085175370480060,3,2.5775,-0.87,1.97,12.857831666666668,-81.14,-81.77
1732085175470857861,1732085175470511674,3,2.5775,-0.87,1.97,13.026685,-81.12,-81.18
1732085175570843109,1732085175570469856,3,2.5775,-0.87,1.97,13.139253333333334,-80.89,-80.89
1732085175670798158,1732085175670473575,3,2.5775,-0.87,1.97,13.251821999999999,-80.67,-80.93
1732085175770788710,1732085175770488500,3,2.5775,-0.87,1.97,13.370644,-80.81,-81.51
1732085175872915250,1732085175872547626,3,2.5775,-0.87,1.97,13.533243333333333,-84.0,-83.94
1732085175973415515,1732085175973212718,3,2.5775,-0.87,1.97,13.652065666666667,-80.71,-80.93
1732085176170896256,1732085176170498609,3,2.5775,-0.87,1.97,13.795903333333333,-80.37,-80.69
1732085176672054600,1732085176671660661,3,2.5775,-0.87,1.97,14.402522333333332,-81.08,-81.55
1732085176772766716,1732085176772678375,3,2.5775,-0.87,1.97,14.515090999999998,-81.52,-82.39
1732085176870633687,1732085176870455026,3,2.5775,-0.87,1.97,14.652675333333333,-82.06,-82.6
1732085176970934266,1732085176970441102,3,2.5775,-0.87,1.97,14.758990333333335,-82.52,-85.45
1732085177072155546,1732085177071956157,3,2.5775,-0.87,1.97,14.859051333333333,-82.17,-84.4
1732085177172927801,1732085177172660827,3,2.5775,-0.87,1.97,14.959112,-83.17,-86.3
1732085177273426657,1732085177273156881,3,2.5775,-0.87,1.97,15.084188,-84.15,-85.93
1732085177372702517,1732085177372514009,3,2.5775,-0.87,1.97,15.215517666666665,-82.03,-83.04
1732085177473795861,1732085177473478317,3,2.5775,-0.87,1.97,15.340594000000001,-81.9,-82.52
1732085177573045168,1732085177572837114,3,2.5775,-0.87,1.97,15.453163000000002,-81.65,-83.2
1732085177673540259,1732085177673398733,3,2.5775,-0.87,1.97,15.571985666666668,-81.79,-82.27
1732085177772631353,1732085177772553205,3,2.5775,-0.87,1.97,15.690807999999999,-81.98,-82.4
1732085177872887444,1732085177872640609,3,2.5775,-0.87,1.97,15.803376333333334,-81.2,-81.98
1732085178003580567,1732085178003328800,3,2.5775,-0.87,1.97,15.947213333333332,-81.74,-81.71
1732085178072740177,1732085178072531223,3,2.5775,-0.87,1.97,16.059781666666666,-81.53,-81.49
1732085178172831469,1732085178172716140,3,2.5775,-0.87,1.97,16.178603666666667,-80.98,-81.56
1732085178273233361,1732085178273092746,3,2.5775,-0.87,1.97,16.253649666666668,-80.6,-80.92
1732085178373362061,1732085178373073339,3,2.5775,-0.87,1.97,16.366218,-81.17,-81.36
1732085178473138905,1732085178472910165,3,2.5775,-0.87,1.97,16.472533000000002,-80.64,-81.44
1732085178573163788,1732085178572829008,3,2.5775,-0.87,1.97,16.58510166666667,-80.79,-80.85
1732085178672767069,1732085178672483444,3,2.5775,-0.87,1.97,16.703923999999997,-80.67,-81.17
1732085178773055536,1732085178772850751,3,2.5775,-0.87,1.97,16.828999999999997,-80.8,-80.85
1732085178872863574,1732085178872537612,3,2.5775,-0.87,1.97,16.954076333333333,-81.77,-81.57
1732085178971075417,1732085178970486879,3,2.5775,-0.87,1.97,17.054137666666666,-80.81,-80.92
1732085179070921075,1732085179070485353,3,2.5775,-0.87,1.97,17.15419866666667,-81.09,-81.59
1732085179172115504,1732085179171778678,3,2.5775,-0.87,1.97,17.266766999999998,-81.2,-81.35
1732085179271997574,1732085179271716594,3,2.5775,-0.87,1.97,17.379335666666666,-81.51,-81.78
1732085179372298484,1732085179371999740,3,2.5775,-0.87,1.97,17.48565066666667,-81.02,-81.04
1732085179471739135,1732085179471518516,3,2.5775,-0.87,1.97,17.604473,-81.44,-81.43
1732085179571875544,1732085179571617603,3,2.5775,-0.87,1.97,17.735802666666668,-81.5,-81.33
1732085179671853591,1732085179671557188,3,2.5775,-0.87,1.97,17.867132333333334,-82.29,-81.96
1732085179773538304,1732085179773303508,3,2.5775,-0.87,1.97,17.985955,-83.79,-83.76
1732085179873176251,1732085179872964620,3,2.5775,-0.87,1.97,18.079762333333335,-82.45,-82.54
1732085179973846094,1732085179973581552,3,2.5775,-0.87,1.97,18.186077333333333,-82.76,-84.41
1732085180073413444,1732085180073239326,3,2.5775,-0.87,1.97,18.273630333333333,-83.68,-83.67
1732085180173591308,1732085180173388481,3,2.5775,-0.87,1.97,18.379944666666667,-85.73,-85.83
1732085180273173599,1732085180272938966,3,2.5775,-0.87,1.97,18.486259,-84.38,-84.71
1732085180373237911,1732085180373144865,3,2.5775,-0.87,1.97,18.605081666666667,-84.66,-84.39
1732085180473384566,1732085180473248720,3,2.5775,-0.87,1.97,18.717650000000003,-85.81,-88.1
1732085180574135089,1732085180573955059,3,2.5775,-0.87,1.97,18.823965,-86.22,-87.73
1732085180672723187,1732085180672506809,3,2.5775,-0.87,1.97,18.930279333333335,-86.26,-88.95
1732085180772808697,1732085180772548437,3,2.5775,-0.87,1.97,19.042848666666668,-85.17,-85.61
1732085180872617508,1732085180872404575,3,2.5775,-0.87,1.97,19.16167066666667,-84.98,-85.97
1732085180973111427,1732085180972811698,3,2.5775,-0.87,1.97,19.29925466666667,-85.1,-86.85
1732085181172516618,1732085181172327756,3,2.5775,-0.87,1.97,19.486868333333334,-85.43,-85.47
1732085181571239266,1732085181570515632,3,2.5775,-0.87,1.97,20.068473333333333,-84.03,-83.39
1732085181773209685,1732085181773022651,3,2.5775,-0.87,1.97,20.243579999999998,-82.06,-81.63
1732085181870822860,1732085181870458602,3,2.5775,-0.87,1.97,20.387417666666668,-81.73,-81.53
1732085181971007802,1732085181970457553,3,2.5775,-0.87,1.97,20.531255333333334,-81.96,-81.49
1732085182070835300,1732085182070507049,3,2.5775,-0.87,1.97,20.637569666666668,-82.62,-82.2
1732085182170745872,1732085182170455455,3,2.5775,-0.87,1.97,20.74388466666667,-81.37,-81.06
1732085182270653181,1732085182270460844,3,2.5775,-0.87,1.97,20.875214333333336,-81.27,-81.75
1732085182372831411,1732085182372750997,3,2.5775,-0.87,1.97,20.98152933333333,-82.25,-81.98
1732085182473505677,1732085182473239183,3,2.5775,-0.87,1.97,21.094097666666666,-82.09,-81.69
1732085182570652907,1732085182570516109,3,2.5775,-0.87,1.97,21.194158333333334,-81.76,-81.59
1732085182670947705,1732085182670458316,3,2.5775,-0.87,1.97,21.306727,-80.96,-80.86
1732085182770944867,1732085182770483970,3,2.5775,-0.87,1.97,21.413042,-81.53,-81.48
1732085182870877384,1732085182870455265,3,2.5775,-0.87,1.97,21.538118333333333,-81.38,-81.15
1732085182971049360,1732085182970498561,3,2.5775,-0.87,1.97,21.63192566666667,-81.13,-81.3
1732085183070782838,1732085183070442914,3,2.5775,-0.87,1.97,21.757002,-81.24,-81.06
1732085183170907008,1732085183170471668,3,2.5775,-0.87,1.97,21.85080933333333,-80.82,-81.39
1732085183271019015,1732085183270473957,3,2.5775,-0.87,1.97,21.982139,-81.32,-80.98
1732085183371053898,1732085183370467424,3,2.5775,-0.87,1.97,22.082199666666668,-81.11,-80.92
1732085183470745811,1732085183470479726,3,2.5775,-0.87,1.97,22.194768333333332,-80.97,-81.34
1732085183573550897,1732085183573395729,3,2.5775,-0.87,1.97,22.301083333333334,-80.86,-80.96
1732085183673260668,1732085183673114538,3,2.5775,-0.87,1.97,22.413652000000003,-80.94,-80.88
1732085183773691924,1732085183773497343,3,2.5775,-0.87,1.97,22.54498166666667,-81.55,-82.2
1732085183873824126,1732085183873573780,3,2.5775,-0.87,1.97,22.695073000000004,-81.22,-82.53
1732085183973455028,1732085183973192453,3,2.5775,-0.87,1.97,22.832657,-80.77,-81.13
1732085184073724543,1732085184073513507,3,2.5775,-0.87,1.97,22.94522566666667,-82.74,-83.0
1732085184173605350,1732085184173333406,3,2.5775,-0.87,1.97,23.02027133333333,-81.52,-81.63
1732085184273696540,1732085184273477792,3,2.5775,-0.87,1.97,23.126585666666667,-81.73,-81.74
1732085184373284736,1732085184373134136,3,2.5775,-0.87,1.97,23.245408333333334,-81.83,-83.49
1732085184473720279,1732085184473573923,3,2.5775,-0.87,1.97,23.370484,-83.16,-83.54
1732085184872991008,1732085184872783899,3,2.5775,-0.87,1.97,23.76447433333333,-82.8,-82.76
1732085184973010156,1732085184972823143,3,2.5775,-0.87,1.97,23.877043,-82.56,-82.56
1732085185072780712,1732085185072615623,3,2.5775,-0.87,1.97,24.002118999999997,-84.44,-84.06
1732085185172344108,1732085185172183990,3,2.5775,-0.87,1.97,24.139702999999997,-82.15,-81.88
1732085185273683435,1732085185273468971,3,2.5775,-0.87,1.97,24.264779333333337,-82.2,-82.43
1732085185373462990,1732085185373367547,3,2.5775,-0.87,1.97,24.389855,-82.32,-82.15
1732085185473297106,1732085185473133563,3,2.5775,-0.87,1.97,24.514931333333333,-83.23,-82.86
1732085185575106472,1732085185573424816,3,2.5775,-0.87,1.97,24.640007,-83.06,-82.82
1732085185673343234,1732085185673188209,3,2.5775,-0.87,1.97,24.75257566666667,-82.66,-86.3
1732085185773087645,1732085185772866964,3,2.5775,-0.87,1.97,24.871398,-83.47,-85.91
1732085185873715404,1732085185873341321,3,2.5775,-0.87,1.97,24.971459333333332,-84.21,-85.62
1732085185973652409,1732085185973449230,3,2.5775,-0.87,1.97,25.077774333333334,-84.2,-85.32
1732085186073614161,1732085186073486804,3,2.5775,-0.87,1.97,25.165328,-84.54,-84.74
1732085186173431229,1732085186173208236,3,2.5775,-0.87,1.97,25.28415,-84.79,-85.08
1732085186272948379,1732085186272789478,3,2.5775,-0.87,1.97,25.40297266666667,-86.01,-86.8
1732085186373518056,1732085186373319625,3,2.5775,-0.87,1.97,25.52804833333333,-85.69,-86.69
1732085186770920713,1732085186770454645,3,2.5775,-0.87,1.97,25.947053333333333,-85.1,-88.77
1732085186870595891,1732085186870462894,3,2.5775,-0.87,1.97,26.05336766666667,-86.41,-90.16
1732085186970872462,1732085186970447301,3,2.5775,-0.87,1.97,26.16593633333333,-86.28,-92.37
1732085187070716029,1732085187070452451,3,2.5775,-0.87,1.97,26.265997999999996,-87.16,-89.6
1732085187171080789,1732085187170459747,3,2.5775,-0.87,1.97,26.378566333333335,-86.52,-92.19
1732085187270910564,1732085187270451784,3,2.5775,-0.87,1.97,26.497389,-86.34,-91.82
1732085187370800255,1732085187370465517,3,2.5775,-0.87,1.97,26.622465000000002,-86.23,-92.11
1732085187670638344,1732085187670462608,3,2.5775,-0.87,1.97,26.82258733333333,-86.39,-89.36
1732085187770835881,1732085187770472526,3,2.5775,-0.87,1.97,27.028963333333333,-85.63,-87.53
1732085187870919362,1732085187870500564,3,2.5775,-0.87,1.97,27.216577333333333,-85.89,-87.56
1732085187971261952,1732085187970467090,3,2.5775,-0.87,1.97,27.360415,-84.6,-85.92
1732085188070811243,1732085188070524454,3,2.5775,-0.87,1.97,27.491744666666666,-84.02,-86.15
1732085188170812134,1732085188170453786,3,2.5775,-0.87,1.97,27.629328666666666,-84.06,-85.52
1732085188274030690,1732085188273648023,3,2.5775,-0.87,1.97,27.741896999999998,-83.41,-85.1
1732085188371058665,1732085188370475530,3,2.5775,-0.87,1.97,27.860719,-83.24,-85.23
1732085188470884548,1732085188470461130,3,2.5775,-0.87,1.97,28.004556666666662,-84.95,-86.31
1732085188571019614,1732085188570457696,3,2.5775,-0.87,1.97,28.123378666666667,-83.55,-83.64
1732085188673276466,1732085188673134326,3,2.5775,-0.87,1.97,28.223439666666664,-83.62,-84.61
1732085188774190959,1732085188773974418,3,2.5775,-0.87,1.97,28.32350033333333,-83.59,-85.49
1732085188873610377,1732085188873466014,3,2.5775,-0.87,1.97,28.442323333333334,-86.46,-88.31
1732085188973784843,1732085188973609685,3,2.5775,-0.87,1.97,28.57365366666667,-82.83,-84.67
1732085189074494712,1732085189074281930,3,2.5775,-0.87,1.97,28.711237666666666,-82.53,-82.21
1732085189173625507,1732085189173405647,3,2.5775,-0.87,1.97,28.823806,-82.43,-82.57
1732085189274813822,1732085189274621963,3,2.5775,-0.87,1.97,28.948881666666665,-83.27,-85.26
1732085189373775376,1732085189373529672,3,2.5775,-0.87,1.97,29.048942666666665,-82.7,-83.99
1732085189474555397,1732085189474223613,3,2.5775,-0.87,1.97,29.167765,-84.78,-84.86
1732085189573821696,1732085189573518514,3,2.5775,-0.87,1.97,29.261572333333334,-82.51,-83.0
1732085189673382794,1732085189673144578,3,2.5775,-0.87,1.97,29.374140666666666,-82.86,-82.6
1732085189874267491,1732085189873637437,3,2.5775,-0.87,1.97,29.474202000000002,-82.41,-82.76
1732085189974328290,1732085189974031686,3,2.5775,-0.87,1.97,29.599278333333334,-82.06,-83.02
1732085190073669619,1732085190073423624,3,2.5775,-0.87,1.97,29.69933933333333,-81.9,-82.56
1732085190174136980,1732085190174006223,3,2.5775,-0.87,1.97,29.811907666666666,-81.81,-81.5
1732085190273000359,1732085190272853851,3,2.5775,-0.87,1.97,29.924476,-83.29,-83.59
1732085190673181277,1732085190672741413,3,2.5775,-0.87,1.97,30.406019999999998,-81.61,-81.95
1732085190772829163,1732085190772258281,3,2.5775,-0.87,1.97,30.524842333333336,-82.84,-82.6
1732085190872311205,1732085190871990680,3,2.5775,-0.87,1.97,30.637410666666664,-82.03,-82.17
1732085190972884081,1732085190972820997,3,2.5775,-0.87,1.97,30.762487000000004,-81.16,-81.48
1732085191072377509,1732085191072166204,3,2.5775,-0.87,1.97,30.875055333333336,-81.56,-81.52
1732085191171182469,1732085191170495986,3,2.5775,-0.87,1.97,30.975116,-81.57,-81.44
1732085191270898300,1732085191270485877,3,2.5775,-0.87,1.97,31.087684666666664,-82.39,-82.72
1732085191371076147,1732085191370572090,3,2.5775,-0.87,1.97,31.212761,-81.45,-81.44
1732085191471407826,1732085191470602512,3,2.5775,-0.87,1.97,31.337837333333336,-81.68,-81.49
1732085191570796199,1732085191570494890,3,2.5775,-0.87,1.97,31.444152333333335,-81.33,-81.59
1732085191670770118,1732085191670458555,3,2.5775,-0.87,1.97,31.562974333333333,-81.43,-81.27
1732085191771687068,1732085191771514415,3,2.5775,-0.87,1.97,31.681796666666667,-81.81,-83.35
1732085191972678284,1732085191972426891,3,2.5775,-0.87,1.97,31.863157333333334,-82.75,-84.1
1732085192372566156,1732085192372343301,3,2.5775,-0.87,1.97,32.36346133333333,-82.75,-82.7
1732085192474014648,1732085192473698616,3,2.5775,-0.87,1.97,32.476029000000004,-83.3,-83.15
1732085192571566226,1732085192571309089,3,2.5775,-0.87,1.97,32.60110533333333,-83.14,-83.6
1732085192671987509,1732085192671583175,3,2.5775,-0.87,1.97,32.744943666666664,-82.13,-81.97
1732085192771901273,1732085192771723508,3,2.5775,-0.87,1.97,32.86376666666666,-82.15,-81.93
1732085192872236861,1732085192871723890,3,2.5775,-0.87,1.97,32.97008233333333,-82.29,-82.6
1732085192999296132,1732085192999086618,3,2.5775,-0.87,1.97,33.070143,-82.64,-84.41
1732085193072308343,1732085193071726083,3,2.5775,-0.87,1.97,33.20147266666667,-83.7,-86.15
1732085193171970351,1732085193171717166,3,2.5775,-0.87,1.97,33.326549,-82.37,-82.25
1732085193272051615,1732085193271661758,3,2.5775,-0.87,1.97,33.43911833333333,-83.11,-83.64
1732085193372708175,1732085193372287511,3,2.5775,-0.87,1.97,33.54543266666666,-82.8,-83.94
1732085193472436080,1732085193472057819,3,2.5775,-0.87,1.97,33.670508999999996,-84.56,-83.93
1732085193572177101,1732085193571855068,3,2.5775,-0.87,1.97,33.80183866666667,-83.24,-82.85
1732085193672056771,1732085193671747922,3,2.5775,-0.87,1.97,33.908154333333336,-85.54,-87.76
1732085193772064977,1732085193771784543,3,2.5775,-0.87,1.97,34.014468666666666,-83.45,-82.97
1732085193871984550,1732085193871761560,3,2.5775,-0.87,1.97,34.120783,-84.12,-83.63
1732085193972262961,1732085193971890211,3,2.5775,-0.87,1.97,34.233351,-83.89,-85.18
1732085194071808302,1732085194071626663,3,2.5775,-0.87,1.97,34.34591866666667,-85.02,-86.38
1732085194171886659,1732085194171665191,3,2.5775,-0.87,1.97,34.45223333333333,-86.61,-86.77
1732085194272195501,1732085194271761655,3,2.5775,-0.87,1.97,34.596071333333335,-85.61,-86.57
1732085194372772779,1732085194372621059,3,2.5775,-0.87,1.97,34.72740266666667,-85.37,-86.59
1732085194472879703,1732085194472648620,3,2.5775,-0.87,1.97,34.84622533333334,-85.44,-86.63
1732085194572723959,1732085194572518587,3,2.5775,-0.87,1.97,34.94628633333334,-86.16,-86.45
1732085194673240587,1732085194672958612,3,2.5775,-0.87,1.97,35.05260066666667,-87.93,-88.48
1732085194773042113,1732085194772725105,3,2.5775,-0.87,1.97,35.158915,-85.98,-86.35
1732085194873166971,1732085194872840166,3,2.5775,-0.87,1.97,35.271482666666664,-85.45,-85.6
1732085194972744861,1732085194972556114,3,2.5775,-0.87,1.97,35.39030533333334,-87.33,-89.74
1732085195073105162,1732085195072899818,3,2.5775,-0.87,1.97,35.52163633333333,-86.75,-86.83
1732085195172824417,1732085195172572612,3,2.5775,-0.87,1.97,35.634205666666666,-87.0,-88.94
1732085195272839052,1732085195272604227,3,2.5775,-0.87,1.97,35.753026999999996,-86.18,-86.82
1732085195372638165,1732085195372413873,3,2.5775,-0.87,1.97,35.87810199999999,-88.96,-89.97
1732085195472417129,1732085195472275257,3,2.5775,-0.87,1.97,35.996923333333335,-86.34,-86.96
1732085195671873280,1732085195671581506,3,2.5775,-0.87,1.97,36.12825333333333,-86.87,-87.49
1732085195772363907,1732085195772098302,3,2.5775,-0.87,1.97,36.265838,-87.06,-88.01
1732085195871877957,1732085195871605873,3,2.5775,-0.87,1.97,36.42218333333333,-89.48,-89.32
1732085196075320063,1732085196074282646,3,2.5775,-0.87,1.97,36.572275,-89.17,-91.34
1732085196572595520,1732085196572416067,3,2.5775,-0.87,1.97,37.16013433333333,-89.96,-90.23
1732085196671755261,1732085196671488285,3,2.5775,-0.87,1.97,37.33524033333333,-87.9,-88.18
1732085196772035253,1732085196771646499,3,2.5775,-0.87,1.97,37.46657,-89.12,-89.09
1732085196973321091,1732085196973048925,3,2.5775,-0.87,1.97,37.63542266666666,-90.95,-93.15
1732085197072303557,1732085197072074890,3,2.5775,-0.87,1.97,37.773006,-90.82,-90.72
1732085197173203190,1732085197172915458,3,2.5775,-0.87,1.97,37.923098,-88.71,-88.73
1732085197274761654,1732085197274571180,3,2.5775,-0.87,1.97,38.04192066666667,-88.63,-88.3
1732085197373680901,1732085197373512029,3,2.5775,-0.87,1.97,38.160743333333336,-89.4,-89.84
1732085197473158759,1732085197473015308,3,2.5775,-0.87,1.97,38.279564666666666,-92.78,-92.32
1732085197873270162,1732085197872990369,3,2.5775,-0.87,1.97,38.736093333333336,-90.12,-90.39
1732085198003307825,1732085198003135204,3,2.5775,-0.87,1.97,38.86116966666666,-87.17,-86.62
1732085198073256888,1732085198072844266,3,2.5775,-0.87,1.97,38.998753,-86.85,-86.91
1732085198172954944,1732085198172591209,3,2.5775,-0.87,1.97,39.14258999999999,-87.69,-88.68
1732085198273748784,1732085198273481130,3,2.5775,-0.87,1.97,39.26141166666667,-88.42,-88.57
1732085198373384366,1732085198373263835,3,2.5775,-0.87,1.97,39.367727333333335,-87.75,-87.92
1732085198474039578,1732085198473917722,3,2.5775,-0.87,1.97,39.461534666666665,-86.76,-89.14
1732085198573942593,1732085198573740482,3,2.5775,-0.87,1.97,39.56785,-86.93,-87.04
1732085198673086587,1732085198672933578,3,2.5775,-0.87,1.97,39.67416433333333,-87.79,-89.43
1732085198774087324,1732085198773767948,3,2.5775,-0.87,1.97,39.79924066666666,-88.34,-90.63
1732085198873024024,1732085198872804164,3,2.5775,-0.87,1.97,39.93057066666666,-87.12,-90.08
1732085198972653366,1732085198972392797,3,2.5775,-0.87,1.97,40.04939366666667,-86.15,-87.58
1732085199072946404,1732085199072758436,3,2.5775,-0.87,1.97,40.17447000000001,-86.28,-87.62
1732085199172769667,1732085199172534465,3,2.5775,-0.87,1.97,40.29329266666667,-86.03,-85.49
1732085199272913971,1732085199272641181,3,2.5775,-0.87,1.97,40.43712933333333,-87.74,-87.26
1732085199373029988,1732085199372792005,3,2.5775,-0.87,1.97,40.555952,-85.64,-85.01
1732085199472826062,1732085199472546577,3,2.5775,-0.87,1.97,40.668519999999994,-85.87,-87.33
1732085199572712361,1732085199572489738,3,2.5775,-0.87,1.97,40.781089333333334,-85.95,-85.16
1732085199673132856,1732085199672899246,3,2.5775,-0.87,1.97,40.90616566666666,-88.5,-89.22
1732085199772924952,1732085199772784709,3,2.5775,-0.87,1.97,41.01873466666667,-86.46,-85.95
1732085199872734010,1732085199872573614,3,2.5775,-0.87,1.97,41.125049,-85.4,-85.29
1732085199972719038,1732085199972492456,3,2.5775,-0.87,1.97,41.218856333333335,-85.83,-85.29
1732085200072926854,1732085200072648763,3,2.5775,-0.87,1.97,41.34393266666667,-86.49,-85.97
1732085200173073715,1732085200172810792,3,2.5775,-0.87,1.97,41.450247,-87.45,-87.93
1732085200273358355,1732085200273171424,3,2.5775,-0.87,1.97,41.56906966666666,-85.73,-86.29
1732085200373131415,1732085200372834444,3,2.5775,-0.87,1.97,41.694144666666666,-85.63,-85.41
1732085200472842205,1732085200472651720,3,2.5775,-0.87,1.97,41.819221,-85.79,-85.58
1732085200572534075,1732085200572406530,3,2.5775,-0.87,1.97,41.944296,-84.44,-83.99
1732085200672838737,1732085200672670364,3,2.5775,-0.87,1.97,42.05061166666667,-84.51,-84.28
1732085200773383884,1732085200773073196,3,2.5775,-0.87,1.97,42.156927333333336,-85.31,-84.66
1732085200872568790,1732085200872381210,3,2.5775,-0.87,1.97,42.263242999999996,-84.93,-84.6
1732085200972694328,1732085200972557544,3,2.5775,-0.87,1.97,42.375811,-86.09,-86.99
1732085201072526573,1732085201072360992,3,2.5775,-0.87,1.97,42.50088733333334,-84.01,-83.27
1732085201172949910,1732085201172702312,3,2.5775,-0.87,1.97,42.644724333333336,-84.43,-84.15
1732085201272725258,1732085201272501468,3,2.5775,-0.87,1.97,42.75729333333334,-85.99,-86.26
1732085201372823325,1732085201372564315,3,2.5775,-0.87,1.97,42.876114666666666,-84.58,-84.37
1732085201472884270,1732085201472649097,3,2.5775,-0.87,1.97,42.969921666666664,-86.05,-86.8
1732085201572591896,1732085201572431802,3,2.5775,-0.87,1.97,43.08248966666667,-83.89,-83.62
1732085201672689789,1732085201672544240,3,2.5775,-0.87,1.97,43.19505899999999,-85.12,-85.32
1732085201773208398,1732085201773123502,3,2.5775,-0.87,1.97,43.29512,-85.03,-84.9
1732085201872644111,1732085201872380495,3,2.5775,-0.87,1.97,43.40768933333334,-84.77,-84.94
1732085202070876610,1732085202070522785,3,2.5775,-0.87,1.97,43.54527266666667,-84.13,-83.55
1732085202170863762,1732085202170472621,3,2.5775,-0.87,1.97,43.71412633333333,-83.65,-84.92
1732085202270893183,1732085202270496606,3,2.5775,-0.87,1.97,43.876725,-83.9,-83.3
1732085202999431305,1732085202999190568,3,2.5775,-0.87,1.97,44.602166000000004,-83.26,-82.94
1732085203072788763,1732085203072600841,3,2.5775,-0.87,1.97,44.77727333333333,-84.42,-85.99
1732085203172613892,1732085203172548294,3,2.5775,-0.87,1.97,44.93361866666667,-84.01,-85.56
1732085203273431207,1732085203273150682,3,2.5775,-0.87,1.97,45.04618766666667,-85.49,-85.4
1732085203373105152,1732085203372894048,3,2.5775,-0.87,1.97,45.14624866666667,-83.67,-84.67
1732085203472306973,1732085203472110509,3,2.5775,-0.87,1.97,45.265070333333334,-83.87,-83.58
1732085203572515297,1732085203572277307,3,2.5775,-0.87,1.97,45.40265366666667,-83.41,-83.08
1732085203670688999,1732085203670453548,3,2.5775,-0.87,1.97,45.52773,-83.32,-82.75
1732085203770709729,1732085203770462036,3,2.5775,-0.87,1.97,45.64655266666667,-83.5,-84.81
1732085203871001834,1732085203870500326,3,2.5775,-0.87,1.97,45.74036,-84.43,-84.86
1732085203970927614,1732085203970490455,3,2.5775,-0.87,1.97,45.84667433333334,-84.6,-84.73
1732085204070779854,1732085204070484876,3,2.5775,-0.87,1.97,45.959241999999996,-85.93,-86.31
1732085204170965890,1732085204170473814,3,2.5775,-0.87,1.97,46.090572,-84.14,-85.82
1732085204270882166,1732085204270469665,3,2.5775,-0.87,1.97,46.196887333333336,-83.78,-85.6
1732085204371202664,1732085204370574951,3,2.5775,-0.87,1.97,46.30945666666667,-85.09,-84.9
1732085204470781812,1732085204470456123,3,2.5775,-0.87,1.97,46.409517333333326,-85.17,-85.16
1732085204570890286,1732085204570492267,3,2.5775,-0.87,1.97,46.559608,-83.53,-82.84
1732085204673604691,1732085204673355579,3,2.5775,-0.87,1.97,46.67217733333333,-83.13,-82.62
1732085204773978253,1732085204773731946,3,2.5775,-0.87,1.97,46.79725366666667,-84.81,-84.39
1732085204873741362,1732085204873607873,3,2.5775,-0.87,1.97,46.87855366666667,-84.72,-85.48
1732085204970971063,1732085204970458030,3,2.5775,-0.87,1.97,46.966106,-83.24,-82.6
1732085205073134613,1732085205072898864,3,2.5775,-0.87,1.97,47.022390666666674,-82.23,-81.86
1732085205173282179,1732085205172965526,3,2.5775,-0.87,1.97,47.06616700000001,-83.32,-84.51
1732085205273433847,1732085205273309469,3,2.5775,-0.87,1.97,47.10368966666667,-83.54,-82.95
1732085205373533882,1732085205373453378,3,2.5775,-0.87,1.97,47.13495866666667,-84.49,-85.86
1732085205473689628,1732085205473442077,3,2.5775,-0.87,1.97,47.159974,-84.49,-83.73
1732085205573673335,1732085205573439836,3,2.5775,-0.87,1.97,47.184989333333334,-84.79,-84.37
1732085205672916858,1732085205672342061,3,2.5775,-0.87,1.97,47.184989333333334,-85.48,-85.53
1732085205773068952,1732085205772833585,3,2.5775,-0.87,1.97,47.184989333333334,-85.02,-86.57
1732085205872869138,1732085205872608661,3,2.5775,-0.87,1.97,47.19124300000001,-84.22,-85.65
1732085205972668871,1732085205972476482,3,2.5775,-0.87,1.97,47.184989333333334,-84.72,-84.21
1732085206073461004,1732085206073231935,3,2.5775,-0.87,1.97,47.184989333333334,-83.49,-85.89
1732085206173462825,1732085206173061132,3,2.5775,-0.87,1.97,47.159975,-82.19,-82.05
1732085206273209180,1732085206273028135,3,2.5775,-0.87,1.97,47.141213,-81.07,-81.92
1732085206471944707,1732085206471687793,3,2.5775,-0.87,1.97,47.12245133333334,-81.84,-83.88
1732085206572068314,1732085206571856975,3,2.5775,-0.87,1.97,47.13495833333334,-82.84,-82.71
1732085206672001716,1732085206671729564,3,2.5775,-0.87,1.97,47.14746566666667,-82.58,-83.37
1732085206771978465,1732085206771633625,3,2.5775,-0.87,1.97,47.141211999999996,-81.42,-81.5
1732085206872528875,1732085206871946811,3,2.5775,-0.87,1.97,47.122450333333326,-82.01,-82.0
1732085206971941975,1732085206971795797,3,2.5775,-0.87,1.97,47.128705000000004,-85.2,-88.42
1732085207073032063,1732085207072789907,3,2.5775,-0.87,1.97,47.14121333333333,-82.16,-82.46
1732085207173207595,1732085207172987937,3,2.5775,-0.87,1.97,47.14121333333333,-83.85,-85.34
1732085207272822958,1732085207272656202,3,2.5775,-0.87,1.97,47.14121333333333,-81.67,-81.95
1732085207372934722,1732085207372648000,3,2.5775,-0.87,1.97,47.14121333333333,-83.49,-84.87
1732085207472232819,1732085207471884489,3,2.5775,-0.87,1.97,47.147468,-84.01,-84.91
1732085207571738269,1732085207571528911,3,2.5775,-0.87,1.97,47.15372166666666,-81.98,-81.93
1732085207770860731,1732085207770459890,3,2.5775,-0.87,1.97,36.647322333333335,-83.55,-106.45
1732085208002965338,1732085208002759695,3,2.5775,-0.87,1.97,36.647322333333335,-82.05,-83.55
1732085208172625256,1732085208172460556,3,2.5775,-0.87,1.97,36.65357566666667,-82.3,-84.06
1732085208572051857,1732085208571895360,3,2.5775,-0.87,1.97,47.22876566666667,-81.82,-81.85
1732085208971860345,1732085208971677064,3,2.5775,-0.87,1.97,46.02178033333333,-82.62,-82.44
1732085209072353657,1732085209072138547,3,2.5775,-0.87,1.97,46.04054233333333,-82.04,-82.53
1732085209172470452,1732085209172224998,3,2.5775,-0.87,1.97,47.285050333333324,-82.63,-82.69
1732085209272698061,1732085209272442102,3,2.5775,-0.87,1.97,47.27254333333334,-82.84,-83.45
1732085209372093937,1732085209371759891,3,2.5775,-0.87,1.97,47.278796666666665,-82.68,-84.65
1732085209471999763,1732085209471770048,3,2.5775,-0.87,1.97,47.303812333333326,-85.99,-87.77
1732085209572690496,1732085209572296857,3,2.5775,-0.87,1.97,47.31631933333333,-83.15,-82.91
1732085209672033075,1732085209671741962,3,2.5775,-0.87,1.97,47.328827999999994,-82.44,-82.07
1732085209771662414,1732085209771384000,3,2.5775,-0.87,1.97,47.322573,-84.24,-84.66
1732085209871489927,1732085209871347188,3,2.5775,-0.87,1.97,47.328827999999994,-83.8,-83.32
1732085209971499643,1732085209971384048,3,2.5775,-0.87,1.97,47.328827999999994,-81.95,-81.78
1732085210072020932,1732085210071768760,3,2.5775,-0.87,1.97,47.32257433333333,-81.88,-82.69
1732085210171967253,1732085210171652078,3,2.5775,-0.87,1.97,47.32882766666666,-82.94,-82.59
1732085210271928888,1732085210271629333,3,2.5775,-0.87,1.97,47.316319,-82.04,-83.48
1732085210372486028,1732085210372009754,3,2.5775,-0.87,1.97,47.335081,-82.32,-81.99
1732085210471822127,1732085210471656560,3,2.5775,-0.87,1.97,47.32882766666666,-82.69,-82.54
1732085210572111511,1732085210571816682,3,2.5775,-0.87,1.97,47.32257433333333,-82.96,-84.05
1732085210672020595,1732085210671594142,3,2.5775,-0.87,1.97,47.310066,-82.12,-81.87
1732085210771940859,1732085210771668910,3,2.5775,-0.87,1.97,47.303810999999996,-81.91,-81.82
1732085210871889146,1732085210871652126,3,2.5775,-0.87,1.97,47.31006433333334,-82.53,-83.77
1732085210972076111,1732085210971757411,3,2.5775,-0.87,1.97,47.31006433333334,-82.34,-82.07
1732085211071896302,1732085211071790695,3,2.5775,-0.87,1.97,47.31631933333333,-82.28,-82.02
1732085211171860554,1732085211171765804,3,2.5775,-0.87,1.97,47.31631933333333,-81.86,-81.59
1732085211271899016,1732085211271564245,3,2.5775,-0.87,1.97,47.31631933333333,-82.53,-82.73
1732085211372291275,1732085211372088909,3,2.5775,-0.87,1.97,47.31631933333333,-81.91,-81.63
1732085211471971095,1732085211471605300,3,2.5775,-0.87,1.97,47.335081333333335,-82.65,-82.23
1732085211572052005,1732085211571667432,3,2.5775,-0.87,1.97,47.32882766666666,-82.04,-82.26
1732085211672171715,1732085211671778917,3,2.5775,-0.87,1.97,47.32882766666666,-82.02,-82.06
1732085211771764473,1732085211771574020,3,2.5775,-0.87,1.97,47.32882766666666,-81.85,-81.84
1732085211871704548,1732085211871541738,3,2.5775,-0.87,1.97,47.35384333333334,-82.41,-82.01
1732085211970979531,1732085211970504760,3,2.5775,-0.87,1.97,47.34133466666666,-81.82,-81.86
1732085212070906620,1732085212070487260,3,2.5775,-0.87,1.97,47.35384200000001,-83.99,-83.47
1732085212171229325,1732085212170506477,3,2.5775,-0.87,1.97,47.34758833333333,-81.77,-81.88
1732085212270971486,1732085212270528078,3,2.5775,-0.87,1.97,47.37885766666667,-82.24,-83.83
1732085212370858147,1732085212370456933,3,2.5775,-0.87,1.97,47.391366,-82.17,-82.23
1732085212570630247,1732085212570445299,3,2.5775,-0.87,1.97,47.416381666666666,-82.45,-83.45
1732085212670646738,1732085212670457363,3,2.5775,-0.87,1.97,47.435143333333336,-82.25,-82.52
1732085212771011503,1732085212770475625,3,2.5775,-0.87,1.97,47.435143333333336,-81.66,-81.71
1732085212870821935,1732085212870461702,3,2.5775,-0.87,1.97,47.44139666666667,-83.55,-84.77
1732085212970996113,1732085212970455884,3,2.5775,-0.87,1.97,47.447650333333335,-83.08,-83.06
1732085213073491854,1732085213073340177,3,2.5775,-0.87,1.97,47.472664333333334,-82.51,-84.18
1732085213173889839,1732085213173683643,3,2.5775,-0.87,1.97,47.491425,-81.94,-81.99
1732085213271295316,1732085213270448923,3,2.5775,-0.87,1.97,47.510187,-82.28,-82.05
1732085213470788905,1732085213470438957,3,2.5775,-0.87,1.97,47.541456333333336,-82.48,-82.4
1732085213873621422,1732085213873408555,3,2.5775,-0.87,1.97,47.59148733333333,-82.87,-82.57
1732085213973082856,1732085213972876071,3,2.5775,-0.87,1.97,47.60399566666666,-81.93,-83.53
1732085214072851068,1732085214072649717,3,2.5775,-0.87,1.97,47.62901133333333,-82.59,-84.78
1732085214174028010,1732085214173846960,3,2.5775,-0.87,1.97,47.635265,-82.85,-85.0
1732085214273695574,1732085214273554325,3,2.5775,-0.87,1.97,47.65402566666666,-81.95,-83.71
1732085214373333357,1732085214373166084,3,2.5775,-0.87,1.97,28.229693999999995,-82.1,-82.02
1732085214473317085,1732085214473178863,3,2.5775,-0.87,1.97,28.260963000000004,-82.23,-83.84
1732085214573132428,1732085214572851181,3,2.5775,-0.87,1.97,28.267217666666667,-82.2,-81.97
1732085214670977734,1732085214670452833,3,2.5775,-0.87,1.97,47.71656466666666,-84.83,-86.46
1732085214870885009,1732085214870447158,3,2.5775,-0.87,1.97,47.74783366666666,-81.95,-84.14
1732085214970768352,1732085214970456361,3,2.5775,-0.87,1.97,32.01324966666666,-82.69,-82.46
1732085215071788676,1732085215071535825,3,2.5775,-0.87,1.97,32.038264,-83.39,-83.74
1732085215172137519,1732085215171739578,3,2.5775,-0.87,1.97,32.032009333333335,-82.12,-83.35
1732085215272173704,1732085215271875143,3,2.5775,-0.87,1.97,47.804116,-82.15,-81.96
1732085215374275590,1732085215374121904,3,2.5775,-0.87,1.97,47.81662433333333,-82.45,-82.79
1732085215470922109,1732085215470454692,3,2.5775,-0.87,1.97,47.82913266666666,-81.88,-81.91
1732085215571810490,1732085215571566581,3,2.5775,-0.87,1.97,47.841640000000005,-82.72,-84.43
1732085215671955785,1732085215671457290,3,2.5775,-0.87,1.97,47.86040066666667,-82.6,-82.33
1732085215771962567,1732085215771675586,3,2.5775,-0.87,1.97,47.86040066666667,-82.71,-84.22
1732085215871778785,1732085215871491909,3,2.5775,-0.87,1.97,47.86040066666666,-82.4,-83.74
1732085215972357333,1732085215972122192,3,2.5775,-0.87,1.97,47.86040066666667,-82.65,-82.21
1732085216072034144,1732085216071856021,3,2.5775,-0.87,1.97,47.87290766666667,-82.78,-82.51
1732085216172022864,1732085216171713352,3,2.5775,-0.87,1.97,47.88541466666667,-82.53,-84.26
1732085216271990360,1732085216271636962,3,2.5775,-0.87,1.97,47.89792333333333,-82.12,-83.56
1732085216371968011,1732085216371538877,3,2.5775,-0.87,1.97,47.89792333333333,-82.72,-82.65
1732085216472003470,1732085216471597671,3,2.5775,-0.87,1.97,47.89166966666667,-81.93,-81.95
1732085216572036359,1732085216571790695,3,2.5775,-0.87,1.97,47.90417666666667,-84.78,-84.15
1732085216672054933,1732085216671824932,3,2.5775,-0.87,1.97,47.90417666666667,-82.87,-83.97
1732085216772017879,1732085216771796226,3,2.5775,-0.87,1.97,47.89792333333333,-82.15,-81.83
1732085216871729248,1732085216871568679,3,2.5775,-0.87,1.97,47.854147000000005,-83.22,-82.84
1732085216971918222,1732085216971639633,3,2.5775,-0.87,1.97,47.822878,-82.9,-82.5
1732085217072467067,1732085217072021961,3,2.5775,-0.87,1.97,47.785355333333335,-82.8,-82.91
1732085217172187884,1732085217171830177,3,2.5775,-0.87,1.97,47.77284699999999,-82.53,-81.95
1732085217272325664,1732085217272108316,3,2.5775,-0.87,1.97,47.76659333333333,-84.39,-83.82
1732085217372216534,1732085217371929883,3,2.5775,-0.87,1.97,47.76659333333333,-83.98,-85.8
1732085217472345858,1732085217472109317,3,2.5775,-0.87,1.97,47.73532433333333,-83.74,-85.47
1732085217572621758,1732085217572531223,3,2.5775,-0.87,1.97,47.704055333333336,-83.75,-85.09
1732085217673042892,1732085217672888994,3,2.5775,-0.87,1.97,47.660279,-85.09,-84.31
1732085217772806488,1732085217772651672,3,2.5775,-0.87,1.97,47.635264666666664,-84.02,-83.74
1732085217872770093,1732085217872454166,3,2.5775,-0.87,1.97,47.62901133333333,-83.76,-83.76
1732085218003406275,1732085218003102064,3,2.5775,-0.87,1.97,47.64151866666666,-84.12,-85.6
1732085218072860409,1732085218072502613,3,2.5775,-0.87,1.97,47.62901033333333,-84.72,-84.15
1732085218172868431,1732085218172661304,3,2.5775,-0.87,1.97,47.629010333333326,-87.81,-87.77
1732085218272670325,1732085218272415399,3,2.5775,-0.87,1.97,47.62275666666667,-84.44,-83.77
1732085218372732248,1732085218372461080,3,2.5775,-0.87,1.97,47.64777233333333,-83.55,-82.82
1732085218472633922,1732085218472476243,3,2.5775,-0.87,1.97,47.64151866666666,-83.76,-84.05
1732085218572685690,1732085218572474479,3,2.5775,-0.87,1.97,47.64151866666666,-84.42,-86.44
1732085218672696340,1732085218672476053,3,2.5775,-0.87,1.97,47.64151866666666,-85.07,-85.31
1732085218772563509,1732085218772383451,3,2.5775,-0.87,1.97,47.64151866666666,-83.84,-84.0
1732085218970794288,1732085218970485448,3,2.5775,-0.87,1.97,47.635265,-83.42,-82.9
1732085219070759622,1732085219070474386,3,2.5775,-0.87,1.97,47.610249333333336,-83.76,-83.72
1732085219170874811,1732085219170481443,3,2.5775,-0.87,1.97,47.616503,-84.19,-83.69
1732085219270815938,1732085219270492315,3,2.5775,-0.87,1.97,47.610248333333324,-84.06,-83.88
1732085219370871088,1732085219370478391,3,2.5775,-0.87,1.97,47.62901033333333,-83.02,-83.8
1732085219470848607,1732085219470475196,3,2.5775,-0.87,1.97,47.603994666666665,-84.14,-85.66
1732085219573212360,1732085219572981357,3,2.5775,-0.87,1.97,47.59148733333333,-83.72,-83.34
1732085219673395331,1732085219672629356,3,2.5775,-0.87,1.97,47.553964666666666,-83.78,-83.09
1732085219773366099,1732085219773296594,3,2.5775,-0.87,1.97,47.51018833333333,-83.61,-83.75
1732085219873100363,1732085219872618198,3,2.5775,-0.87,1.97,47.485173,-83.45,-82.74
1732085219972605595,1732085219972456932,3,2.5775,-0.87,1.97,47.447649000000006,-83.21,-82.59
1732085220072896875,1732085220072691917,3,2.5775,-0.87,1.97,47.416380000000004,-83.57,-82.88
1732085220173520691,1732085220173206090,3,2.5775,-0.87,1.97,47.36635033333334,-83.58,-84.9
1732085220273309555,1732085220273173570,3,2.5775,-0.87,1.97,47.32257433333333,-83.73,-83.08
1732085220372762079,1732085220372504472,3,2.5775,-0.87,1.97,47.28505166666667,-84.37,-86.07
1732085220473011007,1732085220472645998,3,2.5775,-0.87,1.97,47.23502033333333,-87.06,-88.32
1732085220572877896,1732085220572634458,3,2.5775,-0.87,1.97,47.17873566666666,-84.37,-85.09
1732085220673463271,1732085220672528028,3,2.5775,-0.87,1.97,47.116197666666665,-83.28,-83.33
1732085220872786407,1732085220872655391,3,2.5775,-0.87,1.97,47.04115266666667,-83.49,-82.92
1732085220973092650,1732085220972821712,3,2.5775,-0.87,1.97,46.96610733333333,-85.86,-86.68
1732085221073294092,1732085221072573423,3,2.5775,-0.87,1.97,46.87855366666667,-83.22,-84.21
1732085221173741567,1732085221173490285,3,2.5775,-0.87,1.97,46.791,-83.18,-83.56
1732085221273137372,1732085221272997617,3,2.5775,-0.87,1.97,46.71595466666667,-83.01,-82.46
1732085221370757793,1732085221370455265,3,2.5775,-0.87,1.97,46.63465466666667,-84.0,-83.7
1732085221474128099,1732085221473972558,3,2.5775,-0.87,1.97,46.572116333333334,-85.88,-86.34
1732085221574642519,1732085221574451923,3,2.5775,-0.87,1.97,46.490816333333335,-83.03,-83.79
1732085221673832486,1732085221673663854,3,2.5775,-0.87,1.97,46.415771,-84.74,-84.55
1732085221773724341,1732085221773646116,3,2.5775,-0.87,1.97,46.334471,-84.21,-83.41
1732085221873680903,1732085221873592853,3,2.5775,-0.87,1.97,46.24691733333333,-83.48,-82.84
1732085221973511613,1732085221973273277,3,2.5775,-0.87,1.97,46.184379,-82.77,-82.07
1732085222073741572,1732085222073533535,3,2.5775,-0.87,1.97,46.096826666666665,-84.04,-83.5
1732085222173094717,1732085222172961711,3,2.5775,-0.87,1.97,46.02178133333334,-84.05,-83.39
1732085222272687839,1732085222272510528,3,2.5775,-0.87,1.97,45.921720666666666,-82.96,-84.34
1732085222372780309,1732085222372535467,3,2.5775,-0.87,1.97,45.82165966666667,-83.19,-84.61
1732085222473027885,1732085222472798109,3,2.5775,-0.87,1.97,45.72785266666667,-83.36,-82.67
1732085222573011029,1732085222572722196,3,2.5775,-0.87,1.97,45.640299,-83.25,-82.5
1732085222673191295,1732085222672905445,3,2.5775,-0.87,1.97,45.55274533333333,-83.13,-84.32
1732085222773548965,1732085222773313999,3,2.5775,-0.87,1.97,45.45268433333334,-83.03,-82.91
1732085222872822012,1732085222872638225,3,2.5775,-0.87,1.97,45.358877,-83.24,-84.38
1732085223003363388,1732085223003169775,3,2.5775,-0.87,1.97,45.26507,-83.07,-82.46
1732085223073017621,1732085223072725534,3,2.5775,-0.87,1.97,45.17751633333333,-83.93,-83.21
1732085223173143261,1732085223172866821,3,2.5775,-0.87,1.97,45.07745566666667,-83.5,-85.07
1732085223273038340,1732085223272782325,3,2.5775,-0.87,1.97,44.97739466666667,-83.92,-85.5
1732085223373129725,1732085223372802019,3,2.5775,-0.87,1.97,44.858572,-82.96,-82.51
1732085223473027684,1732085223472801446,3,2.5775,-0.87,1.97,44.76476466666667,-82.96,-83.88
1732085223573643317,1732085223573329210,3,2.5775,-0.87,1.97,44.68346466666667,-83.52,-83.0
1732085223673058455,1732085223672879457,3,2.5775,-0.87,1.97,44.583404,-82.83,-82.73
1732085223772628602,1732085223772419214,3,2.5775,-0.87,1.97,44.48334333333333,-84.96,-85.77
1732085223872854336,1732085223872659683,3,2.5775,-0.87,1.97,44.370775333333334,-82.49,-82.66
1732085223972894902,1732085223972720384,3,2.5775,-0.87,1.97,44.283223,-83.2,-84.78
1732085224072927065,1732085224072704553,3,2.5775,-0.87,1.97,44.16440033333333,-82.9,-82.79
1732085224172967188,1732085224172693014,3,2.5775,-0.87,1.97,44.070593333333335,-85.37,-85.0
1732085224272780054,1732085224272456645,3,2.5775,-0.87,1.97,43.96427766666667,-83.99,-84.75
1732085224372913319,1732085224372694015,3,2.5775,-0.87,1.97,43.87047033333334,-85.95,-86.71
1732085224473055948,1732085224472701787,3,2.5775,-0.87,1.97,43.757901000000004,-83.52,-85.14
1732085224573017866,1732085224572698593,3,2.5775,-0.87,1.97,43.664093666666666,-83.25,-83.55
1732085224673121847,1732085224672810316,3,2.5775,-0.87,1.97,43.55152566666667,-83.68,-85.36
1732085224772787460,1732085224772550582,3,2.5775,-0.87,1.97,43.44521133333333,-84.48,-83.98
1732085224872772497,1732085224872476339,3,2.5775,-0.87,1.97,43.320135,-84.07,-84.25
1732085224972968266,1732085224972666263,3,2.5775,-0.87,1.97,43.226328,-83.84,-84.72
1732085225072813571,1732085225072577953,3,2.5775,-0.87,1.97,43.120013666666665,-85.49,-85.26
1732085225270876167,1732085225270489931,3,2.5775,-0.87,1.97,42.988684,-85.68,-87.43
1732085225370733713,1732085225370455980,3,2.5775,-0.87,1.97,42.832338666666665,-84.83,-84.51
1732085225470698609,1732085225470450162,3,2.5775,-0.87,1.97,42.67599333333333,-83.62,-83.29
1732085225570851038,1732085225570459842,3,2.5775,-0.87,1.97,42.569679,-85.17,-84.92
1732085225670811874,1732085225670464992,3,2.5775,-0.87,1.97,42.482125333333336,-85.23,-85.86
1732085225770801309,1732085225770452022,3,2.5775,-0.87,1.97,42.40707866666667,-85.68,-85.83
1732085225872852570,1732085225872767210,3,2.5775,-0.87,1.97,42.33828666666667,-85.97,-85.89
1732085226070791051,1732085226070456266,3,2.5775,-0.87,1.97,42.269495,-90.08,-89.84
1732085226272765902,1732085226272639751,3,2.5775,-0.87,1.97,42.206957,-87.98,-88.48
1732085226570791431,1732085226570459604,3,2.5775,-0.87,1.97,42.15067266666667,-88.16,-90.24
1732085226772971382,1732085226772680521,3,2.5775,-0.87,1.97,42.131912,-87.68,-87.81
1732085226973272090,1732085226973096609,3,2.5775,-0.87,1.97,42.119405,-89.0,-90.57
1732085227272591291,1732085227272368669,3,2.5775,-0.87,1.97,42.10689766666667,-87.84,-89.42
1732085227472625677,1732085227472392559,3,2.5775,-0.87,1.97,42.094389,-88.02,-88.34
1732085227873361121,1732085227873055696,3,2.5775,-0.87,1.97,42.05061166666667,-88.01,-88.78
1732085228002999909,1732085228002401351,3,2.5775,-0.87,1.97,42.05686633333334,-87.93,-88.09
1732085228172562508,1732085228172414779,3,2.5775,-0.87,1.97,42.03810433333334,-90.26,-90.87
1732085228372829719,1732085228372524499,3,2.5775,-0.87,1.97,42.025597000000005,-88.29,-88.95
1732085228570825555,1732085228570467472,3,2.5775,-0.87,1.97,41.98181966666667,-90.87,-90.87
