%time,field.stamp,field.id,field.x,field.y,field.z,field.distanceFromTag,field.rssi,field.rssi_fp
1730020288376510712,1730020288376089811,3,2.58,-0.87,1.97,4.308874666666667,-79.76,-81.26
1730020288479282804,1730020288478998184,3,2.58,-0.87,1.97,4.333889666666667,-79.34,-81.03
1730020288577639340,1730020288577387094,3,2.58,-0.87,1.97,4.346397333333333,-78.87,-81.34
1730020288676412071,1730020288676085710,3,2.58,-0.87,1.97,4.352651,-78.84,-81.67
1730020288777978920,1730020288777642965,3,2.58,-0.87,1.97,4.365158666666667,-79.01,-80.72
1730020288877857176,1730020288877593517,3,2.58,-0.87,1.97,4.352651,-79.23,-80.62
1730020288978394553,1730020288977909326,3,2.58,-0.87,1.97,4.358905,-79.17,-80.83
1730020289077885815,1730020289077484607,3,2.58,-0.87,1.97,4.340143666666667,-80.18,-80.98
1730020289178145417,1730020289177758216,3,2.58,-0.87,1.97,4.340143666666667,-79.33,-80.75
1730020289277985857,1730020289277686834,3,2.58,-0.87,1.97,4.327636,-80.03,-80.94
1730020289377631390,1730020289377314329,3,2.58,-0.87,1.97,4.327636,-79.27,-80.36
1730020289478103604,1730020289477792501,3,2.58,-0.87,1.97,4.315128666666666,-78.89,-80.36
1730020289576549301,1730020289576096057,3,2.58,-0.87,1.97,4.315128666666666,-79.31,-80.94
1730020289676876757,1730020289676141977,3,2.58,-0.87,1.97,4.290113333333333,-79.37,-81.05
1730020289776606468,1730020289776159524,3,2.58,-0.87,1.97,4.290113333333333,-79.05,-80.49
1730020289876589604,1730020289876146793,3,2.58,-0.87,1.97,4.290113333333333,-79.47,-80.67
1730020289979970064,1730020289979658126,3,2.58,-0.87,1.97,4.315128666666666,-78.98,-80.54
1730020290080453043,1730020290080121517,3,2.58,-0.87,1.97,4.358905333333333,-79.35,-82.57
1730020290179876747,1730020290179593563,3,2.58,-0.87,1.97,4.327636333333333,-78.98,-81.02
1730020290280444417,1730020290280128955,3,2.58,-0.87,1.97,4.321382333333333,-78.83,-80.52
1730020290380098894,1730020290379491090,3,2.58,-0.87,1.97,4.271351666666667,-78.54,-80.58
1730020290479075436,1730020290478794097,3,2.58,-0.87,1.97,4.271351666666667,-78.5,-80.81
1730020290579142404,1730020290578940629,3,2.58,-0.87,1.97,4.265098,-78.94,-80.76
1730020290679539699,1730020290679317712,3,2.58,-0.87,1.97,4.265098,-78.75,-80.95
1730020290879186178,1730020290878856658,3,2.58,-0.87,1.97,4.265098,-78.44,-81.1
1730020290979098131,1730020290978922605,3,2.58,-0.87,1.97,4.252590333333333,-78.63,-80.43
1730020291079091508,1730020291078812837,3,2.58,-0.87,1.97,4.265098,-78.66,-80.76
1730020291178843732,1730020291178741693,3,2.58,-0.87,1.97,4.277605666666666,-78.63,-80.75
1730020291280036026,1730020291279946565,3,2.58,-0.87,1.97,4.2838596666666655,-78.3,-80.63
1730020291980389064,1730020291980100154,3,2.58,-0.87,1.97,4.283859333333333,-79.0,-80.61
1730020292180186738,1730020292179958343,3,2.58,-0.87,1.97,4.371412666666667,-80.02,-81.67
1730020292279704798,1730020292279471874,3,2.58,-0.87,1.97,4.446458333333333,-79.26,-82.87
1730020292379512280,1730020292379251718,3,2.58,-0.87,1.97,4.4652199999999995,-79.81,-81.16
1730020292479922113,1730020292479392528,3,2.58,-0.87,1.97,4.427697,-79.81,-81.3
1730020292579896565,1730020292579624891,3,2.58,-0.87,1.97,4.408935666666667,-79.4,-81.59
1730020292679683260,1730020292679527521,3,2.58,-0.87,1.97,4.427697,-80.33,-83.27
1730020292778344151,1730020292777874708,3,2.58,-0.87,1.97,4.396428,-80.15,-80.72
1730020292877854864,1730020292877586364,3,2.58,-0.87,1.97,4.327636,-79.87,-80.81
1730020292978215782,1730020292977932453,3,2.58,-0.87,1.97,4.246336333333333,-79.49,-80.32
1730020293078007114,1730020293077466726,3,2.58,-0.87,1.97,4.196306,-79.65,-81.21
1730020293178009794,1730020293177644968,3,2.58,-0.87,1.97,4.152529333333333,-79.16,-80.62
1730020293277934431,1730020293277562379,3,2.58,-0.87,1.97,4.102499,-79.67,-80.75
1730020293377852262,1730020293377535581,3,2.58,-0.87,1.97,4.0712296666666665,-79.12,-80.42
1730020293478308937,1730020293477968692,3,2.58,-0.87,1.97,4.021199333333334,-78.99,-81.12
1730020293578003143,1730020293577642202,3,2.58,-0.87,1.97,4.0086916666666665,-78.95,-80.87
1730020293678099446,1730020293677659034,3,2.58,-0.87,1.97,3.989930333333333,-78.94,-80.97
1730020293778185859,1730020293777878522,3,2.58,-0.87,1.97,3.9899303333333336,-79.07,-81.81
1730020293877747280,1730020293877495765,3,2.58,-0.87,1.97,3.977422666666667,-79.21,-82.33
1730020293977777057,1730020293977472066,3,2.58,-0.87,1.97,3.946153666666667,-78.95,-80.6
1730020294077682718,1730020294077418088,3,2.58,-0.87,1.97,3.902377,-78.74,-80.64
1730020294178453103,1730020294178074121,3,2.58,-0.87,1.97,3.8586003333333334,-78.73,-80.72
1730020294278099270,1730020294277825593,3,2.58,-0.87,1.97,3.8335850000000007,-78.85,-80.98
1730020294378493234,1730020294378324747,3,2.58,-0.87,1.97,3.8273309999999996,-78.7,-81.4
1730020294478609029,1730020294478432416,3,2.58,-0.87,1.97,3.814823333333333,-78.63,-80.54
1730020294579213657,1730020294578867435,3,2.58,-0.87,1.97,3.7773006666666666,-78.24,-80.53
1730020294678627973,1730020294678533077,3,2.58,-0.87,1.97,3.7522853333333335,-78.5,-80.72
1730020294778630240,1730020294778456211,3,2.58,-0.87,1.97,3.7147626666666667,-78.28,-80.65
1730020294878170606,1730020294877828359,3,2.58,-0.87,1.97,3.6772396666666665,-78.83,-80.85
1730020294977703294,1730020294977393388,3,2.58,-0.87,1.97,3.6021940000000003,-78.72,-80.4
1730020295077995448,1730020295077609300,3,2.58,-0.87,1.97,3.5584173333333333,-78.52,-80.55
1730020295177562982,1730020295177308559,3,2.58,-0.87,1.97,3.5396559999999995,-79.35,-80.73
1730020295277844241,1730020295277601718,3,2.58,-0.87,1.97,3.5334023333333335,-79.73,-81.0
1730020295377883994,1730020295377678394,3,2.58,-0.87,1.97,3.502133333333333,-78.41,-80.39
1730020295479455060,1730020295479249238,3,2.58,-0.87,1.97,3.4833716666666668,-78.83,-80.87
1730020295579314048,1730020295578999757,3,2.58,-0.87,1.97,3.4646103333333333,-79.01,-80.94
1730020295679270257,1730020295679004907,3,2.58,-0.87,1.97,3.4458486666666666,-78.37,-80.58
1730020295779237574,1730020295778902530,3,2.58,-0.87,1.97,3.427087333333333,-79.59,-80.78
1730020295880167524,1730020295879813671,3,2.58,-0.87,1.97,3.395818,-79.1,-80.98
1730020295979628994,1730020295979480981,3,2.58,-0.87,1.97,3.3958180000000002,-78.94,-80.69
1730020296079795049,1730020296079580783,3,2.58,-0.87,1.97,3.3833103333333336,-78.94,-80.67
1730020296179633318,1730020296179466009,3,2.58,-0.87,1.97,3.389564333333333,-78.99,-80.9
1730020296280206669,1730020296279808282,3,2.58,-0.87,1.97,3.3833106666666666,-79.0,-81.1
1730020296380107930,1730020296379720926,3,2.58,-0.87,1.97,3.377057,-78.79,-80.49
1730020296479109415,1730020296478783845,3,2.58,-0.87,1.97,3.377057,-79.08,-80.94
1730020296579309278,1730020296579065799,3,2.58,-0.87,1.97,3.3833106666666666,-79.11,-80.97
1730020297076545790,1730020297076133012,3,2.58,-0.87,1.97,3.4646100000000004,-78.95,-80.55
1730020297176715668,1730020297176086425,3,2.58,-0.87,1.97,3.483371333333334,-78.97,-81.02
1730020297276723224,1730020297276150941,3,2.58,-0.87,1.97,3.502132666666667,-79.0,-80.9
1730020297376673154,1730020297376076221,3,2.58,-0.87,1.97,3.520894333333333,-79.5,-81.01
1730020297478816261,1730020297478502988,3,2.58,-0.87,1.97,3.533402,-79.55,-80.92
1730020297578914784,1730020297578625440,3,2.58,-0.87,1.97,3.5396559999999995,-79.23,-81.36
1730020297678568149,1730020297678479909,3,2.58,-0.87,1.97,3.564671,-79.08,-81.2
1730020297778772182,1730020297778485059,3,2.58,-0.87,1.97,3.6334630000000003,-79.22,-80.98
1730020297878716537,1730020297878557682,3,2.58,-0.87,1.97,3.689747333333333,-79.02,-80.91
1730020297978733494,1730020297978428840,3,2.58,-0.87,1.97,3.7335240000000005,-79.06,-80.94
1730020298079073919,1730020298078764438,3,2.58,-0.87,1.97,3.7773006666666666,-79.02,-80.44
1730020298178660817,1730020298178403377,3,2.58,-0.87,1.97,3.8460923333333334,-78.67,-80.72
1730020298278648244,1730020298278555631,3,2.58,-0.87,1.97,3.9273919999999998,-78.29,-80.93
1730020298379600062,1730020298379359006,3,2.58,-0.87,1.97,4.002437666666666,-78.85,-80.63
1730020298479002676,1730020298478808879,3,2.58,-0.87,1.97,4.033706666666667,-79.13,-80.96
1730020298578847239,1730020298578638076,3,2.58,-0.87,1.97,4.0712296666666665,-79.14,-80.86
1730020298678682194,1730020298678532361,3,2.58,-0.87,1.97,4.096245000000001,-78.93,-80.83
1730020298779040393,1730020298778781414,3,2.58,-0.87,1.97,4.190052333333333,-78.71,-80.65
1730020298878571395,1730020298878357172,3,2.58,-0.87,1.97,4.240082666666667,-78.57,-80.99
1730020298978829705,1730020298978577852,3,2.58,-0.87,1.97,4.290113,-79.09,-80.98
1730020299078542908,1730020299078369379,3,2.58,-0.87,1.97,4.358905,-79.02,-80.62
1730020299179420495,1730020299179238080,3,2.58,-0.87,1.97,4.427697,-78.69,-80.91
1730020299379296317,1730020299378941774,3,2.58,-0.87,1.97,4.552773333333334,-78.46,-80.35
1730020299877864200,1730020299877600669,3,2.58,-0.87,1.97,4.965524333333334,-78.68,-80.46
1730020299978655557,1730020299978430747,3,2.58,-0.87,1.97,5.04057,-78.87,-80.72
1730020300077919054,1730020300077585458,3,2.58,-0.87,1.97,5.115616,-78.86,-80.9
1730020300178031746,1730020300177669525,3,2.58,-0.87,1.97,5.215677,-78.41,-80.97
1730020300277901011,1730020300277629375,3,2.58,-0.87,1.97,5.309484333333333,-78.37,-81.24
1730020300377871384,1730020300377600193,3,2.58,-0.87,1.97,5.3970373333333335,-78.78,-80.48
1730020300478409686,1730020300477506637,3,2.58,-0.87,1.97,5.4595753333333334,-78.5,-80.7
1730020300578125920,1730020300577652454,3,2.58,-0.87,1.97,5.528366999999999,-78.59,-80.57
1730020300676461729,1730020300676102399,3,2.58,-0.87,1.97,5.603412666666667,-78.33,-80.39
1730020300779804035,1730020300779541015,3,2.58,-0.87,1.97,5.703473666666667,-79.04,-81.08
1730020300879877510,1730020300879589796,3,2.58,-0.87,1.97,5.797281000000001,-78.95,-80.7
1730020300979743754,1730020300979422092,3,2.58,-0.87,1.97,5.884834333333333,-79.01,-80.73
1730020301079413466,1730020301079170465,3,2.58,-0.87,1.97,5.928611,-79.03,-80.81
1730020301179911519,1730020301179726839,3,2.58,-0.87,1.97,5.997402666666666,-79.05,-80.66
1730020301280842497,1730020301280646085,3,2.58,-0.87,1.97,6.072448666666666,-79.25,-81.22
1730020301379161315,1730020301378883838,3,2.58,-0.87,1.97,6.172509666666667,-78.57,-80.63
1730020301479008748,1730020301478657960,3,2.58,-0.87,1.97,6.260063,-78.91,-80.94
1730020301579354191,1730020301579078674,3,2.58,-0.87,1.97,6.366377666666668,-79.57,-80.56
1730020301679367879,1730020301679135322,3,2.58,-0.87,1.97,6.453931000000001,-79.42,-80.81
1730020301779212795,1730020301778897523,3,2.58,-0.87,1.97,6.579007333333333,-79.21,-80.62
1730020301878619241,1730020301878439188,3,2.58,-0.87,1.97,6.660307,-78.69,-80.97
1730020301978584748,1730020301978410243,3,2.58,-0.87,1.97,6.791637000000001,-78.55,-81.03
1730020302079013680,1730020302078836917,3,2.58,-0.87,1.97,6.872936666666667,-78.64,-81.32
1730020302178852227,1730020302178647756,3,2.58,-0.87,1.97,6.985505,-79.08,-81.74
1730020302278938209,1730020302278649091,3,2.58,-0.87,1.97,7.066804333333333,-79.65,-81.11
1730020302476902482,1730020302476128101,3,2.58,-0.87,1.97,7.185626666666667,-79.68,-80.54
1730020302576734958,1730020302576097965,3,2.58,-0.87,1.97,7.304449000000001,-78.77,-80.84
1730020302676448533,1730020302676076889,3,2.58,-0.87,1.97,7.435779,-78.58,-81.24
1730020302776906554,1730020302776121616,3,2.58,-0.87,1.97,7.535839666666667,-79.21,-81.08
1730020302876715833,1730020302876090764,3,2.58,-0.87,1.97,7.635900666666667,-79.53,-80.67
1730020302976717066,1730020302976100921,3,2.58,-0.87,1.97,7.735961666666667,-79.09,-82.16
1730020303079211890,1730020303078947544,3,2.58,-0.87,1.97,7.854784333333334,-80.19,-81.05
1730020303179058518,1730020303178688526,3,2.58,-0.87,1.97,7.973606666666666,-79.45,-80.97
1730020303279776133,1730020303279572010,3,2.58,-0.87,1.97,8.048652333333335,-79.53,-81.02
1730020303378612945,1730020303378451824,3,2.58,-0.87,1.97,8.148713333333333,-79.81,-80.54
1730020303479312800,1730020303479026794,3,2.58,-0.87,1.97,8.248774666666668,-79.44,-80.63
1730020303579331857,1730020303578967332,3,2.58,-0.87,1.97,8.342582,-79.61,-81.26
1730020303679119359,1730020303679010868,3,2.58,-0.87,1.97,8.436389333333333,-79.93,-80.78
1730020303779181905,1730020303778867006,3,2.58,-0.87,1.97,8.523942666666667,-79.6,-80.62
1730020303879260554,1730020303879078865,3,2.58,-0.87,1.97,8.636511333333333,-79.54,-81.14
1730020303979197039,1730020303978871107,3,2.58,-0.87,1.97,8.749079666666667,-79.26,-81.09
1730020304079227225,1730020304078981399,3,2.58,-0.87,1.97,8.842886666666667,-79.44,-80.68
1730020304178735786,1730020304178524255,3,2.58,-0.87,1.97,8.961709,-79.29,-80.7
1730020304278825840,1730020304278746366,3,2.58,-0.87,1.97,9.043008666666667,-79.3,-80.99
1730020304378627815,1730020304378382682,3,2.58,-0.87,1.97,9.143069666666667,-79.64,-80.71
1730020304478873113,1730020304478570938,3,2.58,-0.87,1.97,9.230623,-79.64,-80.93
1730020304578851866,1730020304578650474,3,2.58,-0.87,1.97,9.355699,-79.74,-80.82
1730020304779065435,1730020304778868913,3,2.58,-0.87,1.97,9.499536666666666,-79.77,-80.91
1730020305576461384,1730020305576111555,3,2.58,-0.87,1.97,10.406339000000001,-80.06,-81.04
1730020305676558467,1730020305676148891,3,2.58,-0.87,1.97,10.500146333333333,-80.24,-81.17
1730020305776801561,1730020305776184082,3,2.58,-0.87,1.97,10.600207333333334,-80.21,-80.78
1730020305876893453,1730020305876205682,3,2.58,-0.87,1.97,10.687760666666668,-79.88,-80.74
1730020305979098463,1730020305978898286,3,2.58,-0.87,1.97,10.812836333333331,-80.0,-80.63
1730020306079318589,1730020306078960418,3,2.58,-0.87,1.97,10.919151,-80.11,-81.13
1730020306178871312,1730020306178624153,3,2.58,-0.87,1.97,11.044227333333334,-80.31,-81.22
1730020306280082589,1730020306279729127,3,2.58,-0.87,1.97,11.156796,-80.18,-80.89
1730020306379579838,1730020306379280328,3,2.58,-0.87,1.97,11.269364666666668,-80.4,-80.86
1730020306479269927,1730020306479054689,3,2.58,-0.87,1.97,11.394440333333334,-80.45,-80.84
1730020306578055302,1730020306577768802,3,2.58,-0.87,1.97,11.507008999999998,-80.91,-82.66
1730020306678158836,1730020306677700042,3,2.58,-0.87,1.97,11.60707,-80.17,-81.63
1730020306778741538,1730020306778248548,3,2.58,-0.87,1.97,11.707131333333335,-80.65,-81.47
1730020306878185489,1730020306877776384,3,2.58,-0.87,1.97,11.813446333333333,-80.61,-81.69
1730020306977843351,1730020306977643251,3,2.58,-0.87,1.97,11.919761,-80.44,-80.92
1730020307078038677,1730020307077793836,3,2.58,-0.87,1.97,12.019822,-80.73,-81.23
1730020307177940710,1730020307177620649,3,2.58,-0.87,1.97,12.119882666666667,-80.28,-80.81
1730020307277740444,1730020307277477025,3,2.58,-0.87,1.97,12.232451333333332,-80.22,-80.69
1730020307378111490,1730020307377935886,3,2.58,-0.87,1.97,12.351273333333333,-79.93,-80.65
1730020307478547062,1730020307478157281,3,2.58,-0.87,1.97,12.463842,-80.32,-81.05
1730020307578125160,1730020307577885389,3,2.58,-0.87,1.97,12.563902666666666,-79.81,-80.8
1730020307678386207,1730020307678028345,3,2.58,-0.87,1.97,12.651456000000001,-80.88,-81.36
1730020307778622620,1730020307778321504,3,2.58,-0.87,1.97,12.745263,-80.92,-81.15
1730020307878273399,1730020307877920866,3,2.58,-0.87,1.97,12.870339333333334,-80.77,-81.59
1730020307978131731,1730020307977881431,3,2.58,-0.87,1.97,13.001669666666666,-80.7,-80.96
1730020308078951698,1730020308078512668,3,2.58,-0.87,1.97,13.132999666666665,-81.23,-83.51
1730020308178262511,1730020308177855253,3,2.58,-0.87,1.97,13.251821999999999,-81.74,-83.36
1730020308277966401,1730020308277462244,3,2.58,-0.87,1.97,13.364390666666667,-81.37,-82.52
1730020308378584165,1730020308378099679,3,2.58,-0.87,1.97,13.458197666666669,-81.64,-83.66
1730020308478625402,1730020308478296041,3,2.58,-0.87,1.97,13.558258666666667,-81.63,-82.82
1730020308578327591,1730020308577997207,3,2.58,-0.87,1.97,13.658319333333333,-81.36,-82.98
1730020308678170860,1730020308677830934,3,2.58,-0.87,1.97,13.758380666666667,-80.72,-81.12
1730020308777064760,1730020308776202440,3,2.58,-0.87,1.97,13.870949333333334,-80.93,-81.02
1730020308876531915,1730020308876082897,3,2.58,-0.87,1.97,13.983517666666666,-80.42,-81.2
1730020308980268598,1730020308979673624,3,2.58,-0.87,1.97,14.10234,-80.65,-81.16
1730020309079831308,1730020309079426527,3,2.58,-0.87,1.97,14.208654666666668,-80.48,-80.78
1730020309179192745,1730020309178823709,3,2.58,-0.87,1.97,14.302462,-80.26,-80.79
1730020309279609392,1730020309279326915,3,2.58,-0.87,1.97,14.421284,-80.3,-80.77
1730020309479129464,1730020309478930473,3,2.58,-0.87,1.97,14.540106333333334,-80.97,-81.09
1730020309579873862,1730020309579642772,3,2.58,-0.87,1.97,14.671436666666667,-80.67,-81.11
1730020309679302329,1730020309678991317,3,2.58,-0.87,1.97,14.784005666666667,-80.53,-80.72
1730020309779192832,1730020309778944730,3,2.58,-0.87,1.97,14.884066666666667,-79.96,-81.0
1730020309879770408,1730020309879452228,3,2.58,-0.87,1.97,14.97162,-80.32,-81.53
1730020309979116897,1730020309978837966,3,2.58,-0.87,1.97,15.084188333333335,-80.44,-80.85
1730020310080033691,1730020310079815387,3,2.58,-0.87,1.97,15.196756666666666,-80.88,-82.56
1730020310179951936,1730020310179776906,3,2.58,-0.87,1.97,15.334340333333335,-80.87,-83.35
1730020310280225066,1730020310279896974,3,2.58,-0.87,1.97,15.440655,-81.05,-81.73
1730020310877625011,1730020310877331733,3,2.58,-0.87,1.97,16.047274666666667,-82.7,-83.77
1730020310980513161,1730020310979148626,3,2.58,-0.87,1.97,16.159842333333334,-83.05,-84.57
1730020311079070770,1730020311078833580,3,2.58,-0.87,1.97,16.284918333333334,-83.31,-84.96
1730020311181052249,1730020311180925369,3,2.58,-0.87,1.97,16.391232666666664,-82.39,-82.68
1730020311279658273,1730020311279558897,3,2.58,-0.87,1.97,16.516309,-82.53,-85.36
1730020311379503919,1730020311379149913,3,2.58,-0.87,1.97,16.641385333333332,-82.02,-81.8
1730020311478975108,1730020311478601694,3,2.58,-0.87,1.97,16.772716,-81.72,-81.49
1730020311577928442,1730020311577716588,3,2.58,-0.87,1.97,16.89779233333333,-81.57,-81.82
1730020311678063081,1730020311677787303,3,2.58,-0.87,1.97,16.972837666666667,-81.33,-81.18
1730020311778213474,1730020311777821779,3,2.58,-0.87,1.97,17.07289833333333,-81.05,-81.06
1730020311877947080,1730020311877593278,3,2.58,-0.87,1.97,17.204228333333333,-81.11,-81.02
1730020311977711749,1730020311977428197,3,2.58,-0.87,1.97,17.335559,-81.37,-81.64
1730020312077971431,1730020312077602148,3,2.58,-0.87,1.97,17.441873333333334,-80.4,-80.94
1730020312177778888,1730020312177494525,3,2.58,-0.87,1.97,17.529427000000002,-80.4,-80.8
1730020312277876052,1730020312277609825,3,2.58,-0.87,1.97,17.629487666666666,-80.97,-81.13
1730020312377617181,1730020312377408504,3,2.58,-0.87,1.97,17.735802666666668,-80.84,-81.37
1730020312478069272,1730020312477432250,3,2.58,-0.87,1.97,17.823355666666664,-80.27,-81.2
1730020312577493632,1730020312577339172,3,2.58,-0.87,1.97,17.929669999999998,-80.82,-81.68
1730020312708267623,1730020312707776784,3,2.58,-0.87,1.97,18.02973066666667,-80.54,-81.14
1730020312777908731,1730020312777673482,3,2.58,-0.87,1.97,18.154807,-80.09,-80.82
1730020312877703088,1730020312877460002,3,2.58,-0.87,1.97,18.254868333333334,-80.25,-80.98
1730020312977739161,1730020312977487564,3,2.58,-0.87,1.97,18.354929666666667,-80.6,-81.31
1730020313077905691,1730020313077703475,3,2.58,-0.87,1.97,18.46124466666667,-81.08,-81.75
1730020313178595584,1730020313178389310,3,2.58,-0.87,1.97,18.573813333333334,-80.48,-81.56
1730020313279206301,1730020313278976440,3,2.58,-0.87,1.97,18.692635666666664,-81.78,-82.36
1730020313379043625,1730020313378700494,3,2.58,-0.87,1.97,18.79895,-81.63,-83.59
1730020313479118436,1730020313478761434,3,2.58,-0.87,1.97,18.911518333333337,-81.76,-83.86
1730020313579251376,1730020313578749179,3,2.58,-0.87,1.97,19.024086666666665,-81.66,-82.82
1730020313679056223,1730020313678664922,3,2.58,-0.87,1.97,19.149162666666665,-82.23,-84.1
1730020313779445171,1730020313779074192,3,2.58,-0.87,1.97,19.255477,-81.85,-81.59
1730020313878914859,1730020313878636598,3,2.58,-0.87,1.97,19.355538,-82.01,-81.59
1730020313978723884,1730020313978422164,3,2.58,-0.87,1.97,19.455599666666668,-82.84,-82.55
1730020314078894813,1730020314078648805,3,2.58,-0.87,1.97,19.561914666666667,-82.95,-82.75
1730020314178835847,1730020314178599834,3,2.58,-0.87,1.97,19.680737333333337,-83.34,-84.32
1730020314280058115,1730020314279641389,3,2.58,-0.87,1.97,19.793305666666665,-84.0,-86.54
1730020314378998955,1730020314378597021,3,2.58,-0.87,1.97,19.899620666666667,-83.77,-85.18
1730020314478901442,1730020314478644371,3,2.58,-0.87,1.97,19.993428,-84.25,-85.46
1730020314579843128,1730020314579678773,3,2.58,-0.87,1.97,20.074727666666668,-84.33,-87.07
1730020314679780111,1730020314679538011,3,2.58,-0.87,1.97,20.168535000000002,-84.12,-84.56
1730020314779600460,1730020314779364109,3,2.58,-0.87,1.97,20.256088,-83.18,-85.05
1730020314880068039,1730020314879807710,3,2.58,-0.87,1.97,20.324879666666664,-83.95,-85.89
1730020314979683165,1730020314979471206,3,2.58,-0.87,1.97,20.356148666666666,-84.96,-85.53
1730020315080144087,1730020315079930782,3,2.58,-0.87,1.97,20.349895,-85.47,-86.63
1730020315178911028,1730020315178752660,3,2.58,-0.87,1.97,20.343641333333334,-86.32,-87.35
1730020315778664389,1730020315778354644,3,2.58,-0.87,1.97,20.31862533333333,-86.65,-87.33
1730020315877649466,1730020315877274990,3,2.58,-0.87,1.97,20.306117333333333,-86.14,-86.83
1730020315977527738,1730020315977313280,3,2.58,-0.87,1.97,20.312371666666664,-86.33,-88.37
1730020316176507059,1730020316176111698,3,2.58,-0.87,1.97,20.293610333333334,-85.17,-86.15
1730020316577989875,1730020316577627182,3,2.58,-0.87,1.97,14.784004333333334,-84.76,-86.52
1730020316678394135,1730020316678137302,3,2.58,-0.87,1.97,14.784004333333334,-84.78,-87.25
1730020316779674709,1730020316779451608,3,2.58,-0.87,1.97,20.256086999999997,-84.6,-85.58
1730020316879877733,1730020316879771232,3,2.58,-0.87,1.97,20.237325666666667,-84.53,-85.75
1730020316978555504,1730020316978343725,3,2.58,-0.87,1.97,20.212310000000002,-84.06,-85.45
1730020317079935788,1730020317079736948,3,2.58,-0.87,1.97,20.18729533333333,-84.09,-85.05
1730020317180798419,1730020317180380344,3,2.58,-0.87,1.97,20.174787666666663,-84.08,-85.16
1730020317280909648,1730020317280488491,3,2.58,-0.87,1.97,20.131011666666666,-84.06,-85.55
1730020317380417369,1730020317380240201,3,2.58,-0.87,1.97,20.099742666666668,-83.96,-85.29
1730020317478892719,1730020317478652477,3,2.58,-0.87,1.97,20.068473666666666,-83.73,-84.55
1730020317579063124,1730020317578784942,3,2.58,-0.87,1.97,20.037204333333335,-83.42,-84.23
1730020317679153976,1730020317678966522,3,2.58,-0.87,1.97,19.980919666666665,-83.72,-85.22
1730020317779206460,1730020317778967380,3,2.58,-0.87,1.97,19.930889333333337,-83.15,-83.83
1730020317879293740,1730020317879015207,3,2.58,-0.87,1.97,19.887112666666667,-83.4,-84.42
1730020317979284274,1730020317978944540,3,2.58,-0.87,1.97,19.880859,-83.0,-83.74
1730020318080601087,1730020318080308914,3,2.58,-0.87,1.97,19.830828666666665,-82.52,-82.99
1730020318179540753,1730020318179435968,3,2.58,-0.87,1.97,19.799559666666667,-82.46,-82.84
1730020318279097710,1730020318278766870,3,2.58,-0.87,1.97,19.712006000000002,-82.16,-82.58
1730020318379869157,1730020318379595994,3,2.58,-0.87,1.97,19.668229,-82.08,-83.46
1730020318479101742,1730020318478911638,3,2.58,-0.87,1.97,19.618198333333336,-81.87,-82.83
1730020318578819372,1730020318578691005,3,2.58,-0.87,1.97,19.574422333333334,-81.65,-82.21
1730020318679012509,1730020318678701639,3,2.58,-0.87,1.97,19.499377,-81.74,-82.55
1730020318779553854,1730020318779308080,3,2.58,-0.87,1.97,19.44309266666667,-81.96,-83.19
1730020318879170992,1730020318879057168,3,2.58,-0.87,1.97,19.386808,-81.18,-81.57
1730020318979647991,1730020318979249000,3,2.58,-0.87,1.97,19.330523666666668,-81.48,-82.03
1730020319078892953,1730020319078627824,3,2.58,-0.87,1.97,19.249223999999998,-81.39,-81.36
1730020319179540149,1730020319179132461,3,2.58,-0.87,1.97,19.167924333333332,-81.09,-81.69
1730020319278723953,1730020319278479099,3,2.58,-0.87,1.97,19.099132333333333,-81.15,-82.84
1730020319378881945,1730020319378632545,3,2.58,-0.87,1.97,19.017833,-80.99,-81.21
1730020319478656338,1730020319478415966,3,2.58,-0.87,1.97,18.96154866666667,-80.92,-81.13
1730020319579132479,1730020319578860998,3,2.58,-0.87,1.97,18.892756333333335,-80.76,-80.98
1730020319678877216,1730020319678695917,3,2.58,-0.87,1.97,18.836472333333337,-80.94,-82.5
1730020319779040813,1730020319778720617,3,2.58,-0.87,1.97,18.748919333333333,-80.96,-81.29
1730020319878802705,1730020319878567218,3,2.58,-0.87,1.97,18.66762,-80.76,-81.56
1730020319978833473,1730020319978524446,3,2.58,-0.87,1.97,18.580066333333335,-81.07,-82.51
1730020320078732942,1730020320078579187,3,2.58,-0.87,1.97,18.530035666666667,-80.6,-80.89
1730020320178811065,1730020320178699731,3,2.58,-0.87,1.97,18.480005333333335,-82.57,-84.21
1730020320279410313,1730020320279065847,3,2.58,-0.87,1.97,18.40496,-81.76,-81.8
1730020320379176888,1730020320379002571,3,2.58,-0.87,1.97,18.323660666666665,-80.41,-80.72
1730020320479126610,1730020320478856563,3,2.58,-0.87,1.97,18.229853333333335,-80.39,-80.96
1730020320579363716,1730020320578945398,3,2.58,-0.87,1.97,18.161061,-81.16,-80.97
1730020320678785758,1730020320678458929,3,2.58,-0.87,1.97,18.073507333333335,-80.57,-81.17
1730020320778782431,1730020320778469800,3,2.58,-0.87,1.97,17.985954333333336,-80.45,-81.12
1730020320979539592,1730020320979149818,3,2.58,-0.87,1.97,17.873386,-80.81,-81.12
1730020321376450614,1730020321376111507,3,2.58,-0.87,1.97,17.491903333333333,-81.23,-81.24
1730020321476597593,1730020321476096868,3,2.58,-0.87,1.97,17.391842666666665,-81.31,-81.15
1730020321879680874,1730020321879457473,3,2.58,-0.87,1.97,17.085406333333335,-81.6,-83.72
1730020321976437726,1730020321976092576,3,2.58,-0.87,1.97,16.979091333333333,-81.91,-83.25
1730020322076663815,1730020322076151132,3,2.58,-0.87,1.97,16.897792,-82.18,-82.28
1730020322176612266,1730020322176171302,3,2.58,-0.87,1.97,16.803984666666665,-82.44,-85.16
1730020322276720281,1730020322276169538,3,2.58,-0.87,1.97,16.728939333333333,-83.1,-85.98
1730020322377869920,1730020322377648830,3,2.58,-0.87,1.97,16.622625,-83.38,-84.78
1730020322477836816,1730020322477598428,3,2.58,-0.87,1.97,16.528817666666665,-83.82,-85.36
1730020322577932734,1730020322577575206,3,2.58,-0.87,1.97,16.45377166666667,-82.59,-83.44
1730020322677809615,1730020322677509784,3,2.58,-0.87,1.97,16.366218,-83.46,-84.22
1730020322776694960,1730020322776115894,3,2.58,-0.87,1.97,16.272411,-81.99,-84.56
1730020322877791697,1730020322877469539,3,2.58,-0.87,1.97,16.153589,-81.68,-83.49
1730020322977808571,1730020322977529764,3,2.58,-0.87,1.97,16.053528333333333,-81.3,-82.62
1730020323078050350,1730020323077612400,3,2.58,-0.87,1.97,15.959721333333334,-81.7,-82.06
1730020323177770142,1730020323177470445,3,2.58,-0.87,1.97,15.872168000000002,-81.22,-81.85
1730020323277973953,1730020323277562379,3,2.58,-0.87,1.97,15.803376,-80.63,-82.25
1730020323378237126,1730020323377803802,3,2.58,-0.87,1.97,15.715822666666666,-80.47,-81.81
1730020323478061879,1730020323477830648,3,2.58,-0.87,1.97,15.634523,-80.44,-81.22
1730020323578608404,1730020323578285932,3,2.58,-0.87,1.97,15.528208333333334,-80.44,-81.22
1730020323678180576,1730020323677836894,3,2.58,-0.87,1.97,15.446909,-80.23,-80.88
1730020323776406736,1730020323776068687,3,2.58,-0.87,1.97,15.365609666666666,-80.44,-80.74
1730020323876825308,1730020323876124620,3,2.58,-0.87,1.97,15.278056333333334,-80.27,-80.48
1730020323976584873,1730020323976096153,3,2.58,-0.87,1.97,15.190503,-80.13,-80.9
1730020324076443586,1730020324076095819,3,2.58,-0.87,1.97,15.096695666666667,-80.14,-80.77
1730020324176851810,1730020324176095485,3,2.58,-0.87,1.97,15.009142333333335,-79.61,-80.65
1730020324276767769,1730020324276150465,3,2.58,-0.87,1.97,14.909081,-79.91,-80.96
1730020324376755965,1730020324376112461,3,2.58,-0.87,1.97,14.821527666666668,-80.43,-80.68
1730020324476448513,1730020324476093530,3,2.58,-0.87,1.97,14.727720666666665,-80.11,-80.97
1730020324576424966,1730020324576078176,3,2.58,-0.87,1.97,14.633913999999999,-80.1,-80.65
1730020324676638130,1730020324676070213,3,2.58,-0.87,1.97,14.527599333333333,-79.91,-80.65
1730020324776797869,1730020324776140451,3,2.58,-0.87,1.97,14.446299666666667,-80.15,-80.67
1730020324880068140,1730020324879842281,3,2.58,-0.87,1.97,14.377507666666666,-80.42,-80.82
1730020324979794802,1730020324979569911,3,2.58,-0.87,1.97,14.296208333333334,-80.49,-81.17
1730020325080613655,1730020325080314874,3,2.58,-0.87,1.97,14.221162666666666,-80.6,-82.35
1730020325180147427,1730020325180003643,3,2.58,-0.87,1.97,14.127355333333332,-80.5,-81.37
1730020325280684569,1730020325280427455,3,2.58,-0.87,1.97,14.039802,-80.7,-82.47
1730020325380548812,1730020325380264759,3,2.58,-0.87,1.97,13.920979666666668,-80.96,-83.71
1730020325511287610,1730020325511099576,3,2.58,-0.87,1.97,13.839680000000001,-80.85,-83.68
1730020325581023140,1730020325580767631,3,2.58,-0.87,1.97,13.764634000000001,-81.29,-82.29
1730020325681767309,1730020325681464910,3,2.58,-0.87,1.97,13.689588333333333,-81.25,-82.46
1730020325781776657,1730020325781410455,3,2.58,-0.87,1.97,13.589527666666667,-81.41,-83.64
1730020325881264958,1730020325880877733,3,2.58,-0.87,1.97,13.495721000000001,-81.19,-82.51
1730020325979783820,1730020325979420185,3,2.58,-0.87,1.97,13.401914,-80.94,-82.18
1730020326379582782,1730020326379256248,3,2.58,-0.87,1.97,13.095477,-80.19,-80.99
1730020326478982568,1730020326478685379,3,2.58,-0.87,1.97,13.026684666666668,-79.95,-80.92
1730020326578921782,1730020326578630924,3,2.58,-0.87,1.97,12.939131333333334,-79.91,-80.94
1730020326679570417,1730020326678966045,3,2.58,-0.87,1.97,12.882846999999998,-80.8,-81.08
1730020326780927753,1730020326780611753,3,2.58,-0.87,1.97,12.814055000000002,-80.2,-81.19
1730020326878991118,1730020326878726720,3,2.58,-0.87,1.97,12.776531999999998,-80.14,-80.88
1730020326978875702,1730020326978662729,3,2.58,-0.87,1.97,12.688978666666666,-80.3,-80.88
1730020327078763437,1730020327078585863,3,2.58,-0.87,1.97,12.607679333333332,-80.25,-81.61
1730020327280611429,1730020327280339717,3,2.58,-0.87,1.97,12.526380000000001,-80.14,-80.93
1730020327380310914,1730020327379996776,3,2.58,-0.87,1.97,12.470095666666666,-80.92,-81.32
1730020327480632648,1730020327480396270,3,2.58,-0.87,1.97,12.413811333333333,-80.6,-80.82
1730020327580041792,1730020327579831838,3,2.58,-0.87,1.97,12.345019666666666,-80.9,-81.04
1730020327676808570,1730020327676154375,3,2.58,-0.87,1.97,12.294989333333334,-80.97,-81.28
1730020327776821456,1730020327776140213,3,2.58,-0.87,1.97,12.251213,-80.48,-81.32
1730020327876579060,1730020327876108646,3,2.58,-0.87,1.97,12.176167,-80.81,-81.15
1730020327976509933,1730020327976090908,3,2.58,-0.87,1.97,12.101121000000001,-81.67,-82.16
1730020328076405214,1730020328076065063,3,2.58,-0.87,1.97,12.038582666666668,-81.14,-82.42
1730020328176568855,1730020328176073074,3,2.58,-0.87,1.97,12.007313666666667,-81.72,-82.88
1730020328276542114,1730020328276081562,3,2.58,-0.87,1.97,11.963537333333335,-81.65,-82.54
1730020328377926829,1730020328377786874,3,2.58,-0.87,1.97,11.900999333333333,-81.52,-83.9
1730020328478238846,1730020328477780818,3,2.58,-0.87,1.97,11.850969,-82.29,-84.72
1730020328578188788,1730020328577695369,3,2.58,-0.87,1.97,11.782176999999999,-81.88,-83.45
1730020328677856214,1730020328677575826,3,2.58,-0.87,1.97,11.725892666666667,-82.39,-83.18
1730020328777899727,1730020328777678012,3,2.58,-0.87,1.97,11.669608333333334,-81.76,-84.65
1730020328878135775,1730020328877696990,3,2.58,-0.87,1.97,11.613324,-81.67,-84.38
1730020328977873179,1730020328977568626,3,2.58,-0.87,1.97,11.582055000000002,-82.69,-84.71
1730020329078074204,1730020329077707290,3,2.58,-0.87,1.97,11.519517,-82.17,-84.59
1730020329179058332,1730020329177747011,3,2.58,-0.87,1.97,11.475740666666667,-82.31,-85.52
1730020329278511000,1730020329278048753,3,2.58,-0.87,1.97,11.406948666666667,-81.66,-82.24
1730020329378176601,1730020329377887010,3,2.58,-0.87,1.97,11.356918,-81.5,-84.09
1730020329477944725,1730020329477749109,3,2.58,-0.87,1.97,11.319395,-81.76,-83.22
1730020329577718291,1730020329577409744,3,2.58,-0.87,1.97,11.256856999999998,-81.3,-81.49
1730020329677995140,1730020329677638053,3,2.58,-0.87,1.97,11.219334000000002,-81.73,-83.63
1730020329778425155,1730020329778010368,3,2.58,-0.87,1.97,11.163049666666666,-81.73,-82.81
1730020329877797458,1730020329877461671,3,2.58,-0.87,1.97,11.125526666666666,-81.06,-81.4
1730020329977870946,1730020329977520704,3,2.58,-0.87,1.97,11.081750333333332,-81.46,-81.43
1730020330077990848,1730020330077601194,3,2.58,-0.87,1.97,11.03172,-81.37,-81.79
1730020330177789538,1730020330177410840,3,2.58,-0.87,1.97,10.981689666666668,-81.02,-81.08
1730020330277958248,1730020330277704477,3,2.58,-0.87,1.97,10.925405333333332,-81.66,-81.99
1730020330377828843,1730020330377440690,3,2.58,-0.87,1.97,10.887882333333332,-81.45,-81.53
1730020330477755667,1730020330477483987,3,2.58,-0.87,1.97,10.844105666666666,-80.94,-81.84
1730020330577650315,1730020330577458620,3,2.58,-0.87,1.97,10.787821333333332,-81.36,-81.85
1730020330677891777,1730020330677485466,3,2.58,-0.87,1.97,10.744044666666667,-81.46,-81.82
1730020330777923045,1730020330777547836,3,2.58,-0.87,1.97,10.694014000000001,-81.43,-81.7
1730020330878696610,1730020330878425598,3,2.58,-0.87,1.97,10.643983333333333,-81.68,-81.81
1730020330978487643,1730020330978388547,3,2.58,-0.87,1.97,10.575191333333334,-81.73,-82.44
1730020331078822146,1730020331078531503,3,2.58,-0.87,1.97,10.543922333333333,-81.87,-82.29
1730020331178889042,1730020331178477764,3,2.58,-0.87,1.97,10.506399666666667,-82.41,-83.8
1730020331376324703,1730020331376104354,3,2.58,-0.87,1.97,10.475130666666667,-82.09,-83.72
1730020331476501918,1730020331476130008,3,2.58,-0.87,1.97,10.431354333333333,-81.34,-81.94
1730020331576553216,1730020331576103925,3,2.58,-0.87,1.97,10.393831333333333,-81.37,-81.61
1730020331676439409,1730020331676100254,3,2.58,-0.87,1.97,10.350055,-80.57,-81.82
1730020331776558938,1730020331776090145,3,2.58,-0.87,1.97,10.256247666666667,-80.08,-81.64
1730020331876719730,1730020331876168251,3,2.58,-0.87,1.97,10.162440666666667,-80.03,-80.95
1730020331978568666,1730020331978383541,3,2.58,-0.87,1.97,10.068633333333333,-80.66,-83.28
1730020332078837842,1730020332078649997,3,2.58,-0.87,1.97,10.018603,-80.92,-83.38
1730020332477715149,1730020332477414369,3,2.58,-0.87,1.97,9.893527,-80.03,-80.81
1730020332578627615,1730020332578404188,3,2.58,-0.87,1.97,9.737181666666666,-79.63,-80.49
1730020332779968368,1730020332779718399,3,2.58,-0.87,1.97,9.543313333333332,-80.09,-80.87
1730020332878764855,1730020332878607034,3,2.58,-0.87,1.97,9.443252333333334,-80.28,-81.14
1730020332978898738,1730020332978577375,3,2.58,-0.87,1.97,9.324429666666665,-79.83,-80.92
1730020333376478191,1730020333376122951,3,2.58,-0.87,1.97,8.961708999999999,-80.17,-81.52
1730020333476535415,1730020333476087808,3,2.58,-0.87,1.97,8.849140333333333,-80.91,-83.62
1730020333578334486,1730020333577685594,3,2.58,-0.87,1.97,8.749079333333334,-80.54,-80.95
1730020333677627029,1730020333677428007,3,2.58,-0.87,1.97,8.649018333333332,-79.89,-80.53
1730020333779495314,1730020333779388427,3,2.58,-0.87,1.97,8.561465,-80.04,-80.85
1730020333879376276,1730020333879191875,3,2.58,-0.87,1.97,8.467658,-79.86,-80.68
1730020333979229110,1730020333978857278,3,2.58,-0.87,1.97,8.373850666666666,-79.66,-80.45
1730020334079534227,1730020334079339265,3,2.58,-0.87,1.97,8.280043666666666,-79.4,-80.55
1730020334279011661,1730020334278899431,3,2.58,-0.87,1.97,8.142459666666666,-79.96,-81.12
1730020334476584217,1730020334476106166,3,2.58,-0.87,1.97,7.992368333333332,-80.85,-83.16
1730020334879271340,1730020334879025220,3,2.58,-0.87,1.97,7.5170786666666665,-79.54,-80.58
1730020334980374576,1730020334980038404,3,2.58,-0.87,1.97,7.448287,-79.84,-81.24
1730020335077860129,1730020335077599763,3,2.58,-0.87,1.97,7.360733666666666,-80.07,-81.54
1730020335177627619,1730020335177427053,3,2.58,-0.87,1.97,7.248165,-79.69,-81.29
1730020335279729825,1730020335279511451,3,2.58,-0.87,1.97,7.123088666666667,-79.95,-81.34
1730020335378810147,1730020335378705263,3,2.58,-0.87,1.97,6.991758666666667,-79.86,-80.78
1730020335479170107,1730020335478904247,3,2.58,-0.87,1.97,6.8916976666666665,-79.62,-80.48
1730020335579012531,1730020335578809499,3,2.58,-0.87,1.97,6.779129,-79.3,-80.89
1730020335678399337,1730020335678324460,3,2.58,-0.87,1.97,6.704083333333333,-80.17,-81.19
1730020335778974687,1730020335778795480,3,2.58,-0.87,1.97,6.610276333333334,-79.73,-80.8
1730020335878580824,1730020335878288745,3,2.58,-0.87,1.97,6.510215333333334,-79.63,-81.35
1730020335978655145,1730020335978382825,3,2.58,-0.87,1.97,6.4164080000000006,-79.67,-80.8
1730020336079069370,1730020336078685760,3,2.58,-0.87,1.97,6.310092999999999,-79.95,-80.93
1730020336179382082,1730020336179103136,3,2.58,-0.87,1.97,6.210032000000001,-79.83,-81.25
1730020336280326086,1730020336280057668,3,2.58,-0.87,1.97,6.072448333333334,-79.71,-80.9
1730020336379712074,1730020336379486799,3,2.58,-0.87,1.97,5.934864666666667,-79.87,-81.14
1730020336483299142,1730020336482272863,3,2.58,-0.87,1.97,5.841057666666667,-80.12,-81.01
1730020336580363153,1730020336579978227,3,2.58,-0.87,1.97,5.766012,-78.99,-81.07
1730020336680405968,1730020336680241346,3,2.58,-0.87,1.97,5.684712333333334,-79.86,-83.38
1730020336780306071,1730020336779510021,3,2.58,-0.87,1.97,5.547128666666666,-79.65,-80.85
1730020336878909646,1730020336878635883,3,2.58,-0.87,1.97,5.415798666666667,-79.96,-80.77
1730020336978667988,1730020336978563547,3,2.58,-0.87,1.97,5.303230333333333,-79.5,-81.2
1730020337079382124,1730020337079016923,3,2.58,-0.87,1.97,5.1969156666666665,-79.35,-80.97
1730020337178872591,1730020337178615093,3,2.58,-0.87,1.97,5.0780933333333325,-80.16,-81.38
1730020337279280033,1730020337279098987,3,2.58,-0.87,1.97,4.953017,-80.3,-80.9
1730020337379017294,1730020337378769636,3,2.58,-0.87,1.97,4.865463666666667,-79.1,-80.99
1730020337479013215,1730020337478778123,3,2.58,-0.87,1.97,4.7966716666666676,-79.47,-82.6
1730020337578842411,1730020337578584909,3,2.58,-0.87,1.97,4.702864666666667,-79.68,-81.22
1730020337679244928,1730020337678812980,3,2.58,-0.87,1.97,4.596549666666667,-79.44,-80.76
1730020337778999492,1730020337778806686,3,2.58,-0.87,1.97,4.465219666666667,-79.61,-81.17
1730020337878778064,1730020337878542184,3,2.58,-0.87,1.97,4.365158666666667,-79.16,-80.89
1730020337978766286,1730020337978547096,3,2.58,-0.87,1.97,4.252590333333333,-79.88,-81.18
1730020338079505606,1730020338079250097,3,2.58,-0.87,1.97,4.152529333333334,-78.81,-80.61
1730020338178779602,1730020338178541898,3,2.58,-0.87,1.97,4.0399606666666665,-79.19,-80.37
1730020338279020021,1730020338278743028,3,2.58,-0.87,1.97,3.946153333333333,-79.06,-81.28
1730020338479154330,1730020338478754281,3,2.58,-0.87,1.97,3.802315666666667,-79.56,-81.03
1730020339079747751,1730020339079395294,3,2.58,-0.87,1.97,3.1831886666666667,-79.5,-80.73
1730020339176505276,1730020339176120042,3,2.58,-0.87,1.97,3.0956353333333335,-80.55,-84.31
1730020339276601736,1730020339276103258,3,2.58,-0.87,1.97,3.008082,-79.82,-83.5
1730020339376428224,1730020339376106739,3,2.58,-0.87,1.97,2.9392899999999997,-79.97,-84.42
1730020339476472641,1730020339476115226,3,2.58,-0.87,1.97,2.8329753333333336,-80.48,-84.22
1730020339576434389,1730020339576104402,3,2.58,-0.87,1.97,2.757929666666666,-81.65,-86.4
1730020339676454658,1730020339676102876,3,2.58,-0.87,1.97,2.6828839999999996,-81.3,-86.63
1730020339776449657,1730020339776103734,3,2.58,-0.87,1.97,2.626599666666667,-80.47,-82.45
1730020339876426446,1730020339876105308,3,2.58,-0.87,1.97,2.5265386666666667,-79.91,-81.83
1730020339976461060,1730020339976106643,3,2.58,-0.87,1.97,2.4077163333333336,-79.03,-81.16
1730020340076455242,1730020340076105356,3,2.58,-0.87,1.97,2.288894,-79.54,-81.78
1730020340181357779,1730020340181170225,3,2.58,-0.87,1.97,2.1763256666666666,-79.08,-80.6
1730020340276595438,1730020340276053667,3,2.58,-0.87,1.97,2.095026333333333,-80.49,-82.21
1730020340376576758,1730020340376089572,3,2.58,-0.87,1.97,2.0012193333333332,-78.55,-81.17
1730020340476506683,1730020340476079940,3,2.58,-0.87,1.97,1.9074119999999999,-79.05,-80.67
1730020340579504666,1730020340579332590,3,2.58,-0.87,1.97,1.7948433333333333,-78.78,-80.69
1730020340679728062,1730020340679542303,3,2.58,-0.87,1.97,1.7135436666666666,-78.76,-80.8
1730020340780093965,1730020340779770135,3,2.58,-0.87,1.97,1.6572593333333332,-78.86,-80.66
1730020340879908950,1730020340879646062,3,2.58,-0.87,1.97,1.5947213333333334,-78.47,-80.43
1730020340979298850,1730020340979048490,3,2.58,-0.87,1.97,1.538437,-78.95,-80.94
1730020341079094567,1730020341078839063,3,2.58,-0.87,1.97,1.5009143333333335,-78.77,-80.99
1730020341179243500,1730020341178946733,3,2.58,-0.87,1.97,1.4633913333333333,-78.71,-81.19
1730020341278909323,1730020341278650522,3,2.58,-0.87,1.97,1.425868666666667,-78.31,-80.58
1730020341379348365,1730020341379073381,3,2.58,-0.87,1.97,1.375838,-78.93,-81.0
1730020341479026861,1730020341478722095,3,2.58,-0.87,1.97,1.363330333333333,-78.6,-80.42
1730020341578931303,1730020341578634023,3,2.58,-0.87,1.97,1.3570763333333333,-78.58,-80.52
1730020341678940446,1730020341678735256,3,2.58,-0.87,1.97,1.394599333333333,-78.34,-80.56
1730020341779029569,1730020341778797626,3,2.58,-0.87,1.97,1.425868333333333,-78.24,-80.52
1730020341878754692,1730020341878496885,3,2.58,-0.87,1.97,1.4633913333333333,-78.73,-80.69
1730020341980259948,1730020341980070829,3,2.58,-0.87,1.97,1.4946603333333333,-78.73,-80.75
1730020342078593759,1730020342078414440,3,2.58,-0.87,1.97,1.538437,-78.65,-80.58
1730020342180182704,1730020342180032253,3,2.58,-0.87,1.97,1.6259903333333332,-79.39,-80.84
1730020342280205882,1730020342279904603,3,2.58,-0.87,1.97,1.763574,-79.95,-85.74
1730020342379950208,1730020342379592180,3,2.58,-0.87,1.97,1.9574423333333335,-81.28,-91.42
1730020342479987642,1730020342479789733,3,2.58,-0.87,1.97,2.088772333333333,-82.34,-86.59
1730020342582159640,1730020342581885814,3,2.58,-0.87,1.97,2.1638183333333334,-80.68,-85.79
1730020342679066089,1730020342678802967,3,2.58,-0.87,1.97,2.1950873333333334,-80.49,-83.71
1730020342779112672,1730020342778794050,3,2.58,-0.87,1.97,2.245117666666667,-80.2,-82.36
1730020342879455483,1730020342879141569,3,2.58,-0.87,1.97,2.326417,-80.54,-84.63
1730020342978888548,1730020342978558540,3,2.58,-0.87,1.97,2.4139703333333333,-79.91,-84.77
1730020343079084751,1730020343078801631,3,2.58,-0.87,1.97,2.501523666666667,-81.72,-84.77
1730020343179008942,1730020343178632259,3,2.58,-0.87,1.97,2.5890769999999996,-80.21,-85.8
1730020343279106624,1730020343278805732,3,2.58,-0.87,1.97,2.657868666666667,-80.61,-84.09
1730020343379768409,1730020343379686832,3,2.58,-0.87,1.97,2.7704373333333336,-81.84,-82.91
1730020343479304356,1730020343479093551,3,2.58,-0.87,1.97,2.832975333333333,-80.64,-86.42
1730020343677926514,1730020343677654504,3,2.58,-0.87,1.97,2.9267826666666665,-83.11,-88.67
1730020343777884801,1730020343777568817,3,2.58,-0.87,1.97,3.045605,-82.51,-89.85
1730020344278694528,1730020344278473615,3,2.58,-0.87,1.97,3.15192,-86.38,-105.49
1730020344376398749,1730020344376089334,3,2.58,-0.87,1.97,3.2394733333333328,-84.26,-98.48
1730020344477715214,1730020344477516889,3,2.58,-0.87,1.97,3.339534,-82.05,-98.25
1730020344579373743,1730020344579288244,3,2.58,-0.87,1.97,3.627209333333333,-80.85,-83.17
1730020344679468181,1730020344679380893,3,2.58,-0.87,1.97,3.802316,-82.13,-91.97
1730020344779712799,1730020344779624700,3,2.58,-0.87,1.97,3.9336463333333334,-82.98,-91.76
1730020344879028354,1730020344878589630,3,2.58,-0.87,1.97,3.9273923333333336,-81.75,-90.58
1730020344977995151,1730020344977625131,3,2.58,-0.87,1.97,4.021199333333333,-80.39,-89.45
1730020345077768880,1730020345077423572,3,2.58,-0.87,1.97,4.1650366666666665,-80.81,-85.27
1730020345177595011,1730020345177359342,3,2.58,-0.87,1.97,4.25259,-83.57,-88.42
1730020345277622432,1730020345277417182,3,2.58,-0.87,1.97,4.371412333333333,-81.32,-85.39
1730020345378619036,1730020345378409624,3,2.58,-0.87,1.97,4.446458333333333,-82.66,-87.5
1730020345479176552,1730020345478937864,3,2.58,-0.87,1.97,4.534011666666666,-85.22,-89.57
1730020345578709002,1730020345578490257,3,2.58,-0.87,1.97,4.609057333333333,-83.14,-89.42
1730020345678041616,1730020345677636861,3,2.58,-0.87,1.97,4.7278796666666665,-81.99,-86.39
1730020345777646903,1730020345777376651,3,2.58,-0.87,1.97,4.7966716666666676,-85.78,-93.35
1730020345877676027,1730020345877452135,3,2.58,-0.87,1.97,4.871717666666666,-84.69,-92.86
1730020345976570009,1730020345976065635,3,2.58,-0.87,1.97,4.921748,-82.76,-92.39
1730020346076769977,1730020346076103925,3,2.58,-0.87,1.97,5.065585666666667,-82.46,-90.67
1730020346176545318,1730020346176050901,3,2.58,-0.87,1.97,5.146885,-83.13,-94.82
1730020346276526013,1730020346276070356,3,2.58,-0.87,1.97,5.246946,-82.57,-93.57
1730020346376402662,1730020346376081466,3,2.58,-0.87,1.97,5.365768333333333,-82.32,-86.95
1730020346476566546,1730020346476089715,3,2.58,-0.87,1.97,5.553382666666667,-83.1,-87.37
1730020346576519809,1730020346576080560,3,2.58,-0.87,1.97,5.665951,-84.72,-89.7
1730020346676398592,1730020346676062345,3,2.58,-0.87,1.97,5.740996666666668,-84.72,-93.75
1730020346776511493,1730020346776080131,3,2.58,-0.87,1.97,5.816042333333333,-84.16,-86.55
1730020346876264583,1730020346876101493,3,2.58,-0.87,1.97,5.972387666666667,-84.07,-85.18
1730020346976658908,1730020346976132869,3,2.58,-0.87,1.97,6.116225333333333,-82.95,-84.27
1730020347076919447,1730020347076228618,3,2.58,-0.87,1.97,6.2225399999999995,-82.5,-87.06
1730020347176328295,1730020347176076173,3,2.58,-0.87,1.97,6.2850779999999995,-83.21,-89.45
1730020347276645778,1730020347276087284,3,2.58,-0.87,1.97,6.353870000000001,-82.57,-87.93
1730020347376716129,1730020347376124858,3,2.58,-0.87,1.97,6.4852,-82.51,-84.41
1730020347476861686,1730020347476159334,3,2.58,-0.87,1.97,6.647799333333334,-82.62,-83.14
1730020347678914456,1730020347678524494,3,2.58,-0.87,1.97,6.816652,-82.16,-85.56
1730020347780416125,1730020347780066013,3,2.58,-0.87,1.97,6.9042053333333335,-83.42,-88.81
1730020347879877066,1730020347879579544,3,2.58,-0.87,1.97,6.9855046666666665,-84.28,-88.28
1730020347979080715,1730020347978789091,3,2.58,-0.87,1.97,7.091819666666667,-83.56,-84.42
1730020348078986176,1730020348078649044,3,2.58,-0.87,1.97,7.254418666666666,-83.06,-82.92
1730020348179414101,1730020348179071903,3,2.58,-0.87,1.97,7.4045103333333335,-82.74,-82.95
1730020348380172392,1730020348380010843,3,2.58,-0.87,1.97,7.5170786666666665,-82.71,-84.0
1730020348481663345,1730020348481457233,3,2.58,-0.87,1.97,7.598378333333334,-84.39,-86.41
1730020348580165404,1730020348579903602,3,2.58,-0.87,1.97,7.685931666666668,-83.91,-87.38
1730020348680526348,1730020348680157423,3,2.58,-0.87,1.97,7.811008,-82.79,-84.35
1730020348780063887,1730020348779920578,3,2.58,-0.87,1.97,7.942338333333335,-82.38,-83.89
1730020348879957678,1730020348879595518,3,2.58,-0.87,1.97,8.079922000000002,-82.07,-82.33
1730020348979817343,1730020348979715347,3,2.58,-0.87,1.97,8.192490666666666,-81.58,-81.6
1730020349079967630,1730020349079735040,3,2.58,-0.87,1.97,8.305059,-82.3,-82.83
1730020349179867065,1730020349179671049,3,2.58,-0.87,1.97,8.411373666666668,-83.27,-86.18
1730020349276473702,1730020349276110410,3,2.58,-0.87,1.97,8.486419333333332,-84.2,-87.62
1730020349578793436,1730020349578524112,3,2.58,-0.87,1.97,8.711556666666667,-82.68,-83.28
1730020349678621070,1730020349678452730,3,2.58,-0.87,1.97,8.905425,-82.37,-83.14
1730020349779208224,1730020349779037952,3,2.58,-0.87,1.97,9.143069666666667,-86.24,-85.77
1730020350377641194,1730020350377467632,3,2.58,-0.87,1.97,9.630866333333332,-86.51,-88.0
1730020350476489956,1730020350476300001,3,2.58,-0.87,1.97,9.805973,-85.61,-86.13
1730020350576663784,1730020350576114177,3,2.58,-0.87,1.97,9.987333666666666,-84.21,-84.84
1730020350678403380,1730020350677979230,3,2.58,-0.87,1.97,10.106156,-84.13,-84.84
1730020350879281287,1730020350878921985,3,2.58,-0.87,1.97,10.243739666666666,-83.88,-84.41
1730020351279012437,1730020351278785228,3,2.58,-0.87,1.97,10.625222333333333,-87.08,-88.97
1730020351380294848,1730020351380093097,3,2.58,-0.87,1.97,10.744045,-86.17,-86.56
1730020351478121129,1730020351477844238,3,2.58,-0.87,1.97,10.856613666666668,-86.02,-89.86
1730020351577934032,1730020351577509403,3,2.58,-0.87,1.97,10.987943333333334,-85.38,-87.63
1730020351677603659,1730020351677341699,3,2.58,-0.87,1.97,11.094257666666666,-85.01,-86.29
1730020351778052020,1730020351777713775,3,2.58,-0.87,1.97,11.21308,-83.26,-82.93
1730020351877881156,1730020351877459526,3,2.58,-0.87,1.97,11.350663666666668,-82.61,-82.27
1730020351977724060,1730020351977475166,3,2.58,-0.87,1.97,11.481994,-82.62,-82.75
1730020352078196922,1730020352077853679,3,2.58,-0.87,1.97,11.625831666666665,-82.01,-82.17
1730020352177974829,1730020352177670478,3,2.58,-0.87,1.97,11.732146666666667,-81.82,-82.34
1730020352277895495,1730020352277645111,3,2.58,-0.87,1.97,11.850968666666667,-81.79,-82.07
1730020352378320959,1730020352377953052,3,2.58,-0.87,1.97,11.944775333333334,-81.73,-82.86
1730020352478835148,1730020352478503942,3,2.58,-0.87,1.97,12.038582666666668,-82.28,-82.54
1730020352577871206,1730020352577580690,3,2.58,-0.87,1.97,12.113628666666665,-82.0,-82.16
1730020352677650790,1730020352677432775,3,2.58,-0.87,1.97,12.188674666666666,-81.81,-82.2
1730020352778270554,1730020352777942180,3,2.58,-0.87,1.97,12.282481666666664,-82.03,-81.95
1730020352877549535,1730020352877422571,3,2.58,-0.87,1.97,12.407558,-83.53,-83.31
1730020352977794705,1730020352977585554,3,2.58,-0.87,1.97,12.513872666666666,-88.47,-91.56
1730020353077892268,1730020353077652692,3,2.58,-0.87,1.97,12.520126333333332,-90.46,-98.18
1730020353177857362,1730020353177500724,3,2.58,-0.87,1.97,12.638948333333333,-83.66,-85.73
1730020353278458013,1730020353278098583,3,2.58,-0.87,1.97,12.732755666666668,-81.68,-83.9
1730020353377887496,1730020353377483844,3,2.58,-0.87,1.97,12.889101333333334,-81.26,-82.32
1730020353479681993,1730020353479291200,3,2.58,-0.87,1.97,12.895355333333333,-81.08,-82.62
1730020353578931821,1730020353578617334,3,2.58,-0.87,1.97,12.901609333333333,-81.04,-82.36
1730020353678701214,1730020353678567171,3,2.58,-0.87,1.97,12.895355333333333,-81.3,-81.48
1730020353778974330,1730020353778716564,3,2.58,-0.87,1.97,12.864086333333333,-80.69,-81.6
1730020353878673930,1730020353878470182,3,2.58,-0.87,1.97,12.845324666666668,-80.9,-81.88
1730020353978605138,1730020353978389263,3,2.58,-0.87,1.97,12.807801666666668,-80.4,-81.24
1730020354078867834,1730020354078556776,3,2.58,-0.87,1.97,12.789040333333332,-80.34,-80.89
1730020354178704580,1730020354178438663,3,2.58,-0.87,1.97,12.757771,-80.32,-81.22
1730020354279595940,1730020354279387235,3,2.58,-0.87,1.97,12.745263666666666,-79.92,-81.78
1730020354378615883,1730020354378515720,3,2.58,-0.87,1.97,12.732755666666668,-79.71,-81.1
1730020354478812307,1730020354478642225,3,2.58,-0.87,1.97,12.720248333333332,-79.98,-81.31
1730020354578764167,1730020354578539371,3,2.58,-0.87,1.97,12.688978999999998,-79.86,-81.05
1730020354678923319,1730020354678744316,3,2.58,-0.87,1.97,12.65771,-79.77,-81.05
1730020354778632727,1730020354778470993,3,2.58,-0.87,1.97,12.638948333333332,-79.75,-81.32
1730020354879003800,1730020354878674030,3,2.58,-0.87,1.97,12.657709666666667,-80.0,-80.96
1730020354978884966,1730020354978650093,3,2.58,-0.87,1.97,12.632694666666666,-79.93,-80.78
1730020355078625794,1730020355078405380,3,2.58,-0.87,1.97,12.620187333333334,-80.08,-81.3
1730020355479975868,1730020355479776144,3,2.58,-0.87,1.97,12.526380333333334,-79.88,-81.03
1730020356176718404,1730020356176148414,3,2.58,-0.87,1.97,12.138644,-79.92,-80.95
1730020356280014064,1730020356279762029,3,2.58,-0.87,1.97,12.082359666666667,-79.74,-80.79
1730020356380600941,1730020356380346536,3,2.58,-0.87,1.97,12.007314333333333,-80.24,-81.18
1730020356479954654,1730020356479650259,3,2.58,-0.87,1.97,11.944776,-80.31,-80.84
1730020356580592030,1730020356580395698,3,2.58,-0.87,1.97,11.882238,-79.7,-80.65
1730020356679728234,1730020356679567575,3,2.58,-0.87,1.97,11.838461,-80.34,-81.08
1730020356780538237,1730020356780234575,3,2.58,-0.87,1.97,11.763415666666667,-80.21,-80.9
1730020356879894048,1730020356879540443,3,2.58,-0.87,1.97,11.707131333333335,-80.05,-81.07
1730020356980263014,1730020356979961395,3,2.58,-0.87,1.97,11.632085666666667,-80.11,-80.99
1730020357079953431,1730020357079617738,3,2.58,-0.87,1.97,11.563293666666667,-80.2,-81.29
1730020357179158106,1730020357178948163,3,2.58,-0.87,1.97,11.494501666666666,-80.22,-81.04
1730020357279907598,1730020357279665231,3,2.58,-0.87,1.97,11.413202333333336,-80.64,-82.01
1730020357378964414,1730020357378723621,3,2.58,-0.87,1.97,11.350664,-81.62,-83.91
1730020357479526642,1730020357479046583,3,2.58,-0.87,1.97,11.275618333333332,-81.24,-81.78
1730020357578701775,1730020357578615665,3,2.58,-0.87,1.97,11.206826333333332,-82.2,-83.57
1730020357679637079,1730020357679335355,3,2.58,-0.87,1.97,11.113019333333334,-81.5,-81.74
1730020357779039470,1730020357778811216,3,2.58,-0.87,1.97,11.025466,-81.22,-81.71
1730020357879290303,1730020357878925323,3,2.58,-0.87,1.97,10.937912666666668,-81.09,-82.13
1730020357979207231,1730020357978940010,3,2.58,-0.87,1.97,10.875374666666668,-80.84,-82.15
1730020358079078668,1730020358078876018,3,2.58,-0.87,1.97,10.794075333333332,-80.28,-80.98
1730020358179033835,1730020358178763151,3,2.58,-0.87,1.97,10.731537000000001,-80.28,-80.9
1730020358278807882,1730020358278576612,3,2.58,-0.87,1.97,10.643983666666665,-79.96,-80.83
1730020358379899866,1730020358379579305,3,2.58,-0.87,1.97,10.562683999999999,-80.29,-81.0
1730020358479079857,1730020358478836536,3,2.58,-0.87,1.97,10.450115666666667,-79.93,-80.89
1730020358579555942,1730020358579443454,3,2.58,-0.87,1.97,10.350054666666667,-80.44,-81.05
1730020358679456050,1730020358679127693,3,2.58,-0.87,1.97,10.262501333333335,-79.79,-80.77
1730020358779255178,1730020358778977394,3,2.58,-0.87,1.97,10.206217,-80.77,-81.19
1730020358879169874,1730020358878829717,3,2.58,-0.87,1.97,10.137425,-80.12,-80.94
1730020358978996417,1730020358978774785,3,2.58,-0.87,1.97,10.043618,-80.51,-83.47
1730020359079493099,1730020359079107284,3,2.58,-0.87,1.97,9.949810666666666,-81.32,-84.57
1730020359179613585,1730020359179333448,3,2.58,-0.87,1.97,9.849749666666666,-81.18,-83.14
1730020359279212801,1730020359279113531,3,2.58,-0.87,1.97,9.774704,-80.23,-81.54
1730020359378972612,1730020359378640174,3,2.58,-0.87,1.97,9.687150666666668,-80.49,-81.6
1730020359479317617,1730020359479215621,3,2.58,-0.87,1.97,9.605851333333334,-79.9,-81.12
1730020359578928924,1730020359578660011,3,2.58,-0.87,1.97,9.499536333333333,-80.01,-80.77
1730020359678877218,1730020359678638696,3,2.58,-0.87,1.97,9.399475666666666,-79.88,-80.56
1730020359780106776,1730020359779872179,3,2.58,-0.87,1.97,9.311922333333333,-80.18,-80.62
1730020359879175465,1730020359878926992,3,2.58,-0.87,1.97,9.218115333333333,-79.95,-80.46
1730020359978951213,1730020359978648662,3,2.58,-0.87,1.97,9.124308,-80.21,-80.96
1730020360078815271,1730020360078545570,3,2.58,-0.87,1.97,9.005485666666667,-80.02,-81.39
1730020360179420483,1730020360179149150,3,2.58,-0.87,1.97,8.905424666666667,-80.34,-81.18
1730020360279078815,1730020360278820514,3,2.58,-0.87,1.97,8.811617666666665,-80.02,-82.7
1730020360378733132,1730020360378553628,3,2.58,-0.87,1.97,8.736572,-80.1,-82.71
1730020360479138825,1730020360478805065,3,2.58,-0.87,1.97,8.636511333333333,-79.81,-81.15
1730020360578571513,1730020360578272581,3,2.58,-0.87,1.97,8.530196666666667,-79.86,-80.78
1730020360676545816,1730020360676155090,3,2.58,-0.87,1.97,8.442643333333335,-80.24,-81.18
1730020360776459365,1730020360776114463,3,2.58,-0.87,1.97,8.348836,-80.05,-80.56
1730020360876430153,1730020360876098394,3,2.58,-0.87,1.97,8.255028666666666,-80.0,-80.89
1730020361077778026,1730020361077471971,3,2.58,-0.87,1.97,8.123698333333332,-79.96,-81.37
1730020361477750546,1730020361477521181,3,2.58,-0.87,1.97,7.723453999999999,-79.69,-80.68
1730020361578449773,1730020361578117847,3,2.58,-0.87,1.97,7.610885333333333,-80.08,-81.06
1730020361679826930,1730020361679619550,3,2.58,-0.87,1.97,7.504570666666666,-80.82,-81.08
1730020361776622231,1730020361776180744,3,2.58,-0.87,1.97,7.398256,-80.11,-80.95
1730020361876451425,1730020361876100778,3,2.58,-0.87,1.97,7.298195,-79.92,-81.68
1730020361978244365,1730020361977921485,3,2.58,-0.87,1.97,7.198134,-80.12,-82.94
1730020362076602404,1730020362076072216,3,2.58,-0.87,1.97,7.116834333333333,-79.86,-81.94
1730020362176494423,1730020362176091194,3,2.58,-0.87,1.97,7.035535,-79.54,-81.82
1730020362276571604,1730020362276101112,3,2.58,-0.87,1.97,6.960489333333332,-79.82,-81.1
1730020362376263630,1730020362376081943,3,2.58,-0.87,1.97,6.860428666666667,-80.84,-81.44
1730020362476652122,1730020362476086378,3,2.58,-0.87,1.97,6.772875333333334,-80.37,-80.87
1730020362576459707,1730020362576106548,3,2.58,-0.87,1.97,6.679068333333333,-80.35,-80.76
1730020362676416760,1730020362676059961,3,2.58,-0.87,1.97,6.6165303333333325,-80.23,-82.99
1730020362776563102,1730020362776076078,3,2.58,-0.87,1.97,6.535231,-80.2,-80.92
1730020362876529219,1730020362876098632,3,2.58,-0.87,1.97,6.43517,-80.12,-80.88
1730020362976617701,1730020362976108789,3,2.58,-0.87,1.97,6.297586,-80.48,-80.61
1730020363076319933,1730020363076090812,3,2.58,-0.87,1.97,6.1850173333333345,-80.35,-80.86
1730020363176411913,1730020363176069974,3,2.58,-0.87,1.97,6.0974639999999996,-80.62,-82.13
1730020363276439410,1730020363276107311,3,2.58,-0.87,1.97,6.041179666666667,-79.98,-82.95
1730020363376641546,1730020363376123189,3,2.58,-0.87,1.97,5.959879999999999,-79.94,-81.08
1730020363476587768,1730020363476135015,3,2.58,-0.87,1.97,5.891088,-80.54,-81.1
1730020363576556509,1730020363576146125,3,2.58,-0.87,1.97,5.791027,-80.86,-81.2
1730020363676480271,1730020363676086902,3,2.58,-0.87,1.97,5.709727666666666,-80.47,-82.34
1730020363776446764,1730020363776076793,3,2.58,-0.87,1.97,5.6159203333333325,-80.12,-82.89
1730020363876855619,1730020363876125812,3,2.58,-0.87,1.97,5.547128666666667,-80.32,-82.77
1730020363980535792,1730020363980322122,3,2.58,-0.87,1.97,5.4720830000000005,-80.76,-81.4
1730020364080044232,1730020364079762697,3,2.58,-0.87,1.97,5.378276,-81.28,-81.99
1730020364180587212,1730020364180378675,3,2.58,-0.87,1.97,5.284469,-81.67,-84.48
1730020364279716132,1730020364279457807,3,2.58,-0.87,1.97,5.209423,-81.15,-83.37
1730020364380169314,1730020364379899978,3,2.58,-0.87,1.97,5.140631333333333,-81.13,-81.88
1730020364576531916,1730020364576074600,3,2.58,-0.87,1.97,5.034316333333333,-81.58,-83.86
1730020364977828118,1730020364977587699,3,2.58,-0.87,1.97,4.634072333333333,-79.68,-82.87
1730020365077866160,1730020365077655792,3,2.58,-0.87,1.97,4.559026666666667,-79.7,-84.73
1730020365179801421,1730020365179691791,3,2.58,-0.87,1.97,4.496488666666667,-79.86,-83.86
1730020365280657768,1730020365280304908,3,2.58,-0.87,1.97,4.415189333333333,-80.64,-81.55
1730020365380040701,1730020365379793405,3,2.58,-0.87,1.97,4.33389,-79.8,-81.28
1730020365480938521,1730020365480731487,3,2.58,-0.87,1.97,4.271352,-79.32,-82.46
1730020365580070303,1730020365579850912,3,2.58,-0.87,1.97,4.20256,-79.07,-82.75
1730020365679946705,1730020365679631710,3,2.58,-0.87,1.97,4.127514000000001,-78.84,-80.76
1730020365780473027,1730020365780147314,3,2.58,-0.87,1.97,4.0399606666666665,-79.84,-81.15
1730020365879582797,1730020365879373550,3,2.58,-0.87,1.97,3.964915,-78.94,-81.08
1730020366076548710,1730020366076129436,3,2.58,-0.87,1.97,3.8898693333333334,-78.65,-80.85
1730020366476579482,1730020366476102352,3,2.58,-0.87,1.97,3.6021936666666665,-79.69,-81.18
1730020366576460588,1730020366576086044,3,2.58,-0.87,1.97,3.564671,-79.93,-80.92
1730020366781170792,1730020366780905961,3,2.58,-0.87,1.97,3.5146406666666667,-79.34,-80.73
1730020366880098401,1730020366879883289,3,2.58,-0.87,1.97,3.4833716666666668,-79.53,-80.89
1730020366976301895,1730020366976073980,3,2.58,-0.87,1.97,3.439595,-79.32,-81.04
1730020367078309699,1730020367077847242,3,2.58,-0.87,1.97,3.427087333333333,-79.31,-80.69
1730020367278121884,1730020367277667284,3,2.58,-0.87,1.97,3.4208336666666668,-79.06,-80.69
