%time,field.stamp,field.id,field.x,field.y,field.z,field.distanceFromTag,field.rssi,field.rssi_fp
1730041400547932511,1730041400547452926,12,2.31,0.87,0.5,7.085565666666667,-79.72,-81.94
1730041400648435038,1730041400647834539,12,2.31,0.87,0.5,7.054296666666666,-79.44,-80.92
1730041400746429622,1730041400746034145,12,2.31,0.87,0.5,7.054296666666666,-79.79,-80.7
1730041400847527832,1730041400847369909,12,2.31,0.87,0.5,7.035535333333333,-79.88,-81.23
1730041400946488796,1730041400946003913,12,2.31,0.87,0.5,7.0417890000000005,-79.62,-80.85
1730041401049976228,1730041401049850940,12,2.31,0.87,0.5,7.035535,-79.63,-80.94
1730041401147825972,1730041401147476911,12,2.31,0.87,0.5,7.054296333333333,-79.81,-80.69
1730041401247635280,1730041401247417688,12,2.31,0.87,0.5,7.06055,-79.72,-80.9
1730041401347697054,1730041401347407817,12,2.31,0.87,0.5,7.048042666666667,-79.81,-81.21
1730041401447866321,1730041401447505950,12,2.31,0.87,0.5,7.029281333333333,-79.85,-80.96
1730041401547584093,1730041401547156572,12,2.31,0.87,0.5,7.041789333333334,-82.37,-82.53
1730041401647507837,1730041401647268772,12,2.31,0.87,0.5,7.054296666666667,-79.19,-80.94
1730041401748970326,1730041401748658657,12,2.31,0.87,0.5,7.060550333333333,-79.52,-80.75
1730041401848214244,1730041401847861528,12,2.31,0.87,0.5,7.035535,-79.65,-81.11
1730041401948212242,1730041401948146581,12,2.31,0.87,0.5,7.023027666666667,-79.99,-81.33
1730041402048115213,1730041402047948598,12,2.31,0.87,0.5,7.010520333333333,-79.3,-81.06
1730041402148354005,1730041402148099422,12,2.31,0.87,0.5,7.054297000000001,-81.72,-82.92
1730041402248849789,1730041402248560428,12,2.31,0.87,0.5,7.091820000000001,-82.68,-84.78
1730041402349181616,1730041402348923206,12,2.31,0.87,0.5,7.110581,-80.21,-81.42
1730041402448396090,1730041402448215723,12,2.31,0.87,0.5,7.085565666666667,-79.62,-80.87
1730041402548989953,1730041402548694849,12,2.31,0.87,0.5,7.0417890000000005,-79.43,-80.77
1730041402648714805,1730041402648621082,12,2.31,0.87,0.5,7.035535,-79.26,-80.97
1730041402748510138,1730041402748292922,12,2.31,0.87,0.5,7.041788666666666,-79.52,-81.12
1730041402848237951,1730041402848024368,12,2.31,0.87,0.5,7.016773666666666,-79.33,-80.92
1730041402948967055,1730041402948730707,12,2.31,0.87,0.5,7.0167736666666665,-80.12,-81.3
1730041403048211265,1730041403048033475,12,2.31,0.87,0.5,7.01052,-79.91,-81.26
1730041403148408360,1730041403148268938,12,2.31,0.87,0.5,7.016774000000001,-79.45,-80.96
1730041403246244397,1730041403246046304,12,2.31,0.87,0.5,7.016774000000001,-79.94,-80.83
1730041403347728761,1730041403347527027,12,2.31,0.87,0.5,7.035535,-79.44,-80.76
1730041403447787590,1730041403447505950,12,2.31,0.87,0.5,7.035535,-79.53,-80.73
1730041403547554322,1730041403547327756,12,2.31,0.87,0.5,7.035535,-79.89,-81.19
1730041403647367468,1730041403647121667,12,2.31,0.87,0.5,7.048043,-79.66,-82.41
1730041403747321462,1730041403747220993,12,2.31,0.87,0.5,7.054296666666666,-79.41,-81.08
1730041403846450213,1730041403846047163,12,2.31,0.87,0.5,7.054296666666667,-80.08,-81.35
1730041403947357457,1730041403947144985,12,2.31,0.87,0.5,7.035534999999999,-79.75,-81.11
1730041404047743630,1730041404047126531,12,2.31,0.87,0.5,7.041788666666666,-79.71,-81.18
1730041404147466494,1730041404147273778,12,2.31,0.87,0.5,7.041788666666666,-79.16,-81.26
1730041404247941312,1730041404247581720,12,2.31,0.87,0.5,7.048042333333334,-80.01,-81.13
1730041404347391464,1730041404347113609,12,2.31,0.87,0.5,7.048042333333334,-79.53,-80.67
1730041404447791756,1730041404447384595,12,2.31,0.87,0.5,7.041788666666666,-79.3,-80.93
1730041404547863204,1730041404547535896,12,2.31,0.87,0.5,7.048042666666667,-79.81,-80.81
1730041404647633012,1730041404647245168,12,2.31,0.87,0.5,7.054296333333333,-80.09,-81.31
1730041404747345255,1730041404747134208,12,2.31,0.87,0.5,7.06055,-79.17,-80.9
1730041404847299553,1730041404847115516,12,2.31,0.87,0.5,7.054296,-79.55,-81.29
1730041404947666296,1730041404947224140,12,2.31,0.87,0.5,7.048042333333334,-79.48,-81.09
1730041405048045087,1730041405047651529,12,2.31,0.87,0.5,7.048042333333334,-79.97,-81.0
1730041405148486319,1730041405148232698,12,2.31,0.87,0.5,7.041788666666666,-79.23,-80.58
1730041405247649018,1730041405247253417,12,2.31,0.87,0.5,7.041788666666666,-79.19,-81.07
1730041405346356280,1730041405346050024,12,2.31,0.87,0.5,7.035535,-79.69,-81.29
1730041405446357953,1730041405446056842,12,2.31,0.87,0.5,7.054296666666667,-79.75,-80.91
1730041406349279975,1730041406349134445,12,2.31,0.87,0.5,7.054296333333333,-79.48,-81.89
1730041406479101471,1730041406478852033,12,2.31,0.87,0.5,7.06055,-79.2,-81.31
1730041406549039724,1730041406548894882,12,2.31,0.87,0.5,7.060549999999999,-79.86,-82.13
1730041406646395038,1730041406646031379,12,2.31,0.87,0.5,7.054296333333333,-79.7,-80.86
1730041406749905028,1730041406749775648,12,2.31,0.87,0.5,7.060550333333333,-79.29,-82.12
1730041406850024571,1730041406849792957,12,2.31,0.87,0.5,7.073058,-79.8,-82.36
1730041406948930947,1730041406948727846,12,2.31,0.87,0.5,7.0793116666666664,-79.37,-80.79
1730041407048917310,1730041407048713684,12,2.31,0.87,0.5,7.066804,-79.32,-80.79
1730041407149000793,1730041407148919582,12,2.31,0.87,0.5,7.048042333333334,-79.8,-80.95
1730041407250733387,1730041407250658035,12,2.31,0.87,0.5,7.054296333333333,-79.69,-81.71
1730041407350674493,1730041407350527048,12,2.31,0.87,0.5,7.048042666666667,-79.27,-80.92
1730041407449405647,1730041407449223279,12,2.31,0.87,0.5,7.035535333333333,-79.85,-81.08
1730041407549060033,1730041407548937559,12,2.31,0.87,0.5,7.023027666666667,-79.75,-80.96
1730041407648890742,1730041407648720979,12,2.31,0.87,0.5,7.035535,-79.88,-80.93
1730041407749683276,1730041407749408721,12,2.31,0.87,0.5,7.041788666666666,-79.03,-80.91
1730041407849286916,1730041407849051237,12,2.31,0.87,0.5,7.048042333333334,-79.7,-80.88
1730041407949170465,1730041407948732376,12,2.31,0.87,0.5,7.041788666666666,-79.29,-81.27
1730041408048333259,1730041408048175096,12,2.31,0.87,0.5,7.041788666666666,-79.33,-80.73
1730041408149081415,1730041408148818016,12,2.31,0.87,0.5,7.035535,-79.97,-80.81
1730041408248840803,1730041408247518777,12,2.31,0.87,0.5,7.048042666666667,-79.39,-80.81
1730041408346611517,1730041408346060037,12,2.31,0.87,0.5,7.054296333333333,-79.66,-80.85
1730041408446745973,1730041408446059226,12,2.31,0.87,0.5,7.06055,-79.7,-81.93
1730041408547912641,1730041408547463655,12,2.31,0.87,0.5,7.048042333333334,-79.02,-80.68
1730041408847651124,1730041408847259283,12,2.31,0.87,0.5,7.048042333333334,-79.82,-80.99
1730041408947704852,1730041408947353124,12,2.31,0.87,0.5,7.048042333333334,-79.46,-81.58
1730041409048193667,1730041409048003435,12,2.31,0.87,0.5,7.048042333333334,-79.62,-81.01
1730041409148911108,1730041409148558855,12,2.31,0.87,0.5,7.054296333333333,-80.01,-81.06
1730041409248737283,1730041409248610973,12,2.31,0.87,0.5,7.041788999999999,-79.41,-80.79
1730041409349276503,1730041409349167108,12,2.31,0.87,0.5,7.060550666666667,-79.44,-80.71
1730041409449348455,1730041409449114799,12,2.31,0.87,0.5,7.054296666666667,-79.29,-80.74
1730041409549832022,1730041409549666881,12,2.31,0.87,0.5,7.048043,-79.54,-80.77
1730041409646427634,1730041409646039724,12,2.31,0.87,0.5,7.023027666666667,-79.35,-80.93
1730041409747780551,1730041409747471332,12,2.31,0.87,0.5,7.010520333333333,-79.73,-80.95
1730041409847860532,1730041409847579717,12,2.31,0.87,0.5,7.010520333333333,-79.47,-80.81
1730041409948192549,1730041409947819709,12,2.31,0.87,0.5,7.004266666666666,-79.81,-80.91
1730041410048374066,1730041410048005819,12,2.31,0.87,0.5,7.004266666666666,-79.54,-80.88
1730041410147947214,1730041410147282123,12,2.31,0.87,0.5,6.979251333333333,-80.06,-81.17
1730041410247668333,1730041410247307300,12,2.31,0.87,0.5,6.954235999999999,-79.57,-81.49
1730041410348057890,1730041410347603559,12,2.31,0.87,0.5,6.910459333333333,-79.19,-80.81
1730041410546592863,1730041410546011209,12,2.31,0.87,0.5,6.897951666666667,-79.5,-82.31
1730041410648029593,1730041410647741079,12,2.31,0.87,0.5,6.8604286666666665,-79.33,-82.49
1730041410747535838,1730041410747237682,12,2.31,0.87,0.5,6.8291596666666665,-79.65,-83.82
1730041410848251459,1730041410848016738,12,2.31,0.87,0.5,6.779129333333334,-79.35,-83.15
1730041410948794930,1730041410948605298,12,2.31,0.87,0.5,6.747860333333333,-79.69,-82.93
1730041411048996209,1730041411048727512,12,2.31,0.87,0.5,6.697829666666667,-78.86,-80.8
1730041411148742215,1730041411148649215,12,2.31,0.87,0.5,6.666560333333333,-79.95,-82.39
1730041411247695332,1730041411247298717,12,2.31,0.87,0.5,6.604022333333333,-79.19,-80.79
1730041411347344491,1730041411347244262,12,2.31,0.87,0.5,6.572753333333334,-79.41,-80.88
1730041411446407259,1730041411446059465,12,2.31,0.87,0.5,6.535230666666667,-79.59,-81.15
1730041411546536586,1730041411546037197,12,2.31,0.87,0.5,6.503961666666666,-79.13,-81.3
1730041411646356446,1730041411646055221,12,2.31,0.87,0.5,6.460185,-79.84,-81.51
1730041411746420757,1730041411746027231,12,2.31,0.87,0.5,6.397646666666667,-79.02,-81.18
1730041411846538890,1730041411846018791,12,2.31,0.87,0.5,6.3413623333333335,-78.91,-81.13
1730041411946408402,1730041411946033000,12,2.31,0.87,0.5,6.297585666666667,-78.74,-80.43
1730041412046447472,1730041412046030521,12,2.31,0.87,0.5,6.2538089999999995,-78.68,-80.57
1730041412146488661,1730041412146078109,12,2.31,0.87,0.5,6.235047333333334,-78.99,-80.93
1730041412246350508,1730041412246036529,12,2.31,0.87,0.5,6.185016999999999,-78.79,-80.63
1730041412346613033,1730041412346031904,12,2.31,0.87,0.5,6.153748,-78.92,-80.68
1730041412446406247,1730041412446026325,12,2.31,0.87,0.5,6.1037176666666655,-78.62,-81.02
1730041412547624448,1730041412547297954,12,2.31,0.87,0.5,6.059940999999999,-78.33,-80.58
1730041412647924982,1730041412647583484,12,2.31,0.87,0.5,6.028672,-78.88,-80.85
1730041412747392731,1730041412747156381,12,2.31,0.87,0.5,6.003656666666667,-78.47,-81.04
1730041412847383806,1730041412847274780,12,2.31,0.87,0.5,5.959880000000001,-78.34,-80.97
1730041412948011563,1730041412947562932,12,2.31,0.87,0.5,5.916103333333333,-78.4,-82.08
1730041413047493275,1730041413047217130,12,2.31,0.87,0.5,5.872326666666666,-78.65,-81.07
1730041413146291491,1730041413146022558,12,2.31,0.87,0.5,5.834803666666666,-78.16,-81.22
1730041413246378527,1730041413246026039,12,2.31,0.87,0.5,5.772265666666667,-78.59,-81.01
1730041413349303899,1730041413349141359,12,2.31,0.87,0.5,5.709727666666666,-78.72,-81.11
1730041413449311146,1730041413449012041,12,2.31,0.87,0.5,5.659697333333334,-78.54,-81.3
1730041413549044451,1730041413548869609,12,2.31,0.87,0.5,5.597159333333333,-78.8,-80.81
1730041413649034332,1730041413648844242,12,2.31,0.87,0.5,5.553382666666667,-78.83,-80.43
1730041413749714414,1730041413749438762,12,2.31,0.87,0.5,5.515859666666667,-78.88,-80.78
1730041413849347989,1730041413849088907,12,2.31,0.87,0.5,5.4908443333333325,-79.08,-80.5
1730041413949149293,1730041413948898315,12,2.31,0.87,0.5,5.465829,-79.54,-81.3
1730041414046372576,1730041414046014308,12,2.31,0.87,0.5,5.440813666666667,-79.16,-80.8
1730041414146506161,1730041414146026611,12,2.31,0.87,0.5,5.434559666666666,-79.38,-80.68
1730041414246626549,1730041414246022939,12,2.31,0.87,0.5,5.390783333333334,-78.43,-80.56
1730041414346619165,1730041414346039533,12,2.31,0.87,0.5,5.359514666666667,-79.2,-80.97
1730041414446215323,1730041414446030378,12,2.31,0.87,0.5,5.328246,-79.57,-81.02
1730041414546349800,1730041414546013355,12,2.31,0.87,0.5,5.309484333333334,-79.18,-81.12
1730041414646314982,1730041414646007537,12,2.31,0.87,0.5,5.303230333333334,-78.92,-81.07
1730041414746372358,1730041414746007204,12,2.31,0.87,0.5,5.271961,-78.61,-80.63
1730041414848861045,1730041414848672151,12,2.31,0.87,0.5,5.246946,-78.81,-80.8
1730041414949447040,1730041414949180603,12,2.31,0.87,0.5,5.2281846666666665,-78.42,-80.73
1730041415049225292,1730041415049037456,12,2.31,0.87,0.5,5.203169333333333,-79.09,-80.66
1730041415149179744,1730041415149000644,12,2.31,0.87,0.5,5.203169333333333,-79.07,-81.27
1730041415248374167,1730041415248294353,12,2.31,0.87,0.5,5.178154,-79.25,-80.63
1730041415348551065,1730041415348296642,12,2.31,0.87,0.5,5.178154,-79.16,-80.66
1730041415448850555,1730041415448415517,12,2.31,0.87,0.5,5.153138666666667,-79.28,-80.66
1730041415547945848,1730041415547380924,12,2.31,0.87,0.5,5.140631,-79.02,-80.59
1730041415647521511,1730041415647348642,12,2.31,0.87,0.5,5.128123666666667,-79.12,-80.54
1730041415849326705,1730041415849074363,12,2.31,0.87,0.5,5.134377333333333,-79.46,-80.56
1730041415946666185,1730041415946074485,12,2.31,0.87,0.5,5.115616,-79.2,-80.84
1730041416046676004,1730041416046022891,12,2.31,0.87,0.5,5.134377333333333,-78.98,-80.98
1730041416146371560,1730041416146013498,12,2.31,0.87,0.5,5.159392666666666,-79.36,-80.77
1730041416246423333,1730041416246032714,12,2.31,0.87,0.5,5.190661666666667,-79.16,-80.78
1730041416346345708,1730041416346023797,12,2.31,0.87,0.5,5.1969156666666665,-79.59,-80.72
1730041416449188246,1730041416448946714,12,2.31,0.87,0.5,5.1969156666666665,-78.83,-80.84
1730041416548996353,1730041416548865556,12,2.31,0.87,0.5,5.2219310000000005,-79.07,-81.1
1730041416649198428,1730041416649076700,12,2.31,0.87,0.5,5.240692333333333,-78.91,-80.72
1730041416749160408,1730041416748844861,12,2.31,0.87,0.5,5.2594536666666665,-79.42,-80.81
1730041416849666605,1730041416849407672,12,2.31,0.87,0.5,5.2844690000000005,-78.97,-80.67
1730041416949937143,1730041416949801445,12,2.31,0.87,0.5,5.3219916666666665,-78.94,-82.0
1730041417049994738,1730041417049661636,12,2.31,0.87,0.5,5.3470070000000005,-78.51,-80.46
1730041417149078451,1730041417148934125,12,2.31,0.87,0.5,5.372022,-78.88,-80.6
1730041417248762548,1730041417248587608,12,2.31,0.87,0.5,5.403291,-78.93,-81.11
1730041417348625534,1730041417348468303,12,2.31,0.87,0.5,5.447067666666666,-79.0,-80.87
1730041417448814679,1730041417448617219,12,2.31,0.87,0.5,5.515859666666667,-78.92,-81.34
1730041417548753345,1730041417548578500,12,2.31,0.87,0.5,5.565890333333333,-78.49,-80.71
1730041417649965253,1730041417649690628,12,2.31,0.87,0.5,5.615920666666667,-79.14,-80.73
1730041417751095127,1730041417750859498,12,2.31,0.87,0.5,5.6409356666666675,-78.91,-80.9
1730041417848949793,1730041417848775863,12,2.31,0.87,0.5,5.690966,-78.87,-80.71
1730041417948864835,1730041417948657989,12,2.31,0.87,0.5,5.740996666666667,-78.61,-80.68
1730041418049157928,1730041418048854827,12,2.31,0.87,0.5,5.803535,-79.29,-80.88
1730041418149013005,1730041418148827791,12,2.31,0.87,0.5,5.859819333333334,-79.13,-80.65
1730041418248686710,1730041418248617172,12,2.31,0.87,0.5,5.922357333333333,-79.07,-80.93
1730041418348782816,1730041418348625183,12,2.31,0.87,0.5,5.978641666666667,-79.09,-80.86
1730041418449152856,1730041418448988437,12,2.31,0.87,0.5,6.028672,-78.67,-81.14
1730041418549146235,1730041418548967838,12,2.31,0.87,0.5,6.103717666666667,-78.84,-80.78
1730041418649121643,1730041418649045705,12,2.31,0.87,0.5,6.166255666666667,-79.85,-81.02
1730041418748880813,1730041418748673677,12,2.31,0.87,0.5,6.241301666666668,-79.58,-80.85
1730041418848699410,1730041418848481893,12,2.31,0.87,0.5,6.297586,-79.55,-80.94
1730041418949027182,1730041418948765039,12,2.31,0.87,0.5,6.366378,-79.78,-80.72
1730041419049275563,1730041419049149036,12,2.31,0.87,0.5,6.441423666666666,-79.91,-81.29
1730041419148915139,1730041419148752212,12,2.31,0.87,0.5,6.510215666666667,-79.43,-80.69
1730041419346423517,1730041419346055269,12,2.31,0.87,0.5,6.5977689999999996,-78.56,-80.83
1730041419446392743,1730041419446033716,12,2.31,0.87,0.5,6.679068333333333,-79.01,-80.84
1730041419546299337,1730041419546031475,12,2.31,0.87,0.5,6.779129333333333,-79.58,-80.78
1730041419646508906,1730041419646062135,12,2.31,0.87,0.5,6.872936333333333,-80.07,-80.85
1730041419746366517,1730041419746045112,12,2.31,0.87,0.5,6.9667433333333335,-79.77,-81.57
1730041419847482743,1730041419847204923,12,2.31,0.87,0.5,7.054296666666666,-79.65,-80.72
1730041419948816998,1730041419948589324,12,2.31,0.87,0.5,7.123088333333333,-79.79,-81.02
1730041420046420756,1730041420046044349,12,2.31,0.87,0.5,7.191880666666667,-79.49,-80.93
1730041420146354917,1730041420146049022,12,2.31,0.87,0.5,7.260672333333333,-79.59,-80.8
1730041420246369664,1730041420246058464,12,2.31,0.87,0.5,7.3294646666666665,-79.42,-80.69
1730041420346310624,1730041420346011877,12,2.31,0.87,0.5,7.404509999999999,-79.38,-80.63
1730041420446425537,1730041420446043968,12,2.31,0.87,0.5,7.504570999999999,-79.33,-80.91
1730041420546610583,1730041420546059608,12,2.31,0.87,0.5,7.579616333333334,-79.59,-80.67
1730041420648450535,1730041420648058414,12,2.31,0.87,0.5,7.660915999999999,-79.74,-80.8
1730041420748213980,1730041420748008966,12,2.31,0.87,0.5,7.735961666666667,-80.73,-81.04
1730041420847298414,1730041420847129583,12,2.31,0.87,0.5,7.861038,-80.82,-81.14
1730041420947613403,1730041420947270154,12,2.31,0.87,0.5,7.961099,-79.2,-80.69
1730041421047467123,1730041421047199010,12,2.31,0.87,0.5,8.042398666666665,-79.22,-80.87
1730041421148158398,1730041421148000717,12,2.31,0.87,0.5,8.111190666666666,-79.07,-81.17
1730041421248090943,1730041421247898101,12,2.31,0.87,0.5,8.192490333333332,-79.01,-80.44
1730041421347708940,1730041421347368240,12,2.31,0.87,0.5,8.280043666666666,-79.4,-80.77
1730041421447827093,1730041421447649002,12,2.31,0.87,0.5,8.361343333333334,-79.06,-80.65
1730041421547989913,1730041421547610521,12,2.31,0.87,0.5,8.461404333333334,-79.02,-80.61
1730041421647863686,1730041421647500514,12,2.31,0.87,0.5,8.573973,-79.41,-80.6
1730041421747494455,1730041421747204542,12,2.31,0.87,0.5,8.686541333333334,-79.62,-80.75
1730041421847735569,1730041421847476482,12,2.31,0.87,0.5,8.817871333333335,-80.76,-81.25
1730041421947734734,1730041421947277545,12,2.31,0.87,0.5,8.936693666666667,-80.56,-80.83
1730041422047349892,1730041422047194004,12,2.31,0.87,0.5,9.049262333333333,-80.2,-80.91
1730041422147603105,1730041422147272586,12,2.31,0.87,0.5,9.149323333333333,-80.25,-81.26
1730041422247996832,1730041422247651338,12,2.31,0.87,0.5,9.255638,-84.34,-85.31
1730041422348209670,1730041422347990036,12,2.31,0.87,0.5,9.355699,-81.3,-83.1
1730041422448187702,1730041422448017358,12,2.31,0.87,0.5,9.443252333333334,-82.01,-84.82
1730041422548661923,1730041422548362970,12,2.31,0.87,0.5,9.624613,-81.85,-81.84
1730041422648137324,1730041422647975683,12,2.31,0.87,0.5,9.724673666666666,-80.67,-83.59
1730041422748296432,1730041422748160362,12,2.31,0.87,0.5,9.837241999999998,-81.43,-82.46
1730041422848527680,1730041422848330497,12,2.31,0.87,0.5,9.931049333333334,-81.15,-81.74
1730041422947039002,1730041422946023702,12,2.31,0.87,0.5,10.024856666666667,-81.73,-83.14
1730041423046566363,1730041423046098947,12,2.31,0.87,0.5,10.124917666666668,-80.25,-81.0
1730041423146607314,1730041423146034717,12,2.31,0.87,0.5,10.237485999999999,-80.11,-81.13
1730041423246700005,1730041423246020317,12,2.31,0.87,0.5,10.343800666666667,-80.61,-81.71
1730041423346334770,1730041423346008777,12,2.31,0.87,0.5,10.456369,-81.22,-81.42
1730041423446344751,1730041423446053743,12,2.31,0.87,0.5,10.556430333333333,-81.0,-80.89
1730041423546378140,1730041423546036481,12,2.31,0.87,0.5,10.675252666666667,-81.55,-81.6
1730041423646448741,1730041423646006584,12,2.31,0.87,0.5,10.756552666666666,-80.87,-81.4
1730041423746529157,1730041423746019124,12,2.31,0.87,0.5,10.856613333333334,-80.42,-81.22
1730041423846469512,1730041423846038818,12,2.31,0.87,0.5,10.975436,-80.71,-80.89
1730041423946508822,1730041423946045875,12,2.31,0.87,0.5,11.088004333333332,-83.93,-84.88
1730041424046293322,1730041424046007633,12,2.31,0.87,0.5,11.194319,-80.59,-82.71
1730041424146379151,1730041424146016359,12,2.31,0.87,0.5,11.269364333333334,-81.36,-81.56
1730041424246379789,1730041424246048688,12,2.31,0.87,0.5,11.350664,-80.18,-81.28
1730041424346318129,1730041424346026897,12,2.31,0.87,0.5,11.42571,-79.95,-81.07
1730041424446501371,1730041424446043252,12,2.31,0.87,0.5,11.513263333333333,-79.47,-80.74
1730041424646369831,1730041424646009206,12,2.31,0.87,0.5,11.657100666666667,-80.02,-80.94
1730041424746337332,1730041424746013879,12,2.31,0.87,0.5,11.819699666666665,-82.61,-84.05
1730041424846584103,1730041424846007823,12,2.31,0.87,0.5,11.963537333333333,-79.59,-80.49
1730041424946771713,1730041424946124076,12,2.31,0.87,0.5,12.088613333333335,-82.12,-81.5
1730041425046476070,1730041425046041250,12,2.31,0.87,0.5,12.157405333333335,-79.59,-80.48
1730041425146395972,1730041425146056890,12,2.31,0.87,0.5,12.251212666666667,-79.83,-81.19
1730041425248904552,1730041425248674631,12,2.31,0.87,0.5,12.332512666666666,-79.58,-80.63
1730041425348662196,1730041425348367452,12,2.31,0.87,0.5,12.451335,-80.01,-80.86
1730041425448525479,1730041425448354721,12,2.31,0.87,0.5,12.557649666666668,-79.87,-81.28
1730041425548286802,1730041425548078536,12,2.31,0.87,0.5,12.670218,-79.87,-80.8
1730041425648324898,1730041425648082494,12,2.31,0.87,0.5,12.782786666666667,-79.93,-80.99
1730041425748658097,1730041425748360872,12,2.31,0.87,0.5,12.889101666666667,-80.6,-81.26
1730041425848508273,1730041425848262071,12,2.31,0.87,0.5,12.995416333333333,-79.41,-80.55
1730041425948273689,1730041425947954893,12,2.31,0.87,0.5,13.101730666666667,-79.71,-81.88
1730041426048349617,1730041426048227310,12,2.31,0.87,0.5,13.214298999999999,-79.61,-81.09
1730041426148935718,1730041426148782253,12,2.31,0.87,0.5,13.320613666666667,-78.9,-80.78
1730041426248216362,1730041426248084068,12,2.31,0.87,0.5,13.439436333333333,-79.53,-80.61
1730041426348324945,1730041426348175048,12,2.31,0.87,0.5,13.558258666666667,-80.47,-81.2
1730041426448250906,1730041426447977781,12,2.31,0.87,0.5,13.652066,-79.67,-81.22
1730041426548196308,1730041426548075914,12,2.31,0.87,0.5,13.783395666666665,-81.69,-83.55
1730041426648717796,1730041426648457527,12,2.31,0.87,0.5,13.914725666666664,-81.2,-81.7
1730041426748592270,1730041426748295783,12,2.31,0.87,0.5,14.058563333333334,-82.91,-82.98
1730041426848504647,1730041426848325967,12,2.31,0.87,0.5,14.164878333333334,-80.09,-80.84
1730041426948470175,1730041426948217868,12,2.31,0.87,0.5,14.258685666666667,-80.29,-81.52
1730041427048460046,1730041427048237085,12,2.31,0.87,0.5,14.371254,-81.08,-81.24
1730041427148485684,1730041427148146867,12,2.31,0.87,0.5,14.458807,-81.38,-82.42
1730041427247460287,1730041427247182607,12,2.31,0.87,0.5,14.583883,-81.72,-84.16
1730041427348483144,1730041427348225593,12,2.31,0.87,0.5,14.690197666666668,-81.79,-82.16
1730041427448184925,1730041427447973489,12,2.31,0.87,0.5,14.821528,-81.59,-83.66
1730041427548898740,1730041427548767566,12,2.31,0.87,0.5,14.934096333333335,-82.25,-82.48
1730041427648870863,1730041427648624181,12,2.31,0.87,0.5,15.046665333333332,-82.49,-83.05
1730041427748994163,1730041427748816728,12,2.31,0.87,0.5,15.146726000000001,-83.06,-84.81
1730041427849224151,1730041427849014759,12,2.31,0.87,0.5,15.246787333333335,-82.97,-85.32
1730041427948242738,1730041427948051929,12,2.31,0.87,0.5,15.346848,-83.39,-85.17
1730041428048572143,1730041428048250675,12,2.31,0.87,0.5,15.459417,-83.78,-83.91
1730041428148108884,1730041428148030281,12,2.31,0.87,0.5,15.571985333333336,-84.01,-87.22
1730041428248126742,1730041428247856378,12,2.31,0.87,0.5,15.690807666666666,-89.4,-89.56
1730041428379704157,1730041428379383087,12,2.31,0.87,0.5,15.803376,-84.69,-86.11
1730041428446487716,1730041428446035385,12,2.31,0.87,0.5,15.903437000000002,-85.87,-86.88
1730041428547482399,1730041428547278404,12,2.31,0.87,0.5,16.034767000000002,-93.72,-98.53
1730041428647450554,1730041428647181510,12,2.31,0.87,0.5,16.141081,-85.41,-89.25
1730041428747529680,1730041428747180938,12,2.31,0.87,0.5,16.259902999999998,-86.81,-90.88
1730041428848406923,1730041428847237825,12,2.31,0.87,0.5,16.353710333333336,-87.53,-92.1
1730041428947920662,1730041428947686672,12,2.31,0.87,0.5,16.460025333333334,-86.57,-91.66
1730041429047908925,1730041429047524690,12,2.31,0.87,0.5,16.553832666666665,-87.77,-91.89
1730041429147628028,1730041429147490739,12,2.31,0.87,0.5,16.647638999999998,-88.67,-90.98
1730041429247553190,1730041429247390031,12,2.31,0.87,0.5,16.753954,-89.26,-90.88
1730041429347512518,1730041429347207307,12,2.31,0.87,0.5,16.860268666666666,-88.82,-91.22
1730041429447556211,1730041429447287082,12,2.31,0.87,0.5,17.016614333333333,-89.44,-89.67
1730041429548348905,1730041429547948837,12,2.31,0.87,0.5,17.179213333333333,-88.87,-89.26
1730041429647496591,1730041429647154331,12,2.31,0.87,0.5,17.329304666666665,-91.39,-91.89
1730041430047874814,1730041430047502279,12,2.31,0.87,0.5,17.817102000000002,-85.87,-86.15
1730041430147589312,1730041430147279262,12,2.31,0.87,0.5,17.948431666666664,-85.69,-85.93
1730041430247367456,1730041430247189044,12,2.31,0.87,0.5,18.086015666666665,-85.76,-85.71
1730041430347522427,1730041430347110509,12,2.31,0.87,0.5,18.317406666666667,-86.3,-88.06
1730041430446423792,1730041430446024894,12,2.31,0.87,0.5,18.42372166666667,-86.0,-85.63
1730041430546349987,1730041430546014070,12,2.31,0.87,0.5,18.536290333333334,-86.25,-86.23
1730041430646351227,1730041430646003723,12,2.31,0.87,0.5,18.642605333333332,-85.38,-86.96
1730041430746413084,1730041430745999813,12,2.31,0.87,0.5,18.742666,-86.34,-86.23
1730041430846284372,1730041430846076726,12,2.31,0.87,0.5,18.823965333333334,-85.6,-85.56
1730041431047442460,1730041431047295808,12,2.31,0.87,0.5,18.961549333333334,-85.22,-87.29
1730041431147464206,1730041431147257089,12,2.31,0.87,0.5,19.099132666666666,-84.97,-85.38
1730041431247475341,1730041431247107267,12,2.31,0.87,0.5,19.267985666666664,-85.5,-88.02
1730041431347492038,1730041431347243309,12,2.31,0.87,0.5,19.368046333333336,-86.21,-89.16
1730041431447600150,1730041431447342872,12,2.31,0.87,0.5,19.474361333333334,-85.51,-85.52
1730041431547507309,1730041431547340869,12,2.31,0.87,0.5,19.561914333333334,-90.7,-91.21
1730041431649056663,1730041431648863554,12,2.31,0.87,0.5,19.674483,-85.96,-86.17
1730041431747391643,1730041431747059822,12,2.31,0.87,0.5,19.774544000000002,-85.79,-86.01
1730041431847300764,1730041431847046613,12,2.31,0.87,0.5,19.887112666666667,-85.6,-85.85
1730041431948495228,1730041431948286056,12,2.31,0.87,0.5,19.987173333333335,-84.88,-86.72
1730041432048761916,1730041432048372030,12,2.31,0.87,0.5,20.112249333333335,-84.17,-86.26
1730041432147470433,1730041432147141933,12,2.31,0.87,0.5,20.237325666666667,-83.4,-82.82
1730041432247486073,1730041432247291088,12,2.31,0.87,0.5,20.362402,-83.15,-82.68
1730041432347376372,1730041432347164154,12,2.31,0.87,0.5,20.468716999999998,-83.02,-82.37
1730041432447390874,1730041432447202444,12,2.31,0.87,0.5,20.575032,-83.01,-84.42
1730041432546486719,1730041432546007871,12,2.31,0.87,0.5,20.687600666666665,-83.03,-84.51
1730041432646362612,1730041432646032810,12,2.31,0.87,0.5,20.806423,-82.61,-82.19
1730041432748517432,1730041432748391866,12,2.31,0.87,0.5,20.912737333333336,-82.55,-84.65
1730041432847737779,1730041432847563982,12,2.31,0.87,0.5,21.012798,-82.12,-82.24
1730041432948948453,1730041432948482990,12,2.31,0.87,0.5,21.125366333333332,-81.99,-81.81
1730041433047687934,1730041433047476768,12,2.31,0.87,0.5,21.250442666666668,-82.0,-81.68
1730041433148395456,1730041433148104906,12,2.31,0.87,0.5,21.363011333333333,-82.69,-82.6
1730041433246446315,1730041433246031284,12,2.31,0.87,0.5,21.475579999999997,-82.07,-83.97
1730041433346371384,1730041433346009016,12,2.31,0.87,0.5,21.588148333333333,-84.31,-85.5
1730041433446532400,1730041433445971965,12,2.31,0.87,0.5,21.69446333333333,-82.55,-83.11
1730041433549428981,1730041433549233675,12,2.31,0.87,0.5,21.794524666666664,-82.18,-82.09
1730041433646667808,1730041433646050930,12,2.31,0.87,0.5,21.900839666666666,-82.24,-81.94
1730041433746504554,1730041433746022224,12,2.31,0.87,0.5,22.038423666666663,-83.38,-83.03
1730041433846555413,1730041433846127510,12,2.31,0.87,0.5,22.163499333333334,-82.37,-82.31
1730041433950327332,1730041433949897527,12,2.31,0.87,0.5,22.276068,-82.19,-81.87
1730041434049791825,1730041434049529075,12,2.31,0.87,0.5,22.369874333333332,-82.28,-82.37
1730041434149008894,1730041434148738145,12,2.31,0.87,0.5,22.463681666666663,-82.43,-82.29
1730041434249183200,1730041434249026298,12,2.31,0.87,0.5,22.588758000000002,-87.43,-87.32
1730041434348802751,1730041434348543882,12,2.31,0.87,0.5,22.72008866666667,-86.95,-88.67
1730041434448737027,1730041434448561668,12,2.31,0.87,0.5,22.845164999999998,-88.62,-88.69
1730041434548802664,1730041434548543930,12,2.31,0.87,0.5,22.93897133333333,-82.93,-84.21
1730041434649690022,1730041434649438381,12,2.31,0.87,0.5,23.039032000000002,-84.11,-85.06
1730041434749613749,1730041434749361515,12,2.31,0.87,0.5,23.157854666666665,-83.04,-83.13
1730041434849391253,1730041434849252700,12,2.31,0.87,0.5,23.289185333333336,-82.06,-82.27
1730041434949290374,1730041434949114322,12,2.31,0.87,0.5,23.42051533333333,-82.41,-82.95
1730041435048688108,1730041435048595428,12,2.31,0.87,0.5,23.545591,-82.89,-84.28
1730041435149123172,1730041435148891448,12,2.31,0.87,0.5,23.651905333333332,-82.01,-81.93
1730041435248796127,1730041435248681306,12,2.31,0.87,0.5,23.739459,-82.98,-83.93
1730041435446523522,1730041435446093559,12,2.31,0.87,0.5,23.902058333333333,-83.72,-85.94
1730041435546309128,1730041435546039819,12,2.31,0.87,0.5,24.08967266666667,-81.91,-81.7
1730041435646427993,1730041435646042823,12,2.31,0.87,0.5,24.271033,-85.71,-86.51
1730041435746398536,1730041435746030092,12,2.31,0.87,0.5,24.377347333333333,-87.41,-87.34
1730041435846410953,1730041435846017360,12,2.31,0.87,0.5,24.452393333333333,-87.08,-86.96
1730041435946486260,1730041435946067094,12,2.31,0.87,0.5,24.558708333333332,-82.28,-82.3
1730041436048944206,1730041436048720359,12,2.31,0.87,0.5,24.665023333333334,-82.53,-82.41
1730041436149029533,1730041436148817777,12,2.31,0.87,0.5,24.790099666666666,-82.19,-81.95
1730041436248835815,1730041436248574733,12,2.31,0.87,0.5,24.902668000000002,-81.51,-81.74
1730041436348558365,1730041436348369359,12,2.31,0.87,0.5,25.015236666666667,-81.36,-81.68
1730041436450080118,1730041436449808120,12,2.31,0.87,0.5,25.12780533333333,-81.6,-82.11
1730041436549182411,1730041436549015522,12,2.31,0.87,0.5,25.246627333333333,-81.12,-81.61
1730041436649300479,1730041436649099588,12,2.31,0.87,0.5,25.371703666666665,-82.8,-82.7
1730041436748791596,1730041436748544216,12,2.31,0.87,0.5,25.478018000000002,-81.26,-81.5
1730041436848971164,1730041436848685503,12,2.31,0.87,0.5,25.596840333333336,-81.43,-81.34
1730041436948766866,1730041436948622703,12,2.31,0.87,0.5,25.703154666666666,-81.61,-81.54
1730041437048542745,1730041437048368453,12,2.31,0.87,0.5,25.815723000000002,-81.43,-81.34
1730041437149310109,1730041437149059534,12,2.31,0.87,0.5,25.94079933333333,-81.69,-81.51
1730041437248950596,1730041437248777151,12,2.31,0.87,0.5,26.059622,-81.84,-81.6
1730041437348958410,1730041437348751783,12,2.31,0.87,0.5,26.190952666666664,-81.66,-83.23
1730041437449475148,1730041437449266195,12,2.31,0.87,0.5,26.284759666666663,-81.62,-82.16
1730041437548900161,1730041437548589229,12,2.31,0.87,0.5,26.384820333333334,-81.07,-81.88
1730041437648875691,1730041437648629188,12,2.31,0.87,0.5,26.478626666666667,-80.97,-81.33
1730041437847551546,1730041437847293615,12,2.31,0.87,0.5,26.634972,-81.14,-81.13
1730041437948351054,1730041437948071479,12,2.31,0.87,0.5,26.791317666666668,-81.9,-81.96
1730041438646416434,1730041438646024703,12,2.31,0.87,0.5,27.629328666666666,-81.64,-81.9
1730041438746563402,1730041438746023416,12,2.31,0.87,0.5,27.804435333333334,-85.91,-85.88
1730041438847452608,1730041438847112178,12,2.31,0.87,0.5,27.910749666666664,-81.7,-81.35
1730041438947986891,1730041438947777032,12,2.31,0.87,0.5,28.02331866666667,-82.85,-82.45
1730041439046552051,1730041439046068191,12,2.31,0.87,0.5,28.117125,-82.77,-84.07
1730041439150479869,1730041439150290966,12,2.31,0.87,0.5,28.229693666666666,-81.97,-81.87
1730041439249063290,1730041439248919963,12,2.31,0.87,0.5,28.348515666666668,-82.1,-82.06
1730041439348613228,1730041439348423957,12,2.31,0.87,0.5,28.473592,-82.53,-84.51
1730041439448455393,1730041439448282957,12,2.31,0.87,0.5,28.586160666666668,-83.48,-84.81
1730041439548769311,1730041439548342943,12,2.31,0.87,0.5,28.692475666666667,-83.02,-83.94
1730041439647951260,1730041439647742271,12,2.31,0.87,0.5,28.80504433333333,-82.85,-82.92
1730041439749080039,1730041439748901128,12,2.31,0.87,0.5,28.936374,-83.22,-85.73
1730041439847510626,1730041439847280979,12,2.31,0.87,0.5,29.048942666666665,-83.48,-85.13
1730041439947410604,1730041439947088241,12,2.31,0.87,0.5,29.16776533333333,-83.44,-84.95
1730041440047296406,1730041440047141790,12,2.31,0.87,0.5,29.267826666666668,-83.59,-84.14
1730041440147490189,1730041440147289276,12,2.31,0.87,0.5,29.38664866666667,-82.82,-84.05
1730041440247612325,1730041440247345924,12,2.31,0.87,0.5,29.492963,-84.24,-85.27
1730041440347413894,1730041440347255706,12,2.31,0.87,0.5,29.618039333333332,-83.06,-83.63
1730041440447714573,1730041440447363615,12,2.31,0.87,0.5,29.736862333333335,-82.84,-83.11
1730041440546570914,1730041440546094417,12,2.31,0.87,0.5,29.86193866666667,-83.44,-84.49
1730041440646829105,1730041440646135091,12,2.31,0.87,0.5,29.968253,-83.55,-84.71
1730041440746713343,1730041440746075391,12,2.31,0.87,0.5,30.087075,-83.6,-85.99
1730041440846551738,1730041440846025228,12,2.31,0.87,0.5,30.199643666666663,-83.29,-83.87
1730041440946300070,1730041440946037530,12,2.31,0.87,0.5,30.324720000000003,-83.67,-85.08
1730041441046712288,1730041441046006441,12,2.31,0.87,0.5,30.443541999999997,-84.48,-86.77
1730041441146472374,1730041441146057128,12,2.31,0.87,0.5,30.562364666666667,-83.49,-83.66
1730041441246471337,1730041441246033430,12,2.31,0.87,0.5,30.681186999999998,-84.0,-84.14
1730041441346638152,1730041441346058130,12,2.31,0.87,0.5,30.800009666666668,-83.6,-83.75
1730041441446484399,1730041441446014165,12,2.31,0.87,0.5,30.912577999999996,-84.51,-87.44
1730041441546635060,1730041441546022653,12,2.31,0.87,0.5,31.01889266666667,-83.69,-83.81
1730041441646443076,1730041441646013736,12,2.31,0.87,0.5,31.118953666666666,-84.09,-84.97
1730041441746380632,1730041441746002435,12,2.31,0.87,0.5,31.344091000000002,-84.74,-87.56
1730041441846192439,1730041441846025228,12,2.31,0.87,0.5,31.450406,-83.92,-84.49
1730041441946442964,1730041441946003198,12,2.31,0.87,0.5,31.575482333333337,-83.99,-84.64
1730041442046638546,1730041442046091794,12,2.31,0.87,0.5,31.694305000000004,-84.43,-84.1
1730041442146625539,1730041442146113395,12,2.31,0.87,0.5,31.831888333333335,-84.7,-85.29
1730041442248115892,1730041442247819423,12,2.31,0.87,0.5,31.956964666666664,-83.89,-83.38
1730041442347813758,1730041442347434520,12,2.31,0.87,0.5,32.06953266666667,-84.72,-85.03
1730041442447957813,1730041442447618484,12,2.31,0.87,0.5,32.182101666666675,-84.25,-84.68
1730041442548414761,1730041442548274517,12,2.31,0.87,0.5,32.28216233333333,-86.42,-86.32
1730041442649577599,1730041442649360179,12,2.31,0.87,0.5,32.39473133333333,-84.99,-86.0
1730041442748942834,1730041442748634815,12,2.31,0.87,0.5,32.50729933333333,-83.79,-83.57
1730041442847372077,1730041442847270727,12,2.31,0.87,0.5,32.638629333333334,-84.12,-85.28
1730041442946140292,1730041442945960760,12,2.31,0.87,0.5,32.776213000000006,-84.41,-87.06
1730041443046422682,1730041443046036243,12,2.31,0.87,0.5,32.88878233333333,-84.4,-86.1
1730041443146434746,1730041443146086692,12,2.31,0.87,0.5,33.00135133333333,-85.43,-85.84
1730041443246481960,1730041443246014356,12,2.31,0.87,0.5,33.10766566666666,-84.29,-87.53
1730041443346350784,1730041443346022129,12,2.31,0.87,0.5,33.23274166666667,-85.21,-85.54
1730041443446441222,1730041443446032524,12,2.31,0.87,0.5,33.339056,-84.95,-85.6
1730041443546479549,1730041443546022653,12,2.31,0.87,0.5,33.451625,-86.45,-86.41
1730041443646434845,1730041443646030426,12,2.31,0.87,0.5,33.55793933333333,-84.87,-85.48
1730041443746372879,1730041443746021032,12,2.31,0.87,0.5,33.676762333333336,-85.49,-85.49
1730041444247612986,1730041444247325658,12,2.31,0.87,0.5,34.227095999999996,-84.72,-86.12
1730041444348497407,1730041444348198413,12,2.31,0.87,0.5,34.35842566666667,-84.52,-84.9
1730041444448401360,1730041444448135375,12,2.31,0.87,0.5,34.483501999999994,-85.0,-85.42
1730041444547557327,1730041444547223329,12,2.31,0.87,0.5,34.608578333333334,-84.19,-85.52
1730041444647774771,1730041444647442102,12,2.31,0.87,0.5,34.733654666666666,-84.35,-85.01
1730041444747927080,1730041444747598409,12,2.31,0.87,0.5,34.852477666666665,-85.34,-88.95
1730041444846480658,1730041444846107959,12,2.31,0.87,0.5,34.965046666666666,-84.43,-85.57
1730041444946366247,1730041444946058273,12,2.31,0.87,0.5,35.077616,-85.33,-86.46
1730041445046428097,1730041445046046972,12,2.31,0.87,0.5,35.196437333333336,-85.06,-87.66
1730041445146498573,1730041445146041154,12,2.31,0.87,0.5,35.30900533333334,-84.5,-85.27
1730041445246289570,1730041445246030569,12,2.31,0.87,0.5,35.427828,-84.93,-85.96
1730041445346448639,1730041445346014499,12,2.31,0.87,0.5,35.521635333333336,-84.09,-85.99
1730041445446392178,1730041445446024894,12,2.31,0.87,0.5,35.615442666666674,-84.35,-86.54
1730041445549141306,1730041445548754930,12,2.31,0.87,0.5,35.721757000000004,-84.51,-88.1
1730041445649348947,1730041445649161815,12,2.31,0.87,0.5,35.84057966666666,-84.84,-86.59
1730041445750243457,1730041445749973297,12,2.31,0.87,0.5,35.95940233333334,-85.15,-86.48
1730041445849528361,1730041445849293708,12,2.31,0.87,0.5,36.07197033333333,-84.98,-85.43
1730041445949342394,1730041445949012756,12,2.31,0.87,0.5,36.203300000000006,-85.24,-87.52
1730041446049134736,1730041446048963069,12,2.31,0.87,0.5,36.322122666666665,-85.48,-86.73
1730041446148648645,1730041446148537397,12,2.31,0.87,0.5,36.44719866666667,-85.71,-86.27
1730041446248739421,1730041446248582363,12,2.31,0.87,0.5,36.553513,-85.16,-87.33
1730041446348806831,1730041446348578929,12,2.31,0.87,0.5,36.666081,-86.82,-87.51
1730041446449188181,1730041446448991537,12,2.31,0.87,0.5,36.766141999999995,-86.58,-88.17
1730041446549335181,1730041446549205541,12,2.31,0.87,0.5,36.884965,-85.4,-86.55
1730041446650229302,1730041446649906635,12,2.31,0.87,0.5,37.003787666666675,-85.71,-87.34
1730041446779848887,1730041446779595375,12,2.31,0.87,0.5,37.13511866666667,-87.11,-87.86
1730041446849107783,1730041446848959207,12,2.31,0.87,0.5,37.22892566666667,-86.33,-88.54
1730041446948864657,1730041446948803901,12,2.31,0.87,0.5,37.36025566666667,-85.4,-85.5
1730041447049148749,1730041447048919916,12,2.31,0.87,0.5,37.47282366666667,-86.15,-86.21
1730041447148976718,1730041447148826599,12,2.31,0.87,0.5,37.5979,-86.46,-86.86
1730041447249598763,1730041447249412536,12,2.31,0.87,0.5,37.70421433333333,-85.83,-88.06
1730041447348568597,1730041447348313808,12,2.31,0.87,0.5,37.804275000000004,-86.2,-87.56
1730041447448504257,1730041447448265075,12,2.31,0.87,0.5,37.935605,-85.45,-85.75
1730041447550206550,1730041447549803256,12,2.31,0.87,0.5,38.04192066666667,-85.99,-88.25
1730041447647679618,1730041447647400617,12,2.31,0.87,0.5,38.17325066666667,-86.36,-88.28
1730041447747495012,1730041447747265815,12,2.31,0.87,0.5,38.26080433333333,-86.44,-86.86
1730041447847853605,1730041447847535610,12,2.31,0.87,0.5,38.38588033333333,-86.12,-86.7
1730041447947722230,1730041447947432994,12,2.31,0.87,0.5,38.504703,-85.49,-87.61
1730041448047464856,1730041448047278642,12,2.31,0.87,0.5,38.64228633333334,-87.24,-87.58
1730041448147536086,1730041448147318601,12,2.31,0.87,0.5,38.761108,-85.88,-86.19
1730041448247593752,1730041448247320413,12,2.31,0.87,0.5,38.892438,-84.82,-86.88
1730041448347499414,1730041448347147464,12,2.31,0.87,0.5,39.011260666666665,-85.69,-88.07
1730041448447762876,1730041448447477102,12,2.31,0.87,0.5,39.123829666666666,-85.98,-87.0
1730041448547451600,1730041448547153472,12,2.31,0.87,0.5,39.217636666666664,-85.88,-88.5
1730041448647828200,1730041448647467613,12,2.31,0.87,0.5,39.33020466666667,-85.53,-88.27
1730041448747770138,1730041448747328758,12,2.31,0.87,0.5,39.44277266666667,-86.05,-86.84
1730041448847729234,1730041448847452402,12,2.31,0.87,0.5,39.549087,-87.72,-88.15
1730041448947493795,1730041448947214841,12,2.31,0.87,0.5,39.661656,-88.11,-87.5
1730041449046407707,1730041449046013116,12,2.31,0.87,0.5,39.78047866666666,-85.59,-86.23
1730041449147679654,1730041449147341489,12,2.31,0.87,0.5,39.91181,-86.28,-86.96
1730041449547161193,1730041449546882629,12,2.31,0.87,0.5,40.47465233333333,-85.74,-87.52
1730041449647500774,1730041449647175073,12,2.31,0.87,0.5,40.618490666666666,-85.27,-84.77
1730041449748844016,1730041449748654603,12,2.31,0.87,0.5,40.73731333333333,-85.24,-84.57
1730041449847936700,1730041449847586870,12,2.31,0.87,0.5,40.862388333333335,-84.64,-84.91
1730041449947839319,1730041449947310447,12,2.31,0.87,0.5,40.974956,-86.39,-86.19
1730041450050187919,1730041450049858093,12,2.31,0.87,0.5,41.08127033333333,-87.34,-87.2
1730041450149473168,1730041450149342775,12,2.31,0.87,0.5,41.19383933333333,-85.27,-87.04
1730041450247624218,1730041450247536897,12,2.31,0.87,0.5,41.312661999999996,-85.19,-85.86
1730041450347559785,1730041450347271919,12,2.31,0.87,0.5,41.43773833333333,-84.09,-83.54
1730041450448527966,1730041450448282480,12,2.31,0.87,0.5,41.56281466666666,-84.49,-85.79
1730041450548276874,1730041450548137903,12,2.31,0.87,0.5,41.669129000000005,-85.35,-86.43
1730041450648636313,1730041450648443937,12,2.31,0.87,0.5,41.787951666666665,-84.64,-84.24
1730041450748133270,1730041450747964620,12,2.31,0.87,0.5,41.894265999999995,-84.52,-84.01
1730041450848278447,1730041450848089933,12,2.31,0.87,0.5,42.025596,-85.52,-86.69
1730041450948162095,1730041450948018789,12,2.31,0.87,0.5,42.13191033333333,-85.58,-85.27
1730041451247530461,1730041451247296571,12,2.31,0.87,0.5,42.31327133333334,-84.64,-84.32
1730041451347874100,1730041451347549438,12,2.31,0.87,0.5,42.482124999999996,-85.2,-85.18
1730041451447585869,1730041451447298288,12,2.31,0.87,0.5,42.663486,-84.55,-84.17
1730041451547646051,1730041451547288417,12,2.31,0.87,0.5,42.769800333333336,-84.66,-84.08
1730041451647522597,1730041451647305488,12,2.31,0.87,0.5,43.001191000000006,-85.18,-86.75
1730041451780237438,1730041451780142545,12,2.31,0.87,0.5,43.132520666666665,-83.89,-83.6
1730041451846518098,1730041451846025705,12,2.31,0.87,0.5,43.24508966666667,-84.1,-86.03
1730041451946528768,1730041451946018218,12,2.31,0.87,0.5,43.363911333333334,-85.13,-85.0
1730041452046518287,1730041452046031951,12,2.31,0.87,0.5,43.46397233333334,-83.0,-83.43
1730041452146364799,1730041452146019697,12,2.31,0.87,0.5,43.58904866666666,-84.79,-86.14
1730041452246178946,1730041452246032238,12,2.31,0.87,0.5,43.70787133333334,-84.17,-85.95
1730041452346551192,1730041452346076011,12,2.31,0.87,0.5,43.814187000000004,-85.31,-85.28
1730041452447670861,1730041452447320222,12,2.31,0.87,0.5,43.92675500000001,-85.32,-86.11
1730041452548335992,1730041452548024892,12,2.31,0.87,0.5,44.03306933333334,-85.15,-85.24
1730041452648554652,1730041452648247957,12,2.31,0.87,0.5,44.164399,-83.81,-84.45
1730041452748326836,1730041452748173236,12,2.31,0.87,0.5,44.276968000000004,-83.92,-84.34
1730041452848126786,1730041452847957849,12,2.31,0.87,0.5,44.40204433333333,-83.26,-84.66
1730041452948408549,1730041452948130607,12,2.31,0.87,0.5,44.520867,-84.22,-84.28
1730041453047469394,1730041453047154664,12,2.31,0.87,0.5,44.652197,-84.43,-83.87
1730041453146509911,1730041453146061658,12,2.31,0.87,0.5,44.764766,-83.84,-83.63
1730041453247529547,1730041453247193813,12,2.31,0.87,0.5,44.877334,-84.42,-83.82
1730041453346258383,1730041453346031904,12,2.31,0.87,0.5,44.989903000000005,-83.96,-83.79
1730041453446268499,1730041453446039438,12,2.31,0.87,0.5,45.10872466666667,-84.2,-85.9
1730041453548400146,1730041453548217535,12,2.31,0.87,0.5,45.221294,-84.76,-85.25
1730041453646317585,1730041453646069288,12,2.31,0.87,0.5,45.32760833333333,-84.83,-84.77
1730041453746280974,1730041453746058702,12,2.31,0.87,0.5,45.45268466666666,-84.41,-83.96
1730041453847249564,1730041453847035646,12,2.31,0.87,0.5,45.55899899999999,-84.53,-84.64
1730041453947380798,1730041453947083711,12,2.31,0.87,0.5,45.677822,-85.25,-85.26
1730041454047952791,1730041454047807216,12,2.31,0.87,0.5,45.771629,-84.3,-83.73
1730041454146239303,1730041454146029233,12,2.31,0.87,0.5,45.896705,-84.23,-85.4
1730041454246324234,1730041454246070623,12,2.31,0.87,0.5,46.00927266666667,-85.31,-85.47
1730041454347688159,1730041454347336292,12,2.31,0.87,0.5,46.13434899999999,-84.13,-83.55
1730041454446256478,1730041454446035146,12,2.31,0.87,0.5,46.24066333333334,-85.17,-86.99
1730041454546356840,1730041454546032190,12,2.31,0.87,0.5,46.35323266666666,-85.31,-85.59
1730041454646382874,1730041454646032571,12,2.31,0.87,0.5,46.465802,-85.18,-84.6
1730041454747480732,1730041454747272491,12,2.31,0.87,0.5,46.57837133333334,-84.45,-85.12
1730041454847310102,1730041454847002983,12,2.31,0.87,0.5,46.69093933333334,-86.54,-86.53
1730041454947347184,1730041454947096824,12,2.31,0.87,0.5,46.80976066666667,-83.39,-82.98
1730041455047348321,1730041455047039031,12,2.31,0.87,0.5,46.928582000000006,-85.56,-86.43
1730041455147208242,1730041455147029876,12,2.31,0.87,0.5,47.04740466666667,-84.3,-83.7
1730041455247389374,1730041455247168064,12,2.31,0.87,0.5,47.15372033333333,-85.68,-86.52
1730041455347606184,1730041455347295284,12,2.31,0.87,0.5,47.22251333333333,-84.9,-86.25
1730041455448266882,1730041455448059558,12,2.31,0.87,0.5,47.22876666666667,-85.1,-84.76
1730041455548129369,1730041455548038959,12,2.31,0.87,0.5,47.22876666666667,-84.17,-83.64
1730041455846297503,1730041455846106290,12,2.31,0.87,0.5,47.222511999999995,-84.82,-84.61
1730041455946482513,1730041455946042060,12,2.31,0.87,0.5,47.27254333333334,-84.57,-86.24
1730041456046504587,1730041456046060323,12,2.31,0.87,0.5,47.297559,-84.77,-84.94
1730041456147492850,1730041456147249698,12,2.31,0.87,0.5,47.35384366666667,-84.99,-84.63
1730041456247395577,1730041456247155666,12,2.31,0.87,0.5,47.372604333333335,-84.58,-84.12
1730041456348403132,1730041456348160743,12,2.31,0.87,0.5,47.391365,-84.64,-86.43
1730041456448360504,1730041456448246240,12,2.31,0.87,0.5,47.397618333333334,-85.32,-85.91
1730041456548190178,1730041456548070430,12,2.31,0.87,0.5,47.39136466666667,-84.31,-83.96
1730041456648632049,1730041456648455381,12,2.31,0.87,0.5,47.39136466666667,-84.17,-83.74
1730041456747165186,1730041456746040344,12,2.31,0.87,0.5,47.360096999999996,-83.48,-83.21
1730041456848352024,1730041456848186016,12,2.31,0.87,0.5,47.347589666666664,-83.96,-83.39
1730041456946407465,1730041456946024417,12,2.31,0.87,0.5,47.347589666666664,-83.68,-83.65
1730041457048742440,1730041457048557043,12,2.31,0.87,0.5,47.360096666666664,-83.08,-82.49
1730041457147497600,1730041457147249698,12,2.31,0.87,0.5,47.347588333333334,-82.82,-83.14
1730041457248262203,1730041457248036384,12,2.31,0.87,0.5,47.341334999999994,-83.64,-83.33
1730041457347781494,1730041457347436428,12,2.31,0.87,0.5,47.322573,-83.04,-85.29
1730041457446534671,1730041457446048259,12,2.31,0.87,0.5,47.322573,-83.19,-85.37
1730041457546590088,1730041457546025514,12,2.31,0.87,0.5,47.31006433333334,-82.86,-83.04
1730041457649139996,1730041457648923158,12,2.31,0.87,0.5,47.31006433333334,-82.91,-82.75
1730041457749575398,1730041457749411582,12,2.31,0.87,0.5,47.31631933333333,-83.43,-82.9
1730041457848950933,1730041457848750352,12,2.31,0.87,0.5,47.31631933333333,-83.59,-84.73
1730041457948936828,1730041457948784589,12,2.31,0.87,0.5,47.31006566666667,-83.75,-84.77
1730041458048945471,1730041458048691034,12,2.31,0.87,0.5,47.297557000000005,-83.06,-82.71
1730041458148987300,1730041458148722887,12,2.31,0.87,0.5,47.303810666666664,-83.09,-82.61
1730041458248929799,1730041458248755693,12,2.31,0.87,0.5,47.31006433333334,-83.23,-84.41
1730041458349239165,1730041458349056482,12,2.31,0.87,0.5,47.316318,-84.11,-85.97
1730041458449172147,1730041458449076652,12,2.31,0.87,0.5,47.31006433333334,-83.32,-84.98
1730041458546419954,1730041458546017169,12,2.31,0.87,0.5,47.303810666666664,-84.4,-84.9
1730041458647372526,1730041458647240638,12,2.31,0.87,0.5,47.297557000000005,-82.96,-82.78
1730041458747547686,1730041458747348070,12,2.31,0.87,0.5,47.303810666666664,-84.35,-86.58
1730041458847631596,1730041458847417116,12,2.31,0.87,0.5,47.31006433333334,-83.9,-83.74
1730041458947511832,1730041458947269678,12,2.31,0.87,0.5,47.322573,-83.4,-83.02
1730041459047534561,1730041459047219514,12,2.31,0.87,0.5,47.31631933333333,-83.67,-85.36
1730041459147509343,1730041459147288560,12,2.31,0.87,0.5,47.31631933333333,-84.21,-85.08
1730041459247793235,1730041459247263431,12,2.31,0.87,0.5,47.29755733333334,-84.54,-85.75
1730041459378107190,1730041459377678394,12,2.31,0.87,0.5,47.291304,-84.36,-86.31
1730041459447842776,1730041459447592496,12,2.31,0.87,0.5,47.278797,-84.26,-85.52
1730041460048363968,1730041460048246860,12,2.31,0.87,0.5,47.29755733333334,-83.5,-83.22
1730041460147798322,1730041460147710800,12,2.31,0.87,0.5,47.29755733333334,-83.84,-83.51
1730041460248180058,1730041460247958183,12,2.31,0.87,0.5,47.291303666666664,-83.65,-84.98
1730041460347436390,1730041460347182989,12,2.31,0.87,0.5,47.278796666666665,-85.41,-86.99
1730041460448302856,1730041460448082208,12,2.31,0.87,0.5,47.28504999999999,-83.45,-83.14
1730041460546364195,1730041460546017169,12,2.31,0.87,0.5,47.28504999999999,-83.31,-83.03
1730041460647262154,1730041460647180080,12,2.31,0.87,0.5,47.297557000000005,-83.94,-83.76
1730041460746211959,1730041460746033668,12,2.31,0.87,0.5,47.303810666666664,-83.37,-83.83
1730041460847583693,1730041460847293615,12,2.31,0.87,0.5,47.29755733333334,-83.01,-83.34
1730041460947444554,1730041460947213411,12,2.31,0.87,0.5,47.310066,-82.94,-84.91
1730041461047500025,1730041461047224760,12,2.31,0.87,0.5,47.310066,-82.85,-84.81
1730041461246368756,1730041461246058940,12,2.31,0.87,0.5,47.328827999999994,-82.56,-82.37
1730041461347461287,1730041461347217321,12,2.31,0.87,0.5,47.322573,-83.12,-83.01
1730041461446414149,1730041461446038484,12,2.31,0.87,0.5,47.34758866666667,-83.19,-84.68
1730041461546475950,1730041461546047925,12,2.31,0.87,0.5,47.36634933333334,-82.45,-84.28
1730041461646420710,1730041461646049261,12,2.31,0.87,0.5,47.385111333333334,-82.7,-83.3
1730041461749039808,1730041461748864650,12,2.31,0.87,0.5,47.37885766666667,-82.32,-82.58
1730041461849057373,1730041461848857164,12,2.31,0.87,0.5,47.37885766666667,-82.17,-83.89
1730041461947390838,1730041461947101593,12,2.31,0.87,0.5,47.39136466666667,-81.98,-81.67
1730041462048160562,1730041462048019409,12,2.31,0.87,0.5,47.416380000000004,-82.26,-84.17
1730041462147438594,1730041462147329330,12,2.31,0.87,0.5,47.416380000000004,-82.15,-82.34
1730041462247640613,1730041462247263908,12,2.31,0.87,0.5,47.42888833333333,-82.2,-83.5
1730041462346400924,1730041462346058845,12,2.31,0.87,0.5,47.435142000000006,-82.62,-83.9
1730041462446444297,1730041462446089029,12,2.31,0.87,0.5,47.460157333333335,-82.64,-84.77
1730041462547776832,1730041462547440290,12,2.31,0.87,0.5,47.466411,-81.86,-82.11
1730041462648730667,1730041462648614883,12,2.31,0.87,0.5,47.466411,-81.92,-81.95
1730041462747494020,1730041462747402429,12,2.31,0.87,0.5,47.460157333333335,-81.52,-81.78
1730041462848302646,1730041462848010301,12,2.31,0.87,0.5,47.47891933333333,-82.02,-82.69
1730041462946435129,1730041462946078062,12,2.31,0.87,0.5,47.51018833333333,-82.34,-84.27
1730041463046318964,1730041463046023845,12,2.31,0.87,0.5,47.566473,-81.74,-83.48
1730041463147325706,1730041463147170782,12,2.31,0.87,0.5,47.57272666666666,-81.02,-81.17
1730041463247980525,1730041463247726440,12,2.31,0.87,0.5,47.578980333333334,-81.25,-81.77
1730041463348218476,1730041463347952365,12,2.31,0.87,0.5,47.58523399999999,-81.71,-81.42
1730041463448300792,1730041463448208093,12,2.31,0.87,0.5,47.63526366666667,-81.87,-81.58
1730041463546373338,1730041463546025514,12,2.31,0.87,0.5,47.67904099999999,-81.83,-83.69
1730041463646257926,1730041463646044731,12,2.31,0.87,0.5,47.704056333333334,-81.68,-81.6
1730041463748419215,1730041463748153448,12,2.31,0.87,0.5,47.72907166666666,-83.05,-83.69
1730041463847525619,1730041463847226381,12,2.31,0.87,0.5,47.754085999999994,-82.84,-84.86
1730041463946397877,1730041463946010351,12,2.31,0.87,0.5,47.77284666666666,-82.92,-82.71
1730041464048660761,1730041464048363447,12,2.31,0.87,0.5,47.79160866666666,-84.05,-86.28
1730041464146490574,1730041464146015882,12,2.31,0.87,0.5,47.810370666666664,-83.75,-83.67
1730041464248249622,1730041464248039960,12,2.31,0.87,0.5,47.83538633333333,-83.92,-84.09
1730041464347572493,1730041464347179412,12,2.31,0.87,0.5,47.854147000000005,-84.76,-86.22
1730041464447456212,1730041464447175264,12,2.31,0.87,0.5,47.87290766666666,-84.9,-84.69
1730041464547561696,1730041464547276258,12,2.31,0.87,0.5,47.90417666666667,-86.01,-86.85
1730041464648313148,1730041464647972822,12,2.31,0.87,0.5,47.935446000000006,-84.05,-83.45
1730041464747677597,1730041464747368097,12,2.31,0.87,0.5,47.96046166666667,-84.35,-84.38
1730041464847874477,1730041464847577571,12,2.31,0.87,0.5,48.004237999999994,-84.52,-85.82
1730041464948489465,1730041464948161363,12,2.31,0.87,0.5,48.035506999999996,-85.95,-85.4
1730041465048594007,1730041465048408508,12,2.31,0.87,0.5,48.06052233333333,-85.08,-86.31
1730041465148584980,1730041465148390769,12,2.31,0.87,0.5,48.079284333333334,-84.66,-84.07
1730041465248592360,1730041465248316049,12,2.31,0.87,0.5,48.08553766666666,-85.53,-86.35
1730041465349452766,1730041465349215984,12,2.31,0.87,0.5,48.123060333333335,-85.75,-85.66
1730041465449223318,1730041465449037790,12,2.31,0.87,0.5,48.12931366666666,-87.85,-87.88
1730041465548572043,1730041465548249006,12,2.31,0.87,0.5,48.160582999999995,-84.64,-85.46
1730041465648311038,1730041465648183584,12,2.31,0.87,0.5,48.179345000000005,-85.33,-85.85
1730041465748475996,1730041465748302221,12,2.31,0.87,0.5,48.198107,-84.8,-86.39
1730041465847730369,1730041465847359418,12,2.31,0.87,0.5,48.22312233333333,-85.92,-85.88
1730041465946550473,1730041465946065902,12,2.31,0.87,0.5,48.23562933333333,-83.29,-82.82
1730041466046641521,1730041466046048402,12,2.31,0.87,0.5,48.26689833333334,-83.49,-84.35
1730041466147641331,1730041466147367000,12,2.31,0.87,0.5,48.310676,-84.21,-83.49
1730041466247786638,1730041466247511625,12,2.31,0.87,0.5,33.57670133333333,-83.21,-84.78
1730041466346717661,1730041466346033811,12,2.31,0.87,0.5,33.582955,-82.95,-83.27
1730041466447476336,1730041466447236299,12,2.31,0.87,0.5,33.601717,-83.51,-83.3
1730041466547319904,1730041466547110080,12,2.31,0.87,0.5,48.36070599999999,-83.48,-84.86
1730041466646395251,1730041466646032810,12,2.31,0.87,0.5,48.373213,-84.04,-84.46
1730041466746450421,1730041466746027469,12,2.31,0.87,0.5,48.37946633333333,-83.44,-85.83
1730041466847529804,1730041466847311973,12,2.31,0.87,0.5,48.38572133333333,-84.54,-86.97
1730041466947559241,1730041466947165012,12,2.31,0.87,0.5,48.38572133333333,-84.21,-84.11
1730041467048528690,1730041467048318862,12,2.31,0.87,0.5,48.373213,-83.72,-83.62
1730041467146595255,1730041467146027565,12,2.31,0.87,0.5,48.38571999999999,-83.95,-86.27
1730041467248288385,1730041467248083353,12,2.31,0.87,0.5,48.391975,-83.9,-83.98
1730041467348249158,1730041467348073244,12,2.31,0.87,0.5,48.40448333333333,-84.08,-83.78
1730041467477718749,1730041467477403879,12,2.31,0.87,0.5,48.39197633333333,-83.3,-84.0
1730041467547255066,1730041467546953678,12,2.31,0.87,0.5,48.39822966666666,-85.16,-86.42
1730041467646538020,1730041467646042585,12,2.31,0.87,0.5,48.37946766666666,-86.06,-86.99
1730041467751049249,1730041467747667551,12,2.31,0.87,0.5,48.36070566666666,-88.23,-88.18
1730041467847387518,1730041467847233295,12,2.31,0.87,0.5,48.31067466666667,-88.36,-88.38
1730041467947413010,1730041467947230577,12,2.31,0.87,0.5,48.273152333333336,-89.01,-90.31
1730041468047410747,1730041468047176361,12,2.31,0.87,0.5,48.23562966666666,-87.11,-88.1
1730041468147697140,1730041468147455692,12,2.31,0.87,0.5,48.223122666666676,-88.1,-87.7
1730041468246645062,1730041468246043682,12,2.31,0.87,0.5,48.21061533333333,-86.95,-88.18
1730041468346495389,1730041468346036195,12,2.31,0.87,0.5,48.19810699999999,-86.73,-88.03
1730041468447461270,1730041468447209358,12,2.31,0.87,0.5,48.18559866666667,-86.81,-86.65
1730041468546222602,1730041468546034336,12,2.31,0.87,0.5,48.17934399999999,-87.05,-86.66
1730041468646267260,1730041468646016836,12,2.31,0.87,0.5,48.17934399999999,-86.51,-87.01
1730041468747310830,1730041468747088670,12,2.31,0.87,0.5,48.160583333333335,-87.78,-89.16
1730041468847204652,1730041468846966266,12,2.31,0.87,0.5,48.148075999999996,-86.31,-87.6
1730041468947554008,1730041468947356700,12,2.31,0.87,0.5,48.10429966666666,-87.41,-87.64
1730041469046262306,1730041469046024560,12,2.31,0.87,0.5,48.08553766666666,-87.29,-87.29
1730041469147517008,1730041469147337198,12,2.31,0.87,0.5,48.054268666666665,-86.79,-86.19
1730041469246355310,1730041469246041536,12,2.31,0.87,0.5,48.048015,-87.09,-89.55
1730041469347345683,1730041469347059965,12,2.31,0.87,0.5,48.016746000000005,-86.95,-89.2
1730041469446495681,1730041469446024894,12,2.31,0.87,0.5,47.97922333333333,-88.96,-88.25
1730041469547556820,1730041469547349452,12,2.31,0.87,0.5,47.92919233333333,-87.87,-88.77
1730041469646320669,1730041469646051883,12,2.31,0.87,0.5,47.885416,-86.95,-86.69
1730041469748084120,1730041469747937202,12,2.31,0.87,0.5,47.82913133333333,-87.33,-88.03
1730041469848083087,1730041469847818613,12,2.31,0.87,0.5,47.785355333333335,-87.3,-88.05
1730041469946594696,1730041469946047306,12,2.31,0.87,0.5,47.73532433333333,-87.04,-87.7
1730041470046561697,1730041470046037197,12,2.31,0.87,0.5,47.69154833333334,-86.95,-87.33
1730041470148657842,1730041470148414373,12,2.31,0.87,0.5,47.629009999999994,-86.7,-88.06
1730041470247481710,1730041470247205972,12,2.31,0.87,0.5,47.578980333333334,-88.31,-89.89
1730041470348001212,1730041470347629547,12,2.31,0.87,0.5,47.510188666666664,-87.51,-86.89
1730041470447483432,1730041470447202920,12,2.31,0.87,0.5,47.453904333333334,-86.14,-87.53
1730041470547505534,1730041470547167062,12,2.31,0.87,0.5,47.37885766666667,-86.91,-88.1
1730041470647432657,1730041470647181034,12,2.31,0.87,0.5,47.322573,-86.36,-85.62
1730041470747702142,1730041470747385263,12,2.31,0.87,0.5,47.24752766666668,-86.98,-86.69
1730041470847479800,1730041470847263813,12,2.31,0.87,0.5,47.178735999999994,-91.45,-91.32
1730041470947255667,1730041470947086811,12,2.31,0.87,0.5,47.097435999999995,-86.88,-86.47
1730041471047421913,1730041471047126293,12,2.31,0.87,0.5,47.01613566666666,-87.73,-87.58
1730041471147373092,1730041471147115707,12,2.31,0.87,0.5,46.92232833333333,-87.57,-87.92
1730041471247426043,1730041471247183561,12,2.31,0.87,0.5,46.85353666666666,-86.91,-87.61
1730041471347411182,1730041471347104787,12,2.31,0.87,0.5,46.79099866666667,-86.22,-87.5
1730041471447725316,1730041471447408914,12,2.31,0.87,0.5,46.722207000000004,-87.61,-89.57
1730041471547438112,1730041471547160148,12,2.31,0.87,0.5,46.622145999999994,-86.86,-87.16
1730041472246338059,1730041472246043920,12,2.31,0.87,0.5,46.034288333333336,-86.71,-86.56
1730041472346314932,1730041472346048831,12,2.31,0.87,0.5,45.890449999999994,-86.88,-87.56
1730041472446442513,1730041472446051597,12,2.31,0.87,0.5,45.771627333333335,-87.73,-89.19
1730041472546216284,1730041472545983791,12,2.31,0.87,0.5,45.67782033333333,-86.68,-86.58
1730041472648443425,1730041472648135662,12,2.31,0.87,0.5,45.57775966666666,-86.63,-86.76
1730041472747453542,1730041472747249603,12,2.31,0.87,0.5,45.490206,-86.8,-88.31
1730041472847660425,1730041472847394227,12,2.31,0.87,0.5,45.39639866666667,-87.3,-87.63
1730041472947971812,1730041472947782039,12,2.31,0.87,0.5,45.308845,-85.8,-85.64
1730041473048500602,1730041473048157930,12,2.31,0.87,0.5,45.208784333333334,-87.29,-90.53
1730041473148365211,1730041473148106575,12,2.31,0.87,0.5,45.10872366666666,-86.73,-86.53
1730041473248151223,1730041473248013734,12,2.31,0.87,0.5,45.00240933333333,-86.72,-87.67
1730041473348139030,1730041473347879409,12,2.31,0.87,0.5,44.914857000000005,-85.98,-85.7
1730041473448471590,1730041473448271274,12,2.31,0.87,0.5,44.802289,-86.69,-89.66
1730041473548052252,1730041473547837018,12,2.31,0.87,0.5,44.70848166666667,-86.49,-86.55
1730041473648198780,1730041473648041486,12,2.31,0.87,0.5,44.57715033333333,-86.52,-87.62
1730041473748392879,1730041473748135328,12,2.31,0.87,0.5,44.48959666666667,-85.72,-85.76
