%time,field.stamp,field.id,field.x,field.y,field.z,field.distanceFromTag,field.rssi,field.rssi_fp
1730041400649204594,1730041400649077653,5,-0.37,-0.13,1.39,4.5902959999999995,-78.68,-80.46
1730041400749880503,1730041400749200344,5,-0.37,-0.13,1.39,4.590296,-79.22,-80.82
1730041400849076839,1730041400848938703,5,-0.37,-0.13,1.39,4.596550000000001,-78.96,-80.59
1730041400947576444,1730041400947289705,5,-0.37,-0.13,1.39,4.6028036666666665,-78.78,-80.68
1730041401047820850,1730041401047418594,5,-0.37,-0.13,1.39,4.577788666666667,-78.66,-80.38
1730041401146455098,1730041401146015644,5,-0.37,-0.13,1.39,4.552773333333334,-78.83,-80.72
1730041401246452176,1730041401246032238,5,-0.37,-0.13,1.39,4.552773333333334,-78.64,-80.42
1730041401346744365,1730041401346088647,5,-0.37,-0.13,1.39,4.577788333333333,-78.96,-80.79
1730041401446482808,1730041401446010589,5,-0.37,-0.13,1.39,4.577788333333333,-78.57,-80.49
1730041401546448329,1730041401546010732,5,-0.37,-0.13,1.39,4.596549666666667,-79.01,-80.65
1730041401646304619,1730041401646002292,5,-0.37,-0.13,1.39,4.584042,-78.49,-80.53
1730041401747626524,1730041401747258901,5,-0.37,-0.13,1.39,4.609057333333333,-78.78,-80.35
1730041401947522854,1730041401947278261,5,-0.37,-0.13,1.39,4.6215649999999995,-79.04,-80.71
1730041402047520151,1730041402047239065,5,-0.37,-0.13,1.39,4.6215649999999995,-78.59,-80.42
1730041402147493869,1730041402147222757,5,-0.37,-0.13,1.39,4.627818666666667,-79.83,-80.75
1730041402247770262,1730041402247554302,5,-0.37,-0.13,1.39,4.621565,-79.35,-80.77
1730041402348446887,1730041402348169565,5,-0.37,-0.13,1.39,4.6153113333333335,-79.23,-80.67
1730041402449101875,1730041402448897123,5,-0.37,-0.13,1.39,4.602803666666667,-78.88,-80.78
1730041402547962136,1730041402547423839,5,-0.37,-0.13,1.39,4.5902959999999995,-79.07,-80.67
1730041402647858149,1730041402647552967,5,-0.37,-0.13,1.39,4.596549666666666,-78.66,-80.53
1730041402747793507,1730041402747528553,5,-0.37,-0.13,1.39,4.5902959999999995,-78.54,-80.59
1730041402847473530,1730041402847198247,5,-0.37,-0.13,1.39,4.565280666666666,-78.66,-80.83
1730041402948013188,1730041402947561502,5,-0.37,-0.13,1.39,4.590296,-79.01,-80.49
1730041403346307712,1730041403346028804,5,-0.37,-0.13,1.39,4.584042,-78.84,-80.5
1730041403446477199,1730041403446052074,5,-0.37,-0.13,1.39,4.615311,-78.87,-80.94
1730041403546544484,1730041403546063184,5,-0.37,-0.13,1.39,4.571534333333333,-78.78,-80.55
1730041403646369370,1730041403646020174,5,-0.37,-0.13,1.39,4.565280666666667,-78.92,-80.78
1730041403746343170,1730041403746047973,5,-0.37,-0.13,1.39,4.546519333333333,-78.56,-80.38
1730041403849011767,1730041403848827838,5,-0.37,-0.13,1.39,4.565280666666667,-78.83,-80.53
1730041403948981848,1730041403948728561,5,-0.37,-0.13,1.39,4.577788333333333,-79.4,-80.68
1730041404046292993,1730041404046021461,5,-0.37,-0.13,1.39,4.5902959999999995,-78.58,-80.67
1730041404146409299,1730041404146080970,5,-0.37,-0.13,1.39,4.5715346666666665,-78.49,-80.7
1730041404246470696,1730041404246106863,5,-0.37,-0.13,1.39,4.552773333333334,-78.67,-80.94
1730041404346406174,1730041404346049785,5,-0.37,-0.13,1.39,4.546519333333333,-78.92,-80.68
1730041404446541855,1730041404446067094,5,-0.37,-0.13,1.39,4.571534666666667,-78.71,-80.51
1730041404546443168,1730041404546088218,5,-0.37,-0.13,1.39,4.584041999999999,-78.63,-80.66
1730041404646491940,1730041404646043539,5,-0.37,-0.13,1.39,4.584041999999999,-79.25,-80.77
1730041404746404571,1730041404746033668,5,-0.37,-0.13,1.39,4.590295666666667,-78.74,-80.49
1730041404846379390,1730041404846025705,5,-0.37,-0.13,1.39,4.590295666666667,-78.66,-80.39
1730041404946449752,1730041404946052789,5,-0.37,-0.13,1.39,4.577788333333333,-78.42,-80.58
1730041405147734842,1730041405147408962,5,-0.37,-0.13,1.39,4.565280666666667,-79.43,-80.61
1730041405246293653,1730041405246023178,5,-0.37,-0.13,1.39,4.571534666666667,-78.98,-80.55
1730041405648248206,1730041405648049592,5,-0.37,-0.13,1.39,4.6153113333333335,-78.77,-80.83
1730041406147267892,1730041406147171735,5,-0.37,-0.13,1.39,4.571534333333333,-78.96,-80.62
1730041406247446240,1730041406247340917,5,-0.37,-0.13,1.39,4.552773,-79.12,-81.09
1730041406347846478,1730041406347615718,5,-0.37,-0.13,1.39,4.565280666666667,-78.62,-80.62
1730041406446638549,1730041406446244239,5,-0.37,-0.13,1.39,4.577788333333333,-78.93,-81.21
1730041406548404141,1730041406548190116,5,-0.37,-0.13,1.39,4.596549666666666,-78.96,-80.49
1730041406647245346,1730041406647131919,5,-0.37,-0.13,1.39,4.6028036666666665,-78.99,-80.82
1730041406746795019,1730041406746170043,5,-0.37,-0.13,1.39,4.609057333333333,-78.82,-80.41
1730041406846364612,1730041406846068143,5,-0.37,-0.13,1.39,4.6028036666666665,-79.09,-80.82
1730041406946481553,1730041406946046352,5,-0.37,-0.13,1.39,4.571534666666667,-78.73,-81.2
1730041407046304528,1730041407046033382,5,-0.37,-0.13,1.39,4.552773333333334,-79.03,-81.08
1730041407146596579,1730041407146067619,5,-0.37,-0.13,1.39,4.5590269999999995,-78.47,-80.5
1730041407247123270,1730041407246193408,5,-0.37,-0.13,1.39,4.565280666666667,-78.81,-80.56
1730041407346356057,1730041407346050262,5,-0.37,-0.13,1.39,4.584042,-78.43,-80.58
1730041407446430310,1730041407446044445,5,-0.37,-0.13,1.39,4.5902959999999995,-78.66,-80.73
1730041407546384257,1730041407546090126,5,-0.37,-0.13,1.39,4.6028036666666665,-79.49,-80.88
1730041407646316127,1730041407646043300,5,-0.37,-0.13,1.39,4.59655,-78.63,-80.52
1730041407746469401,1730041407746099710,5,-0.37,-0.13,1.39,4.5902959999999995,-78.29,-80.56
1730041407846405252,1730041407846035242,5,-0.37,-0.13,1.39,4.584041999999999,-78.88,-80.87
1730041407946416680,1730041407946038961,5,-0.37,-0.13,1.39,4.577788,-78.17,-80.46
1730041408049167060,1730041408048884153,5,-0.37,-0.13,1.39,4.584042,-78.92,-80.73
1730041408149961015,1730041408149700164,5,-0.37,-0.13,1.39,4.584041999999999,-78.7,-80.68
1730041408248844741,1730041408248553752,5,-0.37,-0.13,1.39,4.609057333333333,-78.6,-80.74
1730041408347635571,1730041408347356081,5,-0.37,-0.13,1.39,4.602803333333333,-78.62,-80.48
1730041408447662483,1730041408447382688,5,-0.37,-0.13,1.39,4.596549666666667,-78.68,-80.76
1730041408548688664,1730041408548484802,5,-0.37,-0.13,1.39,4.565280666666667,-79.27,-80.77
1730041408648431563,1730041408648218393,5,-0.37,-0.13,1.39,4.571534666666667,-78.46,-80.53
1730041408747733998,1730041408747418165,5,-0.37,-0.13,1.39,4.5840423333333336,-78.83,-80.44
1730041408848171875,1730041408848027944,5,-0.37,-0.13,1.39,4.609057666666666,-78.76,-80.71
1730041408948455767,1730041408948316335,5,-0.37,-0.13,1.39,4.609057666666666,-79.11,-80.9
1730041409048774424,1730041409048610210,5,-0.37,-0.13,1.39,4.6028036666666665,-78.66,-80.75
1730041409149381985,1730041409149249553,5,-0.37,-0.13,1.39,4.6028036666666665,-78.74,-80.8
1730041409248173262,1730041409247977733,5,-0.37,-0.13,1.39,4.596549666666666,-78.18,-80.55
1730041409348130754,1730041409347416639,5,-0.37,-0.13,1.39,4.584042333333333,-78.64,-81.11
1730041409447731831,1730041409447437763,5,-0.37,-0.13,1.39,4.559027,-78.56,-80.91
1730041409547848656,1730041409547580718,5,-0.37,-0.13,1.39,4.5715346666666665,-78.64,-80.52
1730041409648319827,1730041409648094177,5,-0.37,-0.13,1.39,4.596549666666667,-79.09,-80.94
1730041409849492589,1730041409849319458,5,-0.37,-0.13,1.39,4.577788333333333,-78.72,-80.97
1730041409949530531,1730041409949431180,5,-0.37,-0.13,1.39,4.559027,-79.18,-80.86
1730041410050120496,1730041410049969434,5,-0.37,-0.13,1.39,4.534012,-79.29,-80.82
1730041410149111999,1730041410148991584,5,-0.37,-0.13,1.39,4.546519666666666,-79.41,-80.68
1730041410249039897,1730041410248818874,5,-0.37,-0.13,1.39,4.534012,-79.54,-80.81
1730041410349669516,1730041410349267959,5,-0.37,-0.13,1.39,4.521504333333333,-79.36,-80.73
1730041410447503916,1730041410447238683,5,-0.37,-0.13,1.39,4.4964889999999995,-79.0,-80.61
1730041410548126101,1730041410547847509,5,-0.37,-0.13,1.39,4.471473666666667,-79.23,-80.61
1730041410646608198,1730041410646035194,5,-0.37,-0.13,1.39,4.452712,-79.41,-80.81
1730041410746386170,1730041410746036291,5,-0.37,-0.13,1.39,4.440204333333333,-79.15,-80.81
1730041410847339435,1730041410847149133,5,-0.37,-0.13,1.39,4.433950666666667,-78.61,-81.21
1730041410947193277,1730041410947095155,5,-0.37,-0.13,1.39,4.427697,-79.5,-82.44
1730041411047357846,1730041411047147274,5,-0.37,-0.13,1.39,4.408935666666667,-79.04,-80.76
1730041411147394956,1730041411147113800,5,-0.37,-0.13,1.39,4.383920333333333,-79.27,-81.95
1730041411246356458,1730041411246029853,5,-0.37,-0.13,1.39,4.346397333333333,-78.97,-80.62
1730041411346423091,1730041411346053123,5,-0.37,-0.13,1.39,4.321382,-78.61,-80.47
1730041411448995047,1730041411448741197,5,-0.37,-0.13,1.39,4.308874333333333,-79.02,-80.64
1730041411548976836,1730041411548806190,5,-0.37,-0.13,1.39,4.296367,-78.87,-80.85
1730041411648978481,1730041411648752450,5,-0.37,-0.13,1.39,4.258844,-78.7,-80.92
1730041411748275119,1730041411748097181,5,-0.37,-0.13,1.39,4.240082666666667,-79.02,-80.94
1730041411849232205,1730041411848921775,5,-0.37,-0.13,1.39,4.208813333333333,-78.83,-80.72
1730041411949094198,1730041411948889017,5,-0.37,-0.13,1.39,4.221321,-78.94,-81.2
1730041412049761062,1730041412049456119,5,-0.37,-0.13,1.39,4.215067333333333,-78.81,-80.98
1730041412149498764,1730041412149209022,5,-0.37,-0.13,1.39,4.215067333333334,-79.42,-81.05
1730041412249530775,1730041412249352216,5,-0.37,-0.13,1.39,4.190052333333334,-79.07,-80.7
1730041412349179961,1730041412348893642,5,-0.37,-0.13,1.39,4.177544666666667,-79.42,-80.98
1730041412546386596,1730041412546032905,5,-0.37,-0.13,1.39,4.158783333333333,-79.31,-80.97
1730041412646710870,1730041412646083354,5,-0.37,-0.13,1.39,4.152529333333333,-79.11,-80.96
1730041412746405744,1730041412746021747,5,-0.37,-0.13,1.39,4.108752666666667,-78.77,-80.62
1730041412846396182,1730041412846033573,5,-0.37,-0.13,1.39,4.096245,-79.04,-80.69
1730041412946786245,1730041412946060180,5,-0.37,-0.13,1.39,4.089991333333334,-79.33,-81.07
1730041413046410825,1730041413046021938,5,-0.37,-0.13,1.39,4.089991333333334,-79.48,-80.82
1730041413149071544,1730041413148925542,5,-0.37,-0.13,1.39,4.096245333333333,-78.77,-80.68
1730041413248738913,1730041413248676776,5,-0.37,-0.13,1.39,4.077483666666667,-79.28,-80.81
1730041413348471240,1730041413348333835,5,-0.37,-0.13,1.39,4.096245000000001,-78.89,-81.07
1730041413448444773,1730041413448290824,5,-0.37,-0.13,1.39,4.089991,-78.97,-80.51
1730041413548477751,1730041413548172950,5,-0.37,-0.13,1.39,4.115006333333333,-79.41,-81.13
1730041413648283990,1730041413648077249,5,-0.37,-0.13,1.39,4.108752666666667,-79.18,-80.84
1730041413748794582,1730041413748660564,5,-0.37,-0.13,1.39,4.133768,-79.43,-80.61
1730041413848302467,1730041413848093509,5,-0.37,-0.13,1.39,4.165037,-79.17,-81.05
1730041413948327846,1730041413948182344,5,-0.37,-0.13,1.39,4.1900520000000006,-79.3,-80.95
1730041414049233282,1730041414049005746,5,-0.37,-0.13,1.39,4.227574999999999,-79.21,-81.51
1730041414147428811,1730041414147126197,5,-0.37,-0.13,1.39,4.233829,-79.27,-80.63
1730041414248812238,1730041414248604059,5,-0.37,-0.13,1.39,4.277605666666667,-78.78,-80.63
1730041414347472083,1730041414347222089,5,-0.37,-0.13,1.39,4.283859333333333,-79.23,-80.45
1730041414447733304,1730041414447377681,5,-0.37,-0.13,1.39,4.321382,-79.52,-81.25
1730041414547521259,1730041414547111749,5,-0.37,-0.13,1.39,4.340143666666667,-78.72,-80.77
1730041414649050258,1730041414648796319,5,-0.37,-0.13,1.39,4.377666666666666,-78.78,-80.71
1730041414748229042,1730041414748146772,5,-0.37,-0.13,1.39,4.402682,-79.09,-80.69
1730041414848260716,1730041414847990036,5,-0.37,-0.13,1.39,4.446458666666666,-79.46,-81.37
1730041414948537037,1730041414948354005,5,-0.37,-0.13,1.39,4.490235333333334,-79.39,-80.97
1730041415048564221,1730041415048344850,5,-0.37,-0.13,1.39,4.546519666666666,-79.37,-81.14
1730041415148529926,1730041415148367166,5,-0.37,-0.13,1.39,4.609057666666666,-79.41,-80.87
1730041415247763619,1730041415247304916,5,-0.37,-0.13,1.39,4.659088,-79.19,-80.74
1730041415347681849,1730041415347341775,5,-0.37,-0.13,1.39,4.715372333333334,-78.95,-80.88
1730041415447815220,1730041415447395801,5,-0.37,-0.13,1.39,4.765402666666667,-79.17,-80.48
1730041415848450295,1730041415848312139,5,-0.37,-0.13,1.39,4.965524666666667,-79.48,-80.75
1730041415949644225,1730041415949496984,5,-0.37,-0.13,1.39,5.015555,-78.9,-80.84
1730041416049612051,1730041416049384355,5,-0.37,-0.13,1.39,5.103108333333333,-78.79,-81.49
1730041416149421241,1730041416149196386,5,-0.37,-0.13,1.39,5.1656466666666665,-79.06,-80.99
1730041416248503667,1730041416248269557,5,-0.37,-0.13,1.39,5.228184666666667,-79.08,-80.59
1730041416348281813,1730041416348139286,5,-0.37,-0.13,1.39,5.2719613333333335,-78.74,-80.46
1730041416447369513,1730041416447206258,5,-0.37,-0.13,1.39,5.3219916666666665,-78.69,-80.67
1730041416547566733,1730041416547192811,5,-0.37,-0.13,1.39,5.390783666666667,-79.57,-80.84
1730041416647661641,1730041416647327423,5,-0.37,-0.13,1.39,5.4720830000000005,-79.08,-80.57
1730041416747285657,1730041416747122526,5,-0.37,-0.13,1.39,5.565890333333333,-78.75,-80.46
1730041416848004388,1730041416847578525,5,-0.37,-0.13,1.39,5.665951333333333,-78.91,-80.83
1730041416947937452,1730041416947825193,5,-0.37,-0.13,1.39,5.734743333333334,-78.9,-80.81
1730041417047890628,1730041417047450542,5,-0.37,-0.13,1.39,5.8222966666666665,-79.1,-81.92
1730041417147470620,1730041417147290229,5,-0.37,-0.13,1.39,5.997402999999999,-79.03,-80.56
1730041417247386131,1730041417247213840,5,-0.37,-0.13,1.39,6.072448666666666,-79.23,-81.12
1730041417347304937,1730041417347046375,5,-0.37,-0.13,1.39,6.166255666666667,-78.97,-80.56
1730041417447363631,1730041417447130918,5,-0.37,-0.13,1.39,6.228794000000001,-78.7,-80.66
1730041417547285185,1730041417547087669,5,-0.37,-0.13,1.39,6.35387,-78.78,-81.06
1730041417647918870,1730041417647513866,5,-0.37,-0.13,1.39,6.441423333333333,-78.82,-80.85
1730041417748116742,1730041417747765779,5,-0.37,-0.13,1.39,6.547738,-78.87,-81.94
1730041417847466378,1730041417847266674,5,-0.37,-0.13,1.39,6.610276333333334,-79.22,-80.78
1730041417947483910,1730041417947206497,5,-0.37,-0.13,1.39,6.691576,-79.19,-81.08
1730041418047396790,1730041418047171592,5,-0.37,-0.13,1.39,6.760368,-79.09,-80.77
1730041418147615664,1730041418147292613,5,-0.37,-0.13,1.39,6.847921333333333,-78.9,-80.92
1730041418247523616,1730041418247143745,5,-0.37,-0.13,1.39,6.954235999999999,-79.03,-80.49
1730041418347482574,1730041418347180843,5,-0.37,-0.13,1.39,7.066804333333333,-79.58,-80.42
1730041418447609602,1730041418447336435,5,-0.37,-0.13,1.39,7.166865333333333,-79.63,-80.96
1730041418547646683,1730041418547423839,5,-0.37,-0.13,1.39,7.241910999999999,-79.64,-80.79
1730041418647814516,1730041418647449493,5,-0.37,-0.13,1.39,7.310703,-79.31,-80.63
1730041418747507150,1730041418747086763,5,-0.37,-0.13,1.39,7.404509999999999,-80.41,-81.37
1730041418847347462,1730041418847099542,5,-0.37,-0.13,1.39,7.510824666666667,-79.59,-81.45
1730041418947416037,1730041418947107315,5,-0.37,-0.13,1.39,7.629646999999999,-79.25,-80.86
1730041419047642962,1730041419047360658,5,-0.37,-0.13,1.39,7.723454,-80.2,-82.05
1730041419147605326,1730041419147237539,5,-0.37,-0.13,1.39,7.823515,-79.34,-80.99
1730041419247534596,1730041419247229099,5,-0.37,-0.13,1.39,7.936084000000001,-79.34,-80.78
1730041419348024801,1730041419347900867,5,-0.37,-0.13,1.39,8.036145333333334,-79.24,-80.78
1730041419448283406,1730041419448054313,5,-0.37,-0.13,1.39,8.154967999999998,-79.52,-81.12
1730041419548157837,1730041419547959327,5,-0.37,-0.13,1.39,8.230013666666666,-79.49,-80.97
1730041419649014230,1730041419648261785,5,-0.37,-0.13,1.39,8.342582,-78.95,-80.7
1730041419748371053,1730041419748137950,5,-0.37,-0.13,1.39,8.411374,-79.83,-80.81
1730041419846339539,1730041419846045017,5,-0.37,-0.13,1.39,8.498927333333333,-79.55,-80.72
1730041419946410223,1730041419946039438,5,-0.37,-0.13,1.39,8.555211666666667,-79.78,-80.64
1730041420048837782,1730041420048650503,5,-0.37,-0.13,1.39,8.655272333333333,-80.24,-81.14
1730041420149132855,1730041420149035453,5,-0.37,-0.13,1.39,8.755333,-80.2,-81.16
1730041420279755315,1730041420279513120,5,-0.37,-0.13,1.39,8.861647666666668,-79.88,-80.92
1730041420348850505,1730041420348694801,5,-0.37,-0.13,1.39,8.955454999999999,-80.52,-80.93
1730041420449258321,1730041420448998928,5,-0.37,-0.13,1.39,9.06177,-79.89,-81.08
1730041420547627355,1730041420547327280,5,-0.37,-0.13,1.39,9.168085,-79.82,-80.77
1730041420646650727,1730041420646139621,5,-0.37,-0.13,1.39,9.293161333333332,-79.85,-80.94
1730041420747741232,1730041420747200727,5,-0.37,-0.13,1.39,9.399476,-79.57,-80.69
1730041421147320241,1730041421147114753,5,-0.37,-0.13,1.39,9.84975,-79.9,-80.58
1730041421247345686,1730041421247059345,5,-0.37,-0.13,1.39,9.956064666666668,-79.75,-80.98
1730041421346614940,1730041421346015453,5,-0.37,-0.13,1.39,10.074887000000002,-80.58,-80.89
1730041421446662502,1730041421446100473,5,-0.37,-0.13,1.39,10.206216666666668,-79.83,-80.83
1730041421549551329,1730041421549375772,5,-0.37,-0.13,1.39,10.300024,-80.28,-80.96
1730041421649609195,1730041421649422883,5,-0.37,-0.13,1.39,10.412592666666667,-80.89,-83.42
1730041421748797049,1730041421748666286,5,-0.37,-0.13,1.39,10.5064,-80.82,-81.4
1730041421849256027,1730041421849083185,5,-0.37,-0.13,1.39,10.631476,-81.76,-83.11
1730041421948894015,1730041421948708534,5,-0.37,-0.13,1.39,10.725283333333332,-79.96,-80.93
1730041422049231111,1730041422048856496,5,-0.37,-0.13,1.39,10.881628666666666,-80.95,-82.59
1730041422148935441,1730041422148757457,5,-0.37,-0.13,1.39,11.019212666666666,-81.01,-81.29
1730041422346221340,1730041422346033811,5,-0.37,-0.13,1.39,11.181811333333334,-80.07,-81.27
1730041422446461542,1730041422446050405,5,-0.37,-0.13,1.39,11.313141333333334,-80.83,-81.34
1730041422546217170,1730041422546036720,5,-0.37,-0.13,1.39,11.438217333333334,-79.45,-80.69
1730041422646396694,1730041422646034002,5,-0.37,-0.13,1.39,11.525770666666666,-79.42,-80.53
1730041422746457113,1730041422746029138,5,-0.37,-0.13,1.39,11.625831666666665,-79.64,-80.97
1730041422846222997,1730041422846050739,5,-0.37,-0.13,1.39,11.732146666666665,-78.88,-80.79
1730041422949008276,1730041422948692321,5,-0.37,-0.13,1.39,11.863476666666665,-79.45,-80.67
1730041423048622879,1730041423048391103,5,-0.37,-0.13,1.39,11.969791333333333,-79.43,-80.52
1730041423148555912,1730041423148380994,5,-0.37,-0.13,1.39,12.069852000000003,-79.54,-80.54
1730041423248500302,1730041423248301267,5,-0.37,-0.13,1.39,12.163659333333333,-80.11,-81.12
1730041423348476380,1730041423348279953,5,-0.37,-0.13,1.39,12.276227666666665,-80.12,-80.92
1730041423448442959,1730041423448297739,5,-0.37,-0.13,1.39,12.407558,-80.26,-81.23
1730041423548146665,1730041423547966003,5,-0.37,-0.13,1.39,12.538887666666666,-80.44,-83.04
1730041423649378050,1730041423649000883,5,-0.37,-0.13,1.39,12.663964,-81.14,-83.95
1730041423748548135,1730041423748181104,5,-0.37,-0.13,1.39,12.770278666666668,-80.45,-83.38
1730041423848800281,1730041423848521471,5,-0.37,-0.13,1.39,12.876593666666666,-81.71,-83.93
1730041423948404402,1730041423948170661,5,-0.37,-0.13,1.39,12.976654666666668,-81.97,-83.62
1730041424048262149,1730041424047969341,5,-0.37,-0.13,1.39,13.089222999999999,-83.17,-84.84
1730041424148411073,1730041424148219585,5,-0.37,-0.13,1.39,13.201791666666667,-81.68,-81.41
1730041424248599351,1730041424248384714,5,-0.37,-0.13,1.39,13.301852666666667,-80.96,-82.83
1730041424348466764,1730041424348313093,5,-0.37,-0.13,1.39,13.39566,-80.66,-81.5
1730041424448450709,1730041424448200464,5,-0.37,-0.13,1.39,13.514482333333333,-81.52,-82.1
1730041424547491783,1730041424547163486,5,-0.37,-0.13,1.39,13.639558333333333,-80.33,-81.23
1730041424648425229,1730041424648257732,5,-0.37,-0.13,1.39,13.770888333333332,-80.17,-81.26
1730041424748021563,1730041424747894048,5,-0.37,-0.13,1.39,13.895964333333334,-79.65,-80.75
1730041424848524030,1730041424848261594,5,-0.37,-0.13,1.39,14.002279333333334,-79.68,-80.86
1730041424949112451,1730041424948885679,5,-0.37,-0.13,1.39,14.133609333333334,-81.2,-81.45
1730041425048431586,1730041425048326969,5,-0.37,-0.13,1.39,14.233670333333334,-80.1,-80.94
1730041425148611002,1730041425148414373,5,-0.37,-0.13,1.39,14.346238666666666,-79.95,-80.92
1730041425247823865,1730041425247595310,5,-0.37,-0.13,1.39,14.440045666666668,-80.71,-81.11
1730041425347542582,1730041425347390651,5,-0.37,-0.13,1.39,14.540106666666668,-80.11,-80.96
1730041425447603069,1730041425447346687,5,-0.37,-0.13,1.39,14.652675333333335,-80.47,-81.08
1730041425547420331,1730041425547161102,5,-0.37,-0.13,1.39,14.777751666666667,-80.24,-80.9
1730041425647544597,1730041425647258520,5,-0.37,-0.13,1.39,14.915335666666666,-80.67,-81.12
1730041425747540665,1730041425747300863,5,-0.37,-0.13,1.39,15.034158,-80.27,-80.99
1730041425847449120,1730041425847331047,5,-0.37,-0.13,1.39,15.152980333333332,-80.97,-81.17
1730041425947409104,1730041425947173357,5,-0.37,-0.13,1.39,15.259295,-80.8,-81.67
1730041426047658806,1730041426047250986,5,-0.37,-0.13,1.39,15.403132666666666,-82.12,-81.49
1730041426147896937,1730041426147662639,5,-0.37,-0.13,1.39,15.49694,-81.08,-81.72
1730041426247295990,1730041426247199535,5,-0.37,-0.13,1.39,15.628269666666668,-80.92,-80.97
1730041426347502836,1730041426347295761,5,-0.37,-0.13,1.39,15.734584333333332,-81.31,-81.29
1730041426447286032,1730041426447111845,5,-0.37,-0.13,1.39,15.859660333333332,-81.5,-82.72
1730041426547467611,1730041426547207117,5,-0.37,-0.13,1.39,15.959721333333334,-81.93,-84.03
1730041426647848472,1730041426647584676,5,-0.37,-0.13,1.39,16.078543,-84.61,-84.21
1730041426747581755,1730041426747260570,5,-0.37,-0.13,1.39,16.334948333333333,-85.19,-86.41
1730041426848218401,1730041426847378969,5,-0.37,-0.13,1.39,16.435010000000002,-84.03,-83.96
1730041426947791776,1730041426947374105,5,-0.37,-0.13,1.39,16.535070666666666,-84.5,-84.11
1730041427047588746,1730041427047340393,5,-0.37,-0.13,1.39,16.647638999999998,-87.38,-88.22
1730041427147662450,1730041427147359132,5,-0.37,-0.13,1.39,16.760207333333334,-84.8,-86.17
1730041427347432033,1730041427347332715,5,-0.37,-0.13,1.39,16.89779133333333,-85.42,-85.78
1730041427447439399,1730041427447134494,5,-0.37,-0.13,1.39,17.041629,-86.56,-87.24
1730041427548338211,1730041427548126459,5,-0.37,-0.13,1.39,17.185466666666667,-86.02,-85.35
1730041427648150911,1730041427647940397,5,-0.37,-0.13,1.39,17.316796666666665,-85.93,-85.06
1730041427748349184,1730041427748056411,5,-0.37,-0.13,1.39,17.441873,-87.27,-86.85
1730041427848423442,1730041427848250389,5,-0.37,-0.13,1.39,17.548187333333335,-87.25,-87.78
1730041427948956888,1730041427948840141,5,-0.37,-0.13,1.39,17.648248666666664,-88.19,-88.99
1730041428046314993,1730041428046023607,5,-0.37,-0.13,1.39,17.760817333333332,-86.06,-86.95
1730041428146395109,1730041428146015405,5,-0.37,-0.13,1.39,17.885893666666664,-85.46,-87.18
1730041428246333292,1730041428246006727,5,-0.37,-0.13,1.39,18.017223666666666,-85.33,-87.54
1730041428346725310,1730041428346060514,5,-0.37,-0.13,1.39,18.142300000000002,-88.97,-90.07
1730041428448572042,1730041428448363542,5,-0.37,-0.13,1.39,18.286137666666665,-88.29,-87.79
1730041428549116553,1730041428548953771,5,-0.37,-0.13,1.39,18.404959666666667,-83.19,-82.77
1730041428648852035,1730041428648740291,5,-0.37,-0.13,1.39,18.517528,-83.09,-82.96
1730041428748908039,1730041428748837947,5,-0.37,-0.13,1.39,18.611335333333333,-82.81,-83.46
1730041428849072981,1730041428848829984,5,-0.37,-0.13,1.39,18.70514266666667,-83.18,-82.97
1730041428949583551,1730041428949352025,5,-0.37,-0.13,1.39,18.81771133333333,-81.34,-82.13
1730041429049442750,1730041429049342155,5,-0.37,-0.13,1.39,18.94278733333333,-82.2,-83.6
1730041429149577340,1730041429149315118,5,-0.37,-0.13,1.39,19.06161,-80.78,-81.14
1730041429249267068,1730041429249068975,5,-0.37,-0.13,1.39,19.161670666666666,-81.1,-81.59
1730041429349071486,1730041429348858118,5,-0.37,-0.13,1.39,19.249223666666666,-81.04,-80.88
1730041429449052579,1730041429448841810,5,-0.37,-0.13,1.39,19.355538,-80.77,-81.06
1730041429550081294,1730041429549845218,5,-0.37,-0.13,1.39,19.468107333333332,-80.99,-81.15
1730041429648944317,1730041429648710727,5,-0.37,-0.13,1.39,19.599437999999996,-81.05,-80.93
1730041429748678068,1730041429748401880,5,-0.37,-0.13,1.39,19.730768,-81.88,-81.35
1730041429848181957,1730041429848018169,5,-0.37,-0.13,1.39,19.85584366666667,-81.24,-81.21
1730041429948323346,1730041429948145627,5,-0.37,-0.13,1.39,19.949651,-81.96,-81.72
1730041430049165504,1730041430049014806,5,-0.37,-0.13,1.39,20.049712333333332,-81.27,-81.04
1730041430149023281,1730041430148823499,5,-0.37,-0.13,1.39,20.149773666666665,-80.96,-81.0
1730041430249007461,1730041430248833179,5,-0.37,-0.13,1.39,20.24983433333333,-80.77,-81.41
1730041430349008526,1730041430348758697,5,-0.37,-0.13,1.39,20.362402666666664,-80.9,-81.02
1730041430449425711,1730041430449286222,5,-0.37,-0.13,1.39,20.481224666666666,-80.76,-81.51
1730041430548782366,1730041430548556804,5,-0.37,-0.13,1.39,20.618808,-80.87,-80.93
1730041430649153758,1730041430649071455,5,-0.37,-0.13,1.39,20.737630333333332,-81.33,-81.04
1730041430750092031,1730041430749825716,5,-0.37,-0.13,1.39,20.862706666666664,-81.74,-81.86
1730041430849722818,1730041430849560022,5,-0.37,-0.13,1.39,20.987782999999997,-81.43,-81.37
1730041430946501225,1730041430946044683,5,-0.37,-0.13,1.39,21.112859333333333,-84.59,-86.09
1730041431046290560,1730041431046049594,5,-0.37,-0.13,1.39,21.225427999999997,-81.42,-81.59
1730041431146418792,1730041431146021366,5,-0.37,-0.13,1.39,21.32548866666667,-82.3,-82.03
1730041431246195455,1730041431246011972,5,-0.37,-0.13,1.39,21.438057,-81.73,-81.28
1730041431346445788,1730041431346041202,5,-0.37,-0.13,1.39,21.550625333333333,-81.63,-81.4
1730041431446377192,1730041431446080684,5,-0.37,-0.13,1.39,21.67570166666667,-82.51,-82.39
1730041431546495797,1730041431546039104,5,-0.37,-0.13,1.39,21.782016666666667,-81.78,-81.5
1730041431648393933,1730041431648184537,5,-0.37,-0.13,1.39,21.894585333333335,-81.94,-81.73
1730041431746401262,1730041431746021747,5,-0.37,-0.13,1.39,22.000900333333334,-82.14,-82.16
1730041431846499358,1730041431846004009,5,-0.37,-0.13,1.39,22.107214666666664,-82.34,-83.95
1730041431947667254,1730041431947419643,5,-0.37,-0.13,1.39,22.20727533333333,-82.17,-82.67
1730041432047687306,1730041432047459125,5,-0.37,-0.13,1.39,22.319844,-82.37,-82.23
1730041432146492536,1730041432145982503,5,-0.37,-0.13,1.39,22.438666666666666,-82.7,-82.64
1730041432246555000,1730041432246040582,5,-0.37,-0.13,1.39,22.56999666666667,-82.52,-83.83
1730041432346348725,1730041432346020698,5,-0.37,-0.13,1.39,22.701326333333338,-83.6,-84.94
1730041432747718769,1730041432747188806,5,-0.37,-0.13,1.39,23.139093,-84.0,-84.58
1730041432947997055,1730041432947603464,5,-0.37,-0.13,1.39,23.289185,-82.79,-84.92
1730041433046411944,1730041433046025514,5,-0.37,-0.13,1.39,23.451784333333332,-82.56,-84.49
1730041433147403654,1730041433147132873,5,-0.37,-0.13,1.39,23.614383,-83.34,-85.0
1730041433379905754,1730041433379670381,5,-0.37,-0.13,1.39,23.764473999999996,-82.95,-83.42
1730041433448928889,1730041433448737621,5,-0.37,-0.13,1.39,23.914565333333332,-84.33,-84.68
1730041433548024048,1730041433547684669,5,-0.37,-0.13,1.39,24.064656666666668,-83.74,-86.51
1730041433648222970,1730041433648077487,5,-0.37,-0.13,1.39,24.170971666666663,-83.9,-85.56
1730041433748224026,1730041433747946023,5,-0.37,-0.13,1.39,24.27728666666667,-83.9,-85.95
1730041433849726743,1730041433849468469,5,-0.37,-0.13,1.39,24.389855,-83.93,-84.31
1730041433948159680,1730041433947827816,5,-0.37,-0.13,1.39,24.514931333333333,-83.86,-85.88
1730041434047948433,1730041434047703504,5,-0.37,-0.13,1.39,24.633753333333335,-84.95,-86.07
1730041434147394961,1730041434147130966,5,-0.37,-0.13,1.39,24.758829666666667,-84.12,-83.92
1730041434248004147,1730041434247585535,5,-0.37,-0.13,1.39,24.883906,-87.73,-88.07
1730041434347523652,1730041434347090959,5,-0.37,-0.13,1.39,25.002728666666666,-85.45,-85.55
1730041434447120240,1730041434447016000,5,-0.37,-0.13,1.39,25.11529733333333,-88.32,-88.72
1730041434547374928,1730041434547035932,5,-0.37,-0.13,1.39,25.340434666666667,-86.41,-87.01
1730041434648034988,1730041434647732019,5,-0.37,-0.13,1.39,25.465511000000003,-85.57,-86.92
1730041434748343223,1730041434747560977,5,-0.37,-0.13,1.39,25.565571666666667,-86.42,-86.92
1730041434847645659,1730041434847407579,5,-0.37,-0.13,1.39,25.709409333333337,-85.95,-86.08
1730041434947729198,1730041434947360038,5,-0.37,-0.13,1.39,25.834485666666666,-87.18,-86.35
1730041435047521277,1730041435047148227,5,-0.37,-0.13,1.39,25.928293,-89.79,-90.53
1730041435147547259,1730041435147174119,5,-0.37,-0.13,1.39,26.047115,-85.04,-85.21
1730041435247759746,1730041435247179508,5,-0.37,-0.13,1.39,26.128414333333335,-86.82,-88.02
1730041435347623533,1730041435347418308,5,-0.37,-0.13,1.39,26.291013333333336,-85.04,-85.71
1730041435448417501,1730041435448195219,5,-0.37,-0.13,1.39,26.359804999999998,-85.67,-87.28
1730041435548099807,1730041435547958850,5,-0.37,-0.13,1.39,26.497389,-90.81,-91.36
1730041435648159075,1730041435647975444,5,-0.37,-0.13,1.39,26.591195999999997,-89.68,-89.81
1730041435748300517,1730041435748064279,5,-0.37,-0.13,1.39,26.710018666666667,-92.67,-93.47
1730041435848269548,1730041435848054170,5,-0.37,-0.13,1.39,26.803825333333332,-91.86,-92.88
1730041435948276084,1730041435948023319,5,-0.37,-0.13,1.39,26.928901666666665,-84.68,-87.48
1730041436047303031,1730041436047152042,5,-0.37,-0.13,1.39,27.053978,-85.32,-87.67
1730041436147230731,1730041436147066593,5,-0.37,-0.13,1.39,27.185308333333335,-86.3,-86.96
1730041436247251788,1730041436246973991,5,-0.37,-0.13,1.39,27.285369000000003,-85.21,-85.92
1730041436347027068,1730041436346929311,5,-0.37,-0.13,1.39,27.397937666666667,-84.5,-85.74
1730041436448261778,1730041436447950124,5,-0.37,-0.13,1.39,27.51050633333333,-87.08,-87.75
1730041436547602558,1730041436547346830,5,-0.37,-0.13,1.39,27.654344,-84.34,-85.16
1730041436647711223,1730041436647529363,5,-0.37,-0.13,1.39,27.785673666666668,-84.4,-84.52
1730041436747400062,1730041436747123003,5,-0.37,-0.13,1.39,27.91700366666667,-83.66,-83.94
1730041436847388998,1730041436847132444,5,-0.37,-0.13,1.39,28.02331866666667,-83.59,-83.93
1730041436947398941,1730041436947214603,5,-0.37,-0.13,1.39,28.148395000000004,-82.88,-83.33
1730041437047372827,1730041437047080516,5,-0.37,-0.13,1.39,28.260963333333333,-83.73,-83.82
1730041437147323934,1730041437147142648,5,-0.37,-0.13,1.39,28.37978533333333,-83.9,-85.03
1730041437247554614,1730041437247304916,5,-0.37,-0.13,1.39,28.49860766666667,-83.77,-83.48
1730041437347457642,1730041437347212553,5,-0.37,-0.13,1.39,28.611176333333333,-83.91,-83.83
1730041437447955644,1730041437447636127,5,-0.37,-0.13,1.39,28.72999866666667,-85.47,-85.11
1730041437547339500,1730041437547133207,5,-0.37,-0.13,1.39,28.836313666666666,-82.79,-82.72
1730041437647388831,1730041437647089242,5,-0.37,-0.13,1.39,28.961389999999998,-83.4,-85.49
1730041437747669960,1730041437747290134,5,-0.37,-0.13,1.39,29.080212666666664,-82.9,-82.57
1730041437849086129,1730041437848811864,5,-0.37,-0.13,1.39,29.192780999999997,-82.94,-82.65
1730041437950237636,1730041437949964761,5,-0.37,-0.13,1.39,29.292841666666664,-82.6,-82.57
1730041438046418556,1730041438046078920,5,-0.37,-0.13,1.39,29.417918,-83.06,-83.28
1730041438348001444,1730041438347874641,5,-0.37,-0.13,1.39,29.605532666666665,-82.76,-82.45
1730041438447989354,1730041438447608947,5,-0.37,-0.13,1.39,29.793147,-82.27,-82.32
1730041438547438104,1730041438547275781,5,-0.37,-0.13,1.39,29.96825366666667,-85.41,-85.31
1730041438647360928,1730041438647140979,5,-0.37,-0.13,1.39,30.087075666666667,-84.38,-85.84
1730041438747724692,1730041438747524499,5,-0.37,-0.13,1.39,30.218405666666666,-84.21,-86.24
1730041438846368885,1730041438846014499,5,-0.37,-0.13,1.39,30.34973533333333,-84.09,-85.75
1730041438949104287,1730041438948889493,5,-0.37,-0.13,1.39,30.462303666666667,-82.14,-82.21
1730041439048573691,1730041439048422813,5,-0.37,-0.13,1.39,30.56861866666667,-81.87,-81.64
1730041439149738555,1730041439149451494,5,-0.37,-0.13,1.39,30.668679666666666,-82.1,-82.0
1730041439248410539,1730041439248158454,5,-0.37,-0.13,1.39,30.793756,-82.69,-82.44
1730041439347788236,1730041439347521781,5,-0.37,-0.13,1.39,30.900070333333332,-81.78,-81.64
1730041439447724511,1730041439447436332,5,-0.37,-0.13,1.39,31.000131,-83.02,-82.7
1730041439547264285,1730041439547057151,5,-0.37,-0.13,1.39,31.231522333333334,-82.22,-82.47
1730041439647201339,1730041439647035598,5,-0.37,-0.13,1.39,31.350345,-81.82,-81.69
1730041439748302371,1730041439748035907,5,-0.37,-0.13,1.39,31.450405666666665,-81.99,-82.22
1730041439846416900,1730041439846058130,5,-0.37,-0.13,1.39,31.581735666666663,-84.18,-85.8
1730041439946569233,1730041439946053028,5,-0.37,-0.13,1.39,31.700558,-82.3,-82.02
1730041440046293120,1730041440046019554,5,-0.37,-0.13,1.39,31.81938066666667,-82.78,-83.33
1730041440146593518,1730041440146077632,5,-0.37,-0.13,1.39,31.919441333333335,-82.63,-83.81
1730041440246508723,1730041440246047496,5,-0.37,-0.13,1.39,32.03826333333333,-82.17,-81.99
1730041440346240165,1730041440346013784,5,-0.37,-0.13,1.39,32.150831333333336,-82.17,-82.42
1730041440446494789,1730041440446017026,5,-0.37,-0.13,1.39,32.257145666666666,-82.9,-83.33
1730041440549367795,1730041440549134254,5,-0.37,-0.13,1.39,32.36971466666666,-83.24,-85.33
1730041440650779828,1730041440650419473,5,-0.37,-0.13,1.39,32.494791,-82.98,-82.76
1730041440749224699,1730041440749024629,5,-0.37,-0.13,1.39,32.61986733333333,-83.22,-85.3
1730041440849614991,1730041440849412202,5,-0.37,-0.13,1.39,32.75119733333333,-85.09,-84.72
1730041440949431455,1730041440949266672,5,-0.37,-0.13,1.39,32.86376666666666,-83.24,-82.78
1730041441049541163,1730041441049316644,5,-0.37,-0.13,1.39,32.98258933333333,-83.61,-83.31
1730041441149675614,1730041441149533748,5,-0.37,-0.13,1.39,33.088903666666674,-83.27,-84.88
1730041441248866207,1730041441248593807,5,-0.37,-0.13,1.39,33.20147133333334,-83.84,-84.08
1730041441348962680,1730041441348760366,5,-0.37,-0.13,1.39,33.320294,-83.49,-84.92
1730041441449079452,1730041441448659181,5,-0.37,-0.13,1.39,33.43911666666667,-83.62,-84.0
1730041441548752970,1730041441548602819,5,-0.37,-0.13,1.39,33.564192999999996,-83.83,-85.39
1730041441648847217,1730041441648666858,5,-0.37,-0.13,1.39,33.664254,-84.29,-84.78
1730041441779455396,1730041441779292583,5,-0.37,-0.13,1.39,33.764315,-83.29,-83.29
1730041441849529524,1730041441849026441,5,-0.37,-0.13,1.39,33.87688433333333,-84.32,-84.28
1730041441948883177,1730041441948654174,5,-0.37,-0.13,1.39,34.00196066666667,-83.65,-85.79
1730041442049296153,1730041442048988103,5,-0.37,-0.13,1.39,34.11452966666666,-83.37,-83.37
1730041442547764581,1730041442547511816,5,-0.37,-0.13,1.39,34.733655999999996,-82.99,-83.12
1730041442648453612,1730041442647915840,5,-0.37,-0.13,1.39,34.846224,-83.37,-83.79
1730041442747616476,1730041442747387647,5,-0.37,-0.13,1.39,34.977554000000005,-83.73,-83.91
1730041442846911263,1730041442846025228,5,-0.37,-0.13,1.39,35.096375333333334,-85.08,-85.45
1730041442949145996,1730041442948974609,5,-0.37,-0.13,1.39,35.202691,-82.8,-82.91
1730041443048907705,1730041443048686504,5,-0.37,-0.13,1.39,35.31526,-83.3,-83.14
1730041443148972128,1730041443148852586,5,-0.37,-0.13,1.39,35.42157566666666,-83.5,-83.87
1730041443248858952,1730041443248656749,5,-0.37,-0.13,1.39,35.546652,-83.05,-83.03
1730041443349057758,1730041443348885059,5,-0.37,-0.13,1.39,35.665473666666664,-83.43,-83.31
1730041443448680571,1730041443448505640,5,-0.37,-0.13,1.39,35.790548666666666,-83.04,-82.92
1730041443548780946,1730041443548631906,5,-0.37,-0.13,1.39,35.915625,-83.67,-83.59
1730041443946427053,1730041443946055412,5,-0.37,-0.13,1.39,36.39716933333333,-82.63,-82.89
1730041444046485388,1730041444046072721,5,-0.37,-0.13,1.39,36.49097633333333,-82.59,-82.49
1730041444146327223,1730041444146026134,5,-0.37,-0.13,1.39,36.603544,-82.76,-82.54
1730041444246382207,1730041444246064186,5,-0.37,-0.13,1.39,36.716112,-84.34,-85.76
1730041444346522795,1730041444346071720,5,-0.37,-0.13,1.39,36.84118833333333,-83.02,-83.69
1730041444446406864,1730041444446037054,5,-0.37,-0.13,1.39,36.94750266666667,-82.83,-82.95
1730041444546381448,1730041444546064376,5,-0.37,-0.13,1.39,37.06632533333334,-83.12,-82.71
1730041444649892185,1730041444649585008,5,-0.37,-0.13,1.39,37.17889466666667,-84.56,-86.14
1730041444746693433,1730041444746106386,5,-0.37,-0.13,1.39,37.29771733333333,-83.2,-84.23
1730041444848886958,1730041444848408937,5,-0.37,-0.13,1.39,37.397778333333335,-82.75,-82.73
1730041444948402070,1730041444948126316,5,-0.37,-0.13,1.39,37.52285466666667,-84.86,-84.5
1730041445049142335,1730041445048949718,5,-0.37,-0.13,1.39,37.647931,-83.98,-86.11
1730041445148796038,1730041445148610591,5,-0.37,-0.13,1.39,37.7605,-84.24,-85.72
1730041445248552561,1730041445248410224,5,-0.37,-0.13,1.39,37.873067666666664,-82.79,-83.03
1730041445348801586,1730041445348684549,5,-0.37,-0.13,1.39,37.979381999999994,-83.74,-83.78
1730041445448139064,1730041445447936773,5,-0.37,-0.13,1.39,38.09195,-83.42,-83.15
1730041445548323200,1730041445548079729,5,-0.37,-0.13,1.39,38.20451933333334,-84.44,-85.26
1730041445648396802,1730041445648178100,5,-0.37,-0.13,1.39,38.323342333333336,-83.3,-83.11
1730041445748993144,1730041445748737812,5,-0.37,-0.13,1.39,38.442165,-85.96,-87.79
1730041445848911834,1730041445848689556,5,-0.37,-0.13,1.39,38.56098633333334,-83.69,-85.11
1730041445948241225,1730041445948118448,5,-0.37,-0.13,1.39,38.67355533333333,-85.57,-85.99
1730041446048415945,1730041446048311948,5,-0.37,-0.13,1.39,38.81739233333334,-84.37,-83.89
1730041446148076513,1730041446147890329,5,-0.37,-0.13,1.39,38.93621533333334,-84.38,-85.97
1730041446248332100,1730041446247916698,5,-0.37,-0.13,1.39,39.055036666666666,-83.05,-82.97
1730041446348091582,1730041446347918510,5,-0.37,-0.13,1.39,39.148844,-85.35,-85.01
1730041446448424262,1730041446448259830,5,-0.37,-0.13,1.39,39.261413,-84.44,-86.61
1730041446548699293,1730041446548354387,5,-0.37,-0.13,1.39,39.38648933333334,-84.39,-85.86
1730041446649121810,1730041446648799419,5,-0.37,-0.13,1.39,39.505311999999996,-83.38,-83.36
1730041446778991718,1730041446778751850,5,-0.37,-0.13,1.39,39.62413333333333,-85.13,-86.58
1730041446848298650,1730041446848085165,5,-0.37,-0.13,1.39,39.730449,-84.72,-84.77
1730041446948297452,1730041446948141574,5,-0.37,-0.13,1.39,39.86177866666666,-85.75,-86.7
1730041447048220174,1730041447048018217,5,-0.37,-0.13,1.39,39.96809433333333,-85.11,-85.08
1730041447148367704,1730041447148141860,5,-0.37,-0.13,1.39,40.09316933333333,-84.7,-84.08
1730041447248881154,1730041447248616218,5,-0.37,-0.13,1.39,40.19948366666667,-85.51,-84.96
1730041447347260744,1730041447347178936,5,-0.37,-0.13,1.39,40.318305333333335,-84.98,-86.6
1730041447447387611,1730041447447177171,5,-0.37,-0.13,1.39,40.41836733333333,-85.38,-85.06
1730041447548695749,1730041447548426389,5,-0.37,-0.13,1.39,40.537190333333335,-86.01,-87.58
1730041447646699445,1730041447646060943,5,-0.37,-0.13,1.39,40.66852133333333,-85.42,-85.14
1730041447746411936,1730041447746061086,5,-0.37,-0.13,1.39,40.79985133333333,-86.57,-86.71
1730041447846513558,1730041447846073627,5,-0.37,-0.13,1.39,40.90616566666667,-85.77,-86.33
1730041447946407619,1730041447946015834,5,-0.37,-0.13,1.39,41.012480000000004,-87.97,-88.92
1730041448046445759,1730041448046010732,5,-0.37,-0.13,1.39,41.13130133333333,-86.74,-86.34
1730041448146515286,1730041448146027803,5,-0.37,-0.13,1.39,41.25637766666666,-85.73,-85.79
1730041448246340661,1730041448245995044,5,-0.37,-0.13,1.39,41.37520033333333,-86.19,-86.76
1730041448346293577,1730041448345997810,5,-0.37,-0.13,1.39,41.47526266666666,-86.54,-87.93
1730041448447276419,1730041448446015596,5,-0.37,-0.13,1.39,41.59408533333333,-86.97,-88.18
1730041448546495598,1730041448546018838,5,-0.37,-0.13,1.39,41.712906999999994,-85.96,-85.7
1730041448646588179,1730041448646065235,5,-0.37,-0.13,1.39,41.83172833333333,-86.51,-87.38
1730041448746601745,1730041448746022462,5,-0.37,-0.13,1.39,41.93804266666666,-86.28,-88.19
1730041448846341919,1730041448846020698,5,-0.37,-0.13,1.39,42.05061166666667,-86.56,-86.48
1730041448946504703,1730041448946017742,5,-0.37,-0.13,1.39,42.175688,-88.76,-88.89
1730041449048511730,1730041449048242568,5,-0.37,-0.13,1.39,42.28200366666667,-86.78,-88.97
1730041449146454038,1730041449146046638,5,-0.37,-0.13,1.39,42.482125333333336,-89.53,-90.19
1730041449246701690,1730041449246048688,5,-0.37,-0.13,1.39,42.61970866666667,-87.65,-87.53
1730041449346732913,1730041449346057176,5,-0.37,-0.13,1.39,42.738531333333334,-88.88,-89.27
1730041449446493964,1730041449446026563,5,-0.37,-0.13,1.39,42.86986133333334,-87.72,-88.56
1730041449546435645,1730041449546020746,5,-0.37,-0.13,1.39,42.97617566666667,-90.99,-92.36
1730041449646514522,1730041449646044015,5,-0.37,-0.13,1.39,43.101251999999995,-88.15,-90.22
1730041449746362242,1730041449746064186,5,-0.37,-0.13,1.39,43.22007466666667,-88.37,-90.67
1730041449846323319,1730041449846045255,5,-0.37,-0.13,1.39,43.345150999999994,-88.34,-90.31
1730041449949072372,1730041449948909759,5,-0.37,-0.13,1.39,43.45146533333334,-89.62,-90.39
1730041450049249470,1730041450048935651,5,-0.37,-0.13,1.39,43.54527266666667,-89.03,-91.45
1730041450148774665,1730041450148635864,5,-0.37,-0.13,1.39,43.65784166666666,-89.08,-89.48
1730041450246596985,1730041450246079921,5,-0.37,-0.13,1.39,43.789171333333336,-89.7,-90.25
1730041450346529067,1730041450346037387,5,-0.37,-0.13,1.39,43.920501,-89.13,-89.25
1730041450447632794,1730041450447464942,5,-0.37,-0.13,1.39,44.039324,-89.1,-89.9
1730041450547648479,1730041450547357559,5,-0.37,-0.13,1.39,44.151893333333334,-90.93,-90.89
1730041450647725535,1730041450647490262,5,-0.37,-0.13,1.39,44.26446266666667,-89.62,-92.73
1730041450747409033,1730041450747161865,5,-0.37,-0.13,1.39,44.37703033333333,-90.32,-93.37
1730041450847438728,1730041450847297430,5,-0.37,-0.13,1.39,44.489598,-90.14,-90.33
1730041450947354312,1730041450947174072,5,-0.37,-0.13,1.39,44.60841933333333,-90.67,-91.39
1730041451046395973,1730041451046014308,5,-0.37,-0.13,1.39,44.72098866666666,-90.37,-92.23
1730041451146561116,1730041451146110534,5,-0.37,-0.13,1.39,44.85231866666667,-91.32,-93.44
1730041451246505925,1730041451246014833,5,-0.37,-0.13,1.39,44.97114133333333,-91.0,-90.75
1730041451346767565,1730041451346068620,5,-0.37,-0.13,1.39,45.102471,-90.56,-90.8
1730041451446334555,1730041451446013212,5,-0.37,-0.13,1.39,45.20878533333333,-91.83,-91.99
1730041451546354668,1730041451546021938,5,-0.37,-0.13,1.39,45.32135466666666,-92.89,-93.45
1730041451646398049,1730041451646016836,5,-0.37,-0.13,1.39,45.43392266666666,-91.24,-93.04
1730041451746665316,1730041451746245622,5,-0.37,-0.13,1.39,45.546492,-92.8,-92.39
1730041451849142400,1730041451848947763,5,-0.37,-0.13,1.39,45.67782166666667,-92.5,-93.33
1730041451948862205,1730041451948739528,5,-0.37,-0.13,1.39,45.790391,-92.19,-93.88
1730041452050651957,1730041452050254344,5,-0.37,-0.13,1.39,45.909213666666666,-92.27,-92.67
1730041452150815842,1730041452150590181,5,-0.37,-0.13,1.39,46.015527999999996,-92.0,-94.26
1730041452249514224,1730041452249254941,5,-0.37,-0.13,1.39,46.13434933333334,-92.28,-92.0
1730041452547434925,1730041452547200202,5,-0.37,-0.13,1.39,46.32821733333333,-93.0,-93.95
1730041452647258546,1730041452647077798,5,-0.37,-0.13,1.39,46.515831999999996,-92.84,-92.41
1730041452747542526,1730041452747344970,5,-0.37,-0.13,1.39,46.71595466666667,-92.86,-92.38
1730041452847409086,1730041452847029209,5,-0.37,-0.13,1.39,46.834776,-93.75,-94.3
1730041452947518551,1730041452947116374,5,-0.37,-0.13,1.39,46.966105666666664,-92.82,-94.53
1730041453049461730,1730041453048927307,5,-0.37,-0.13,1.39,47.07867366666667,-93.34,-93.56
1730041453148852549,1730041453148712158,5,-0.37,-0.13,1.39,47.19749633333333,-93.91,-93.54
1730041453846438976,1730041453846067905,5,-0.37,-0.13,1.39,47.52894766666666,-97.15,-97.01
1730041454448781750,1730041454448611259,5,-0.37,-0.13,1.39,48.060522,-96.1,-96.54
1730041456849222064,1730041456848974704,5,-0.37,-0.13,1.39,48.92354766666667,-94.38,-98.71
1730041457049770386,1730041457049269437,5,-0.37,-0.13,1.39,49.486391,-95.06,-97.34
1730041457148904144,1730041457148642539,5,-0.37,-0.13,1.39,49.83035066666667,-93.42,-95.15
1730041457249006108,1730041457248722791,5,-0.37,-0.13,1.39,49.805335333333325,-93.75,-95.05
1730041457349317345,1730041457349110364,5,-0.37,-0.13,1.39,49.80533533333334,-94.92,-95.84
1730041457447478359,1730041457447393417,5,-0.37,-0.13,1.39,49.78657333333334,-94.45,-96.01
1730041457549537409,1730041457549254417,5,-0.37,-0.13,1.39,49.761559,-94.02,-95.85
1730041457646544765,1730041457646025180,5,-0.37,-0.13,1.39,49.767812666666664,-94.38,-95.94
1730041457746607687,1730041457746005773,5,-0.37,-0.13,1.39,49.77406633333334,-94.48,-95.62
1730041457846339524,1730041457846004724,5,-0.37,-0.13,1.39,49.79282700000001,-94.09,-95.46
1730041457946493386,1730041457946016788,5,-0.37,-0.13,1.39,49.79908066666667,-93.19,-94.44
1730041458046809744,1730041458046009302,5,-0.37,-0.13,1.39,49.78657366666667,-92.54,-94.81
1730041458146395238,1730041458145996570,5,-0.37,-0.13,1.39,49.799082,-93.3,-93.46
1730041458246270258,1730041458246008872,5,-0.37,-0.13,1.39,49.78657466666667,-95.57,-95.99
1730041458346501571,1730041458345950365,5,-0.37,-0.13,1.39,49.79282799999999,-93.82,-95.9
1730041458446454517,1730041458446036577,5,-0.37,-0.13,1.39,49.79282799999999,-93.7,-96.26
1730041458547557305,1730041458547208786,5,-0.37,-0.13,1.39,49.811589999999995,-93.8,-94.65
1730041458748331933,1730041458748211383,5,-0.37,-0.13,1.39,49.82409733333333,-93.65,-94.34
1730041458848533628,1730041458848334074,5,-0.37,-0.13,1.39,49.83035100000001,-95.06,-95.98
1730041458948294092,1730041458948076009,5,-0.37,-0.13,1.39,49.830351,-93.55,-95.41
1730041459048389171,1730041459048115253,5,-0.37,-0.13,1.39,49.82409733333333,-93.09,-95.34
1730041459148543026,1730041459148326635,5,-0.37,-0.13,1.39,49.780319999999996,-94.79,-96.27
1730041459248962070,1730041459248768806,5,-0.37,-0.13,1.39,49.761558,-94.2,-98.05
1730041459547727896,1730041459547450780,5,-0.37,-0.13,1.39,49.742797333333336,-94.2,-96.12
1730041459646551615,1730041459646044015,5,-0.37,-0.13,1.39,49.767812666666664,-94.7,-96.49
1730041460148631371,1730041460148407459,5,-0.37,-0.13,1.39,49.78657333333333,-95.98,-99.15
1730041460548870214,1730041460548700094,5,-0.37,-0.13,1.39,49.780319999999996,-93.22,-97.05
1730041461248171959,1730041461247992038,5,-0.37,-0.13,1.39,49.82409633333333,-93.45,-95.66
1730041461346340274,1730041461346040487,5,-0.37,-0.13,1.39,49.84285833333333,-93.52,-98.85
1730041461549203183,1730041461548960447,5,-0.37,-0.13,1.39,49.867874,-94.99,-98.0
1730041461747465582,1730041461747288227,5,-0.37,-0.13,1.39,49.917905,-94.0,-96.19
1730041461847611915,1730041461847292900,5,-0.37,-0.13,1.39,49.961681,-93.31,-95.28
1730041461946326306,1730041461945977926,5,-0.37,-0.13,1.39,49.974188,-96.1,-97.33
1730041462047420354,1730041462047183513,5,-0.37,-0.13,1.39,49.98044166666667,-92.76,-95.16
1730041462148362984,1730041462148165225,5,-0.37,-0.13,1.39,49.97418833333333,-94.68,-96.45
1730041462246426515,1730041462246027231,5,-0.37,-0.13,1.39,50.00545733333333,-94.7,-97.28
1730041462349238500,1730041462348967313,5,-0.37,-0.13,1.39,50.024218999999995,-94.77,-96.52
1730041462647880150,1730041462647560596,5,-0.37,-0.13,1.39,50.03672733333334,-95.98,-98.28
1730041463849025473,1730041463848750114,5,-0.37,-0.13,1.39,50.086758333333336,-95.7,-99.33
1730041463948720459,1730041463948572874,5,-0.37,-0.13,1.39,50.17431199999999,-93.63,-98.75
1730041464049398336,1730041464049150466,5,-0.37,-0.13,1.39,50.299387,-94.05,-98.53
1730041464149452128,1730041464149221181,5,-0.37,-0.13,1.39,50.374432333333324,-94.48,-96.98
1730041464248954813,1730041464248712301,5,-0.37,-0.13,1.39,50.418208666666665,-93.85,-95.79
1730041464349519120,1730041464348682403,5,-0.37,-0.13,1.39,50.44947766666667,-93.19,-94.12
1730041464446483484,1730041464446011543,5,-0.37,-0.13,1.39,50.499507333333334,-92.5,-94.28
1730041464546539055,1730041464546017885,5,-0.37,-0.13,1.39,50.530776333333336,-93.3,-94.53
1730041464646946548,1730041464646034955,5,-0.37,-0.13,1.39,50.56204533333334,-91.84,-92.28
1730041464746593074,1730041464746052265,5,-0.37,-0.13,1.39,50.61207666666667,-91.99,-92.4
1730041464947323022,1730041464947171926,5,-0.37,-0.13,1.39,50.637092333333335,-93.52,-94.08
1730041465047595420,1730041465047430038,5,-0.37,-0.13,1.39,50.69963033333334,-91.01,-91.02
1730041465348560891,1730041465348315238,5,-0.37,-0.13,1.39,50.749661333333336,-89.87,-90.42
1730041465448447153,1730041465448164701,5,-0.37,-0.13,1.39,50.805946,-90.15,-91.75
1730041465549123386,1730041465548992395,5,-0.37,-0.13,1.39,50.824706666666664,-91.38,-92.23
1730041465647661864,1730041465647368431,5,-0.37,-0.13,1.39,50.83721366666666,-93.37,-93.83
1730041465747542758,1730041465747346401,5,-0.37,-0.13,1.39,50.83721366666666,-91.58,-94.34
1730041466146348119,1730041466146017551,5,-0.37,-0.13,1.39,50.887245666666665,-96.5,-97.01
1730041466246270889,1730041466246044397,5,-0.37,-0.13,1.39,50.91226,-93.93,-97.53
1730041466748492754,1730041466748275518,5,-0.37,-0.13,1.39,50.931020666666676,-94.5,-101.92
1730041474749347044,1730041474749148130,5,-0.37,-0.13,1.39,49.25499933333333,-94.7,-96.21
1730041475148623819,1730041475148495674,5,-0.37,-0.13,1.39,47.510187333333334,-94.0,-95.01
1730041475348796521,1730041475348670959,5,-0.37,-0.13,1.39,45.70909066666667,-94.52,-94.84
1730041477949084775,1730041477948870420,5,-0.37,-0.13,1.39,45.56525366666667,-95.79,-99.69
1730041479248181375,1730041479248000144,5,-0.37,-0.13,1.39,45.427669,-94.34,-97.17
1730041479349778519,1730041479348189353,5,-0.37,-0.13,1.39,45.352624,-94.88,-95.3
1730041479648347075,1730041479648134469,5,-0.37,-0.13,1.39,45.29633933333333,-94.56,-95.5
1730041479749537409,1730041479749073505,5,-0.37,-0.13,1.39,45.265070333333334,-94.66,-95.83
1730041479948481805,1730041479948339462,5,-0.37,-0.13,1.39,45.22754633333333,-94.36,-95.18
1730041482148903877,1730041482148663282,5,-0.37,-0.13,1.39,45.13999266666667,-93.25,-95.73
1730041482348178499,1730041482348000526,5,-0.37,-0.13,1.39,45.03993166666667,-93.6,-96.0
1730041482479234743,1730041482478921890,5,-0.37,-0.13,1.39,44.93987066666667,-93.63,-97.77
1730041482649039029,1730041482648725032,5,-0.37,-0.13,1.39,44.91485500000001,-93.36,-94.54
1730041482750385981,1730041482750183582,5,-0.37,-0.13,1.39,44.90860166666667,-95.49,-96.77
1730041482847075670,1730041482846884250,5,-0.37,-0.13,1.39,44.88358766666667,-93.31,-95.48
1730041483249872519,1730041483249687910,5,-0.37,-0.13,1.39,44.88358766666666,-93.58,-97.3
1730041483348941624,1730041483348604440,5,-0.37,-0.13,1.39,44.864827,-93.91,-97.21
1730041483448717086,1730041483448503494,5,-0.37,-0.13,1.39,44.87108033333334,-93.3,-93.77
1730041483548298936,1730041483548094034,5,-0.37,-0.13,1.39,44.82730433333333,-92.71,-94.84
1730041483849066740,1730041483848908901,5,-0.37,-0.13,1.39,44.846065,-92.91,-94.71
1730041483948976340,1730041483948577880,5,-0.37,-0.13,1.39,44.858572333333335,-94.41,-96.8
1730041484246396653,1730041484246024131,5,-0.37,-0.13,1.39,44.896095,-92.91,-92.37
1730041484346414836,1730041484346037149,5,-0.37,-0.13,1.39,44.87733433333333,-93.73,-94.15
1730041484448553015,1730041484448354959,5,-0.37,-0.13,1.39,44.864827,-93.62,-97.02
1730041484548992290,1730041484548809528,5,-0.37,-0.13,1.39,44.852319666666666,-93.8,-94.3
1730041484649087000,1730041484648908376,5,-0.37,-0.13,1.39,44.852319666666666,-92.41,-93.61
1730041484748862766,1730041484748686313,5,-0.37,-0.13,1.39,44.84606633333333,-94.07,-94.95
1730041484848409751,1730041484848256826,5,-0.37,-0.13,1.39,44.833558000000004,-92.18,-93.21
1730041484949629507,1730041484949508190,5,-0.37,-0.13,1.39,44.846065,-92.05,-93.55
1730041485248309988,1730041485248012065,5,-0.37,-0.13,1.39,44.83981,-92.2,-93.27
1730041485348658897,1730041485348261833,5,-0.37,-0.13,1.39,44.871079,-91.84,-93.3
1730041485448547650,1730041485448322772,5,-0.37,-0.13,1.39,44.883586,-91.76,-92.92
1730041485548672290,1730041485548557758,5,-0.37,-0.13,1.39,44.90860166666667,-92.84,-94.14
1730041485648992888,1730041485648850679,5,-0.37,-0.13,1.39,44.90234833333333,-91.68,-93.12
1730041485747411561,1730041485747203588,5,-0.37,-0.13,1.39,44.90234833333333,-91.37,-94.61
1730041485848343403,1730041485848091363,5,-0.37,-0.13,1.39,44.92736366666667,-92.84,-92.5
1730041485949110620,1730041485948875427,5,-0.37,-0.13,1.39,44.95237900000001,-92.36,-94.14
1730041486048851206,1730041486048636436,5,-0.37,-0.13,1.39,44.97739466666667,-92.5,-92.19
1730041486149027594,1730041486148841381,5,-0.37,-0.13,1.39,45.00241033333333,-92.78,-92.13
1730041486348580741,1730041486348348855,5,-0.37,-0.13,1.39,45.00241033333333,-93.49,-93.73
1730041486446518661,1730041486446039915,5,-0.37,-0.13,1.39,44.99615666666667,-93.8,-97.28
1730041486647688395,1730041486647397994,5,-0.37,-0.13,1.39,44.958633999999996,-93.22,-93.93
1730041487046473552,1730041487046055793,5,-0.37,-0.13,1.39,44.921111333333336,-93.75,-93.33
1730041487148380396,1730041487148180246,5,-0.37,-0.13,1.39,44.88358866666667,-92.84,-93.25
1730041487246451528,1730041487246053218,5,-0.37,-0.13,1.39,44.83355766666667,-92.84,-94.75
1730041487346492759,1730041487346080541,5,-0.37,-0.13,1.39,44.82730433333333,-92.61,-95.14
1730041487449124583,1730041487448915719,5,-0.37,-0.13,1.39,44.802289,-93.28,-94.46
1730041487549072514,1730041487548785686,5,-0.37,-0.13,1.39,44.80854266666666,-91.82,-92.07
1730041487747599148,1730041487747226953,5,-0.37,-0.13,1.39,44.777273666666666,-92.25,-92.22
1730041488047424729,1730041488047201395,5,-0.37,-0.13,1.39,44.78352733333333,-93.16,-93.07
1730041488146313771,1730041488146022796,5,-0.37,-0.13,1.39,44.76476666666667,-92.68,-93.18
1730041488246443826,1730041488246030330,5,-0.37,-0.13,1.39,44.777273666666666,-93.39,-92.56
1730041488346563588,1730041488346072435,5,-0.37,-0.13,1.39,44.77102,-93.39,-92.62
1730041488449349726,1730041488449129819,5,-0.37,-0.13,1.39,44.796034,-91.79,-91.17
1730041488549130982,1730041488548882961,5,-0.37,-0.13,1.39,44.802287666666665,-91.55,-91.24
1730041488647830587,1730041488647433996,5,-0.37,-0.13,1.39,44.802287666666665,-92.18,-92.89
1730041488747567045,1730041488747388362,5,-0.37,-0.13,1.39,44.802287666666665,-94.45,-96.6
1730041488847751089,1730041488847351074,5,-0.37,-0.13,1.39,44.814796,-92.06,-91.77
1730041488947843709,1730041488947571039,5,-0.37,-0.13,1.39,44.827303,-92.58,-92.59
1730041489048341048,1730041489048171997,5,-0.37,-0.13,1.39,44.814796,-91.89,-92.42
1730041489248248562,1730041489248030900,5,-0.37,-0.13,1.39,44.78978033333333,-91.17,-91.56
1730041489348610628,1730041489348353862,5,-0.37,-0.13,1.39,44.77101966666667,-91.94,-93.28
1730041489448296394,1730041489448019742,5,-0.37,-0.13,1.39,44.77101966666667,-91.51,-93.71
1730041489548416783,1730041489548196315,5,-0.37,-0.13,1.39,44.77727333333333,-91.88,-91.46
1730041489648395890,1730041489648119211,5,-0.37,-0.13,1.39,44.77102,-91.16,-91.25
1730041489749858615,1730041489749065160,5,-0.37,-0.13,1.39,44.764766333333334,-91.8,-93.31
1730041489846297589,1730041489846008539,5,-0.37,-0.13,1.39,44.74600433333333,-90.59,-91.75
1730041489946239667,1730041489946055650,5,-0.37,-0.13,1.39,44.72724233333333,-91.6,-91.84
1730041490046660780,1730041490046022176,5,-0.37,-0.13,1.39,44.67721133333333,-90.56,-91.49
1730041490146586030,1730041490146046638,5,-0.37,-0.13,1.39,44.58340533333333,-90.82,-93.77
1730041490246602131,1730041490246042728,5,-0.37,-0.13,1.39,44.53962933333333,-91.94,-92.07
1730041490346554619,1730041490346038818,5,-0.37,-0.13,1.39,44.483344666666675,-90.7,-93.5
1730041490446491466,1730041490446024179,5,-0.37,-0.13,1.39,44.420806666666664,-90.77,-90.96
1730041490546471414,1730041490546036958,5,-0.37,-0.13,1.39,44.358268333333335,-93.58,-94.95
1730041490646572663,1730041490646035909,5,-0.37,-0.13,1.39,44.30823866666666,-89.17,-88.86
1730041490746418234,1730041490746038436,5,-0.37,-0.13,1.39,44.239447000000006,-89.76,-90.92
1730041490846452494,1730041490846037149,5,-0.37,-0.13,1.39,44.183162333333335,-89.85,-89.76
1730041490946551344,1730041490946038961,5,-0.37,-0.13,1.39,44.114369333333336,-90.48,-90.66
1730041491046362951,1730041491046038389,5,-0.37,-0.13,1.39,44.051831,-89.66,-91.54
1730041491147463814,1730041491147259473,5,-0.37,-0.13,1.39,43.989292999999996,-89.74,-90.11
1730041491247455164,1730041491247259855,5,-0.37,-0.13,1.39,43.92675466666666,-88.57,-88.11
1730041491347415616,1730041491347184181,5,-0.37,-0.13,1.39,43.857961666666675,-90.94,-91.85
1730041491447836788,1730041491447235822,5,-0.37,-0.13,1.39,43.770408,-89.26,-90.51
1730041491546663867,1730041491546022415,5,-0.37,-0.13,1.39,43.67034733333333,-90.07,-90.66
1730041491646254657,1730041491646029472,5,-0.37,-0.13,1.39,43.60155566666666,-89.07,-88.61
1730041492347304029,1730041492347219467,5,-0.37,-0.13,1.39,43.038715,-88.96,-89.1
1730041492447598591,1730041492447196006,5,-0.37,-0.13,1.39,42.93865433333334,-90.73,-91.47
1730041492546507686,1730041492546039819,5,-0.37,-0.13,1.39,42.85735433333334,-89.16,-89.75
1730041492648205233,1730041492648024559,5,-0.37,-0.13,1.39,42.751039999999996,-88.77,-88.97
1730041492748463662,1730041492748215436,5,-0.37,-0.13,1.39,42.66348633333334,-88.68,-88.52
1730041492848859259,1730041492848759889,5,-0.37,-0.13,1.39,42.557172,-90.17,-90.82
1730041492948831597,1730041492948668718,5,-0.37,-0.13,1.39,42.482125333333336,-87.8,-87.39
1730041493049023478,1730041493048900842,5,-0.37,-0.13,1.39,42.369556,-88.91,-91.07
1730041493148773753,1730041493148532390,5,-0.37,-0.13,1.39,42.269495,-89.46,-90.27
1730041493248767110,1730041493248543024,5,-0.37,-0.13,1.39,42.16318066666667,-88.88,-88.61
1730041493348853166,1730041493348640441,5,-0.37,-0.13,1.39,42.094389,-89.11,-88.63
1730041493448145088,1730041493447924375,5,-0.37,-0.13,1.39,42.000582,-88.76,-89.43
1730041493548146881,1730041493548010349,5,-0.37,-0.13,1.39,41.894267666666664,-88.56,-90.91
1730041493679090275,1730041493678814888,5,-0.37,-0.13,1.39,41.762938,-89.05,-89.94
1730041493748983895,1730041493748781919,5,-0.37,-0.13,1.39,41.65036866666667,-88.94,-88.65
1730041493848824948,1730041493848599195,5,-0.37,-0.13,1.39,41.55656133333333,-89.64,-89.48
1730041493948881402,1730041493948682546,5,-0.37,-0.13,1.39,41.45650033333333,-89.57,-89.71
1730041494048733123,1730041494048587322,5,-0.37,-0.13,1.39,41.362693,-89.86,-89.12
1730041494148798176,1730041494148581266,5,-0.37,-0.13,1.39,41.23761666666667,-89.05,-90.68
1730041494248861486,1730041494248668193,5,-0.37,-0.13,1.39,41.14380966666667,-89.31,-89.38
1730041494348977640,1730041494348767042,5,-0.37,-0.13,1.39,41.031242,-91.72,-91.35
1730041494449035747,1730041494448802232,5,-0.37,-0.13,1.39,40.943688333333334,-88.7,-91.24
1730041494549060711,1730041494548781871,5,-0.37,-0.13,1.39,40.837374,-90.58,-91.66
1730041494649195418,1730041494649077653,5,-0.37,-0.13,1.39,40.74982033333333,-90.37,-90.35
1730041494749350923,1730041494748732089,5,-0.37,-0.13,1.39,40.674775333333336,-93.04,-92.13
1730041494848800406,1730041494848589658,5,-0.37,-0.13,1.39,40.612237,-90.1,-91.38
1730041494949300166,1730041494949078559,5,-0.37,-0.13,1.39,40.55595233333333,-88.03,-87.23
1730041495048647588,1730041495048499345,5,-0.37,-0.13,1.39,40.50592133333333,-85.94,-86.69
1730041495148883124,1730041495148691177,5,-0.37,-0.13,1.39,40.46839866666667,-84.83,-86.19
1730041495249105543,1730041495248957872,5,-0.37,-0.13,1.39,40.443384333333334,-83.67,-83.53
1730041495349607623,1730041495349384784,5,-0.37,-0.13,1.39,40.430877,-85.25,-85.0
1730041495546728099,1730041495546102523,5,-0.37,-0.13,1.39,40.42462233333333,-85.32,-85.59
1730041495646544878,1730041495645997524,5,-0.37,-0.13,1.39,40.430876000000005,-82.93,-82.87
1730041495746592530,1730041495746006011,5,-0.37,-0.13,1.39,40.44338333333334,-83.74,-83.36
1730041495846479039,1730041495846050262,5,-0.37,-0.13,1.39,40.44338333333334,-84.77,-84.68
1730041495946475027,1730041495946035146,5,-0.37,-0.13,1.39,40.449636999999996,-85.98,-85.31
1730041496046219851,1730041496046018123,5,-0.37,-0.13,1.39,40.437129666666664,-82.93,-82.45
1730041496148601425,1730041496148461103,5,-0.37,-0.13,1.39,40.462145,-83.59,-83.26
