%time,field.stamp,field.id,field.x,field.y,field.z,field.distanceFromTag,field.rssi,field.rssi_fp
1730041400446285437,1730041400446010828,9,0.335,-0.87,0.5,4.427697,-79.07,-80.36
1730041400546266082,1730041400546009302,9,0.335,-0.87,0.5,4.440204666666667,-78.98,-80.39
1730041400646692100,1730041400646080493,9,0.335,-0.87,0.5,4.408935666666667,-79.36,-81.06
1730041400748458946,1730041400748378515,9,0.335,-0.87,0.5,4.383920333333333,-79.0,-80.59
1730041400848483066,1730041400848277807,9,0.335,-0.87,0.5,4.383920333333333,-78.99,-80.31
1730041400948833521,1730041400948701620,9,0.335,-0.87,0.5,4.390174,-79.37,-80.83
1730041401046269518,1730041401046019554,9,0.335,-0.87,0.5,4.390174,-78.8,-80.36
1730041401149308173,1730041401149059295,9,0.335,-0.87,0.5,4.396428,-79.0,-80.54
1730041401249780657,1730041401249077796,9,0.335,-0.87,0.5,4.4026819999999995,-78.77,-80.31
1730041401349329687,1730041401349195241,9,0.335,-0.87,0.5,4.396428333333334,-79.37,-80.98
1730041401450386264,1730041401450024843,9,0.335,-0.87,0.5,4.3839206666666675,-78.89,-80.59
1730041401549095137,1730041401548924446,9,0.335,-0.87,0.5,4.377666666666667,-79.15,-80.79
1730041401648825548,1730041401648757219,9,0.335,-0.87,0.5,4.383920333333333,-78.81,-80.52
1730041401746407465,1730041401746003866,9,0.335,-0.87,0.5,4.383920333333333,-78.89,-80.58
1730041401846505051,1730041401846078634,9,0.335,-0.87,0.5,4.396428,-80.24,-80.98
1730041401946473090,1730041401946055650,9,0.335,-0.87,0.5,4.396428,-79.26,-80.79
1730041402046422920,1730041402046005964,9,0.335,-0.87,0.5,4.402681666666667,-79.08,-80.53
1730041402146739599,1730041402146037101,9,0.335,-0.87,0.5,4.402681666666667,-78.9,-80.36
1730041402246723217,1730041402246078014,9,0.335,-0.87,0.5,4.402681666666667,-78.81,-80.56
1730041402347485101,1730041402347171306,9,0.335,-0.87,0.5,4.390174,-79.42,-81.06
1730041402447746156,1730041402447432756,9,0.335,-0.87,0.5,4.396428,-78.95,-80.59
1730041402547005526,1730041402546068668,9,0.335,-0.87,0.5,4.396427999999999,-79.49,-80.91
1730041402646722725,1730041402646046400,9,0.335,-0.87,0.5,4.396427999999999,-79.1,-80.51
1730041402746376593,1730041402746011495,9,0.335,-0.87,0.5,4.383920333333333,-78.86,-80.46
1730041402846588246,1730041402846030235,9,0.335,-0.87,0.5,4.390174333333333,-78.98,-80.54
1730041402946362657,1730041402946022510,9,0.335,-0.87,0.5,4.390174333333333,-79.02,-80.6
1730041403047395964,1730041403047118663,9,0.335,-0.87,0.5,4.408935666666666,-79.74,-81.0
1730041403147820084,1730041403147376060,9,0.335,-0.87,0.5,4.427697,-81.22,-81.17
1730041403349952298,1730041403349780797,9,0.335,-0.87,0.5,4.421443333333333,-79.08,-80.66
1730041403449430073,1730041403449146509,9,0.335,-0.87,0.5,4.402682,-78.92,-80.5
1730041403548944470,1730041403548784732,9,0.335,-0.87,0.5,4.3839206666666675,-78.77,-80.4
1730041403648793673,1730041403648631095,9,0.335,-0.87,0.5,4.396428333333334,-78.76,-80.38
1730041403749843020,1730041403749653816,9,0.335,-0.87,0.5,4.4026819999999995,-79.37,-81.17
1730041403848235590,1730041403848108291,9,0.335,-0.87,0.5,4.4026819999999995,-79.23,-80.53
1730041403948351984,1730041403948130846,9,0.335,-0.87,0.5,4.408935666666666,-79.21,-80.63
1730041404048832482,1730041404048634052,9,0.335,-0.87,0.5,4.408935666666666,-79.42,-80.61
1730041404149242441,1730041404148918867,9,0.335,-0.87,0.5,4.415189333333333,-79.01,-80.5
1730041404249633184,1730041404249307870,9,0.335,-0.87,0.5,4.402681666666667,-79.4,-80.68
1730041404349126389,1730041404348904609,9,0.335,-0.87,0.5,4.396428,-78.89,-80.5
1730041404449155752,1730041404448926210,9,0.335,-0.87,0.5,4.383920333333333,-79.0,-80.68
1730041404550096070,1730041404549862861,9,0.335,-0.87,0.5,4.390174333333333,-78.94,-80.82
1730041404649366553,1730041404649135351,9,0.335,-0.87,0.5,4.4026819999999995,-78.79,-80.48
1730041404749016246,1730041404748723745,9,0.335,-0.87,0.5,4.4026819999999995,-79.29,-80.61
1730041404848851432,1730041404848664760,9,0.335,-0.87,0.5,4.390174333333333,-79.24,-80.41
1730041404950266255,1730041404949881315,9,0.335,-0.87,0.5,4.377666666666667,-79.17,-80.97
1730041405046352971,1730041405046056509,9,0.335,-0.87,0.5,1.106924666666667,-79.44,-99.86
1730041405146347083,1730041405146047592,9,0.335,-0.87,0.5,1.0944170000000002,-79.0,-80.58
1730041405546426044,1730041405546046018,9,0.335,-0.87,0.5,4.390174,-78.78,-80.29
1730041405647506429,1730041405647226572,9,0.335,-0.87,0.5,4.377666333333333,-79.33,-80.93
1730041405746428750,1730041405746043920,9,0.335,-0.87,0.5,4.408935333333333,-79.78,-80.75
1730041405846373729,1730041405846050977,9,0.335,-0.87,0.5,4.421443,-78.82,-80.56
1730041406146425846,1730041406146058559,9,0.335,-0.87,0.5,4.433950666666667,-79.09,-80.8
1730041406246342325,1730041406246064662,9,0.335,-0.87,0.5,4.415189333333333,-79.07,-80.81
1730041406346522782,1730041406346194982,9,0.335,-0.87,0.5,4.415189333333333,-79.19,-80.57
1730041406480102083,1730041406479680061,9,0.335,-0.87,0.5,4.390174,-79.54,-80.86
1730041406547479360,1730041406547304391,9,0.335,-0.87,0.5,4.371412666666667,-79.02,-80.57
1730041406649021591,1730041406648839235,9,0.335,-0.87,0.5,4.377666666666666,-79.47,-80.77
1730041406749267244,1730041406749062538,9,0.335,-0.87,0.5,4.396428333333334,-79.19,-80.41
1730041406848981485,1730041406848895311,9,0.335,-0.87,0.5,4.408936,-79.1,-80.67
1730041406948309638,1730041406948021173,9,0.335,-0.87,0.5,4.415189666666667,-79.15,-81.08
1730041407048280446,1730041407048029184,9,0.335,-0.87,0.5,4.415189666666667,-79.0,-80.87
1730041407148343267,1730041407148115634,9,0.335,-0.87,0.5,4.408935666666666,-79.06,-80.48
1730041407250094292,1730041407249901533,9,0.335,-0.87,0.5,4.390174333333333,-78.89,-80.51
1730041407349637747,1730041407349418401,9,0.335,-0.87,0.5,4.383920333333333,-79.24,-80.82
1730041407448514705,1730041407448383808,9,0.335,-0.87,0.5,4.377666666666667,-79.17,-80.62
1730041407548466197,1730041407548254728,9,0.335,-0.87,0.5,4.371412666666667,-79.04,-80.32
1730041407648211805,1730041407648010730,9,0.335,-0.87,0.5,4.377666666666666,-79.02,-80.46
1730041407748960148,1730041407748395919,9,0.335,-0.87,0.5,4.383920333333333,-79.49,-81.09
1730041407848388618,1730041407848042964,9,0.335,-0.87,0.5,4.4026819999999995,-79.2,-80.66
1730041407948107286,1730041407947971820,9,0.335,-0.87,0.5,4.396427999999999,-78.93,-80.43
1730041408047433037,1730041408047222614,9,0.335,-0.87,0.5,4.383920333333333,-78.84,-80.3
1730041408147705668,1730041408147489070,9,0.335,-0.87,0.5,4.377666333333333,-79.37,-80.78
1730041408246564057,1730041408246027708,9,0.335,-0.87,0.5,4.371412666666667,-79.44,-80.85
1730041408349232336,1730041408349084377,9,0.335,-0.87,0.5,4.377666666666667,-78.95,-80.43
1730041408449166682,1730041408448955297,9,0.335,-0.87,0.5,4.371413,-78.85,-80.55
1730041408546351313,1730041408545995235,9,0.335,-0.87,0.5,4.371413,-78.86,-80.36
1730041408647837998,1730041408647391557,9,0.335,-0.87,0.5,4.377666666666667,-79.36,-80.56
1730041409047509140,1730041409047236442,9,0.335,-0.87,0.5,4.396428,-78.99,-80.54
1730041409148000099,1730041409147548675,9,0.335,-0.87,0.5,4.396427999999999,-78.93,-80.68
1730041409247582769,1730041409247182369,9,0.335,-0.87,0.5,4.390174333333333,-79.25,-80.62
1730041409346736778,1730041409346042156,9,0.335,-0.87,0.5,4.377666666666667,-79.0,-80.93
1730041409446527445,1730041409446028947,9,0.335,-0.87,0.5,4.390174333333333,-79.01,-80.61
1730041409546354112,1730041409546031713,9,0.335,-0.87,0.5,4.396428,-78.98,-80.51
1730041409647605214,1730041409647281646,9,0.335,-0.87,0.5,4.390174,-79.19,-80.53
1730041409748726185,1730041409748496532,9,0.335,-0.87,0.5,4.365158666666667,-79.23,-80.59
1730041409848780280,1730041409848497152,9,0.335,-0.87,0.5,4.346397333333333,-78.94,-80.65
1730041409948893429,1730041409948699235,9,0.335,-0.87,0.5,4.352651333333333,-79.3,-80.61
1730041410049410954,1730041410049052715,9,0.335,-0.87,0.5,4.33389,-79.26,-80.62
1730041410148383572,1730041410148220300,9,0.335,-0.87,0.5,4.33389,-79.08,-80.59
1730041410248304462,1730041410248169183,9,0.335,-0.87,0.5,4.302620999999999,-79.1,-80.73
1730041410348746450,1730041410348577022,9,0.335,-0.87,0.5,4.2838596666666655,-78.78,-80.65
1730041410446435520,1730041410446012735,9,0.335,-0.87,0.5,4.258844333333333,-79.14,-80.78
1730041410547491741,1730041410547145843,9,0.335,-0.87,0.5,4.233828999999999,-79.09,-80.67
1730041410846509111,1730041410846025705,9,0.335,-0.87,0.5,4.183798333333333,-78.99,-80.8
1730041410946428116,1730041410946025609,9,0.335,-0.87,0.5,4.140021666666667,-78.95,-80.55
1730041411046471399,1730041411046019315,9,0.335,-0.87,0.5,4.089991,-79.14,-80.93
1730041411146379891,1730041411146010398,9,0.335,-0.87,0.5,4.052468,-79.2,-80.91
1730041411249181440,1730041411249035835,9,0.335,-0.87,0.5,4.008691333333334,-79.09,-80.84
1730041411349601980,1730041411348951339,9,0.335,-0.87,0.5,3.9524073333333334,-79.16,-80.42
1730041411448330139,1730041411448121309,9,0.335,-0.87,0.5,3.914884666666667,-79.33,-80.52
1730041411548210615,1730041411548063516,9,0.335,-0.87,0.5,3.883615666666666,-79.18,-80.72
1730041411648338232,1730041411648104429,9,0.335,-0.87,0.5,3.864854,-79.47,-80.99
1730041411747388299,1730041411747170925,9,0.335,-0.87,0.5,3.821077333333333,-79.0,-80.81
1730041411848306490,1730041411848083734,9,0.335,-0.87,0.5,3.7835543333333335,-79.12,-81.08
1730041411948448241,1730041411948222637,9,0.335,-0.87,0.5,3.752285333333333,-78.89,-80.52
1730041412048786054,1730041412048630237,9,0.335,-0.87,0.5,3.7272699999999994,-79.16,-80.87
1730041412148723019,1730041412148420333,9,0.335,-0.87,0.5,3.689747333333333,-79.15,-81.0
1730041412248602987,1730041412248397827,9,0.335,-0.87,0.5,3.6647320000000003,-78.82,-81.16
1730041412348411950,1730041412348206043,9,0.335,-0.87,0.5,3.658478333333333,-78.89,-81.16
1730041412448445007,1730041412448223114,9,0.335,-0.87,0.5,3.6709859999999996,-80.15,-81.77
1730041412549280398,1730041412549012660,9,0.335,-0.87,0.5,3.6397169999999996,-78.64,-80.78
1730041412649376918,1730041412649191856,9,0.335,-0.87,0.5,3.6021940000000003,-78.94,-80.85
1730041412748726490,1730041412748515844,9,0.335,-0.87,0.5,3.552163333333333,-78.97,-80.65
1730041412849240315,1730041412848921537,9,0.335,-0.87,0.5,3.5083866666666665,-79.23,-80.74
1730041412949413665,1730041412949321269,9,0.335,-0.87,0.5,3.470864,-79.46,-81.19
1730041413049005023,1730041413048816442,9,0.335,-0.87,0.5,3.4208336666666668,-78.61,-80.43
1730041413148249655,1730041413147970199,9,0.335,-0.87,0.5,3.4208336666666668,-79.13,-80.82
1730041413248267291,1730041413248044967,9,0.335,-0.87,0.5,3.408326,-78.97,-80.58
1730041413347443753,1730041413347314596,9,0.335,-0.87,0.5,3.4208336666666668,-78.91,-80.61
1730041413447523676,1730041413447324752,9,0.335,-0.87,0.5,3.4020723333333334,-78.93,-80.48
1730041413547618810,1730041413547309637,9,0.335,-0.87,0.5,3.389564666666667,-79.04,-80.71
1730041413647488549,1730041413647196531,9,0.335,-0.87,0.5,3.358295666666667,-78.78,-80.42
1730041413748123305,1730041413747823953,9,0.335,-0.87,0.5,3.345788,-78.86,-80.4
1730041413847248242,1730041413847139596,9,0.335,-0.87,0.5,3.345788,-78.88,-80.42
1730041413947636005,1730041413947353601,9,0.335,-0.87,0.5,3.364549333333333,-78.99,-80.61
1730041414048551525,1730041414048270702,9,0.335,-0.87,0.5,3.395818333333333,-78.83,-80.67
1730041414648284924,1730041414648165941,9,0.335,-0.87,0.5,3.489625333333334,-79.16,-80.95
1730041414747616470,1730041414747325897,9,0.335,-0.87,0.5,3.502133,-78.73,-80.55
1730041414847472820,1730041414847100734,9,0.335,-0.87,0.5,3.5396559999999995,-78.84,-80.7
1730041414947691530,1730041414947350263,9,0.335,-0.87,0.5,3.564671333333333,-79.01,-80.89
1730041415046599213,1730041415046061992,9,0.335,-0.87,0.5,3.6084480000000005,-78.95,-81.03
1730041415146570362,1730041415146046876,9,0.335,-0.87,0.5,3.6334633333333333,-78.57,-80.41
1730041415249277256,1730041415249069929,9,0.335,-0.87,0.5,3.683493666666667,-78.77,-80.81
1730041415349276861,1730041415349076032,9,0.335,-0.87,0.5,3.7210163333333335,-79.08,-80.87
1730041415449682225,1730041415449389219,9,0.335,-0.87,0.5,3.7898079999999994,-79.32,-80.85
1730041415548699797,1730041415548456430,9,0.335,-0.87,0.5,3.821077333333333,-79.45,-81.15
1730041415648313605,1730041415648196935,9,0.335,-0.87,0.5,3.864854,-79.45,-80.6
1730041415746433160,1730041415745991468,9,0.335,-0.87,0.5,3.933646,-79.12,-80.84
1730041415846292186,1730041415846011161,9,0.335,-0.87,0.5,3.9961839999999995,-79.09,-80.61
1730041415947859572,1730041415947652578,9,0.335,-0.87,0.5,4.052468333333334,-79.28,-80.76
1730041416047939218,1730041416047383546,9,0.335,-0.87,0.5,4.096245000000001,-78.83,-80.43
1730041416147882344,1730041416147368669,9,0.335,-0.87,0.5,4.183798333333333,-79.07,-80.72
1730041416247654922,1730041416247400999,9,0.335,-0.87,0.5,4.277605666666667,-78.93,-80.87
1730041416347506681,1730041416347209692,9,0.335,-0.87,0.5,4.365159,-79.24,-80.87
1730041416446544155,1730041416446025609,9,0.335,-0.87,0.5,4.427697,-78.66,-80.59
1730041416546276643,1730041416546011209,9,0.335,-0.87,0.5,4.490235,-78.65,-80.49
1730041416646451748,1730041416646007776,9,0.335,-0.87,0.5,4.540265333333333,-79.06,-80.84
1730041416746438036,1730041416746003150,9,0.335,-0.87,0.5,4.596549666666667,-78.77,-80.51
1730041416846882907,1730041416846108436,9,0.335,-0.87,0.5,4.659087666666667,-79.5,-80.57
1730041416946589435,1730041416946094989,9,0.335,-0.87,0.5,4.7403873333333335,-79.21,-80.74
1730041417046534905,1730041417046127080,9,0.335,-0.87,0.5,4.827940666666667,-79.43,-80.83
1730041417146594919,1730041417146076679,9,0.335,-0.87,0.5,4.915494,-78.95,-80.69
1730041417246448798,1730041417246017932,9,0.335,-0.87,0.5,5.021808666666666,-78.88,-80.65
1730041417346447391,1730041417346018552,9,0.335,-0.87,0.5,5.115616,-79.11,-80.89
1730041417446445653,1730041417446020841,9,0.335,-0.87,0.5,5.190661666666667,-78.55,-80.52
1730041417546294717,1730041417546009540,9,0.335,-0.87,0.5,5.278214999999999,-79.31,-80.67
1730041417646437067,1730041417646042346,9,0.335,-0.87,0.5,5.359514333333333,-78.43,-80.69
1730041417746492283,1730041417746075630,9,0.335,-0.87,0.5,5.465828999999999,-79.27,-80.73
1730041417846303541,1730041417846059083,9,0.335,-0.87,0.5,5.5533823333333325,-78.34,-80.4
1730041417946361867,1730041417946023941,9,0.335,-0.87,0.5,5.647189333333333,-78.42,-80.42
1730041418046430042,1730041418046029567,9,0.335,-0.87,0.5,5.747250333333334,-79.05,-80.57
1730041418146553278,1730041418146066904,9,0.335,-0.87,0.5,5.82855,-78.65,-80.46
1730041418246305824,1730041418246022939,9,0.335,-0.87,0.5,5.941118666666665,-78.89,-80.68
1730041418346316413,1730041418346045494,9,0.335,-0.87,0.5,6.034926,-79.07,-80.52
1730041418446265532,1730041418446052551,9,0.335,-0.87,0.5,6.147494333333334,-79.39,-80.7
1730041418546322308,1730041418546028137,9,0.335,-0.87,0.5,6.241301333333333,-79.33,-81.45
1730041418646608673,1730041418646122932,9,0.335,-0.87,0.5,6.335108333333333,-79.64,-80.74
1730041418746401200,1730041418746030569,9,0.335,-0.87,0.5,6.410154000000001,-79.13,-80.56
1730041418846386121,1730041418846026659,9,0.335,-0.87,0.5,6.516469,-79.52,-81.08
1730041418946432178,1730041418946037769,9,0.335,-0.87,0.5,6.622784,-79.33,-80.9
1730041419046349781,1730041419046026229,9,0.335,-0.87,0.5,6.747860333333333,-79.32,-80.47
1730041419146382570,1730041419146059751,9,0.335,-0.87,0.5,6.8291596666666665,-79.35,-81.09
1730041419246568609,1730041419246040582,9,0.335,-0.87,0.5,6.929220333333333,-79.24,-80.58
1730041419347374547,1730041419347154140,9,0.335,-0.87,0.5,7.035535,-79.07,-81.17
1730041419447531842,1730041419447250366,9,0.335,-0.87,0.5,7.160611333333333,-79.13,-80.9
1730041419547444721,1730041419547224044,9,0.335,-0.87,0.5,7.248164666666667,-78.89,-80.6
1730041419647623469,1730041419647312879,9,0.335,-0.87,0.5,7.335718,-78.79,-80.53
1730041419747742473,1730041419747337579,9,0.335,-0.87,0.5,7.423271333333333,-79.1,-80.98
1730041419947903903,1730041419947845458,9,0.335,-0.87,0.5,7.5608553333333335,-79.18,-80.85
1730041420048110813,1730041420047981262,9,0.335,-0.87,0.5,7.692185333333334,-78.88,-80.47
1730041420148411363,1730041420148334741,9,0.335,-0.87,0.5,7.823515333333334,-78.74,-80.47
1730041420278982958,1730041420278688192,9,0.335,-0.87,0.5,7.936084000000001,-79.41,-81.09
1730041420348329311,1730041420348038434,9,0.335,-0.87,0.5,8.042399,-79.02,-80.7
1730041420448508522,1730041420448284149,9,0.335,-0.87,0.5,8.154967666666666,-79.39,-80.57
1730041420549133108,1730041420548853397,9,0.335,-0.87,0.5,8.261282333333332,-79.0,-80.74
1730041420746434076,1730041420746029615,9,0.335,-0.87,0.5,8.405120000000002,-79.36,-81.02
1730041420846429346,1730041420846035242,9,0.335,-0.87,0.5,8.542703666666666,-79.39,-80.86
1730041420946243488,1730041420946020603,9,0.335,-0.87,0.5,8.686541333333333,-79.23,-80.82
1730041421046505612,1730041421046033620,9,0.335,-0.87,0.5,8.805363666666667,-79.49,-81.1
1730041421146225794,1730041421146022558,9,0.335,-0.87,0.5,8.917932333333335,-79.35,-81.06
1730041421246347777,1730041421246006488,9,0.335,-0.87,0.5,9.036754666666667,-79.56,-80.88
1730041421348504435,1730041421348300457,9,0.335,-0.87,0.5,9.149323333333333,-79.67,-80.57
1730041421449015721,1730041421448689699,9,0.335,-0.87,0.5,9.274399666666666,-79.63,-81.03
1730041421548928982,1730041421548646450,9,0.335,-0.87,0.5,9.393222,-80.95,-83.23
1730041421648739137,1730041421648477792,9,0.335,-0.87,0.5,9.499536666666666,-82.46,-85.82
1730041421748196813,1730041421747974634,9,0.335,-0.87,0.5,9.605851333333334,-81.29,-81.39
1730041421848552566,1730041421848364353,9,0.335,-0.87,0.5,9.724674,-81.22,-81.42
1730041421948310567,1730041421948107719,9,0.335,-0.87,0.5,9.862257666666666,-81.48,-81.17
1730041422048214209,1730041422048066377,9,0.335,-0.87,0.5,9.987333666666666,-83.82,-83.71
1730041422148324224,1730041422148100614,9,0.335,-0.87,0.5,10.112409666666666,-80.81,-81.72
1730041422249445889,1730041422249170064,9,0.335,-0.87,0.5,10.256247333333334,-82.42,-83.04
1730041422348988590,1730041422348773717,9,0.335,-0.87,0.5,10.350054666666667,-80.75,-81.18
1730041422448960355,1730041422448711156,9,0.335,-0.87,0.5,10.437607999999999,-80.4,-81.03
1730041422549416252,1730041422549182891,9,0.335,-0.87,0.5,10.487638333333335,-81.28,-82.77
1730041422648968001,1730041422648760318,9,0.335,-0.87,0.5,10.606460666666667,-80.55,-83.29
1730041422748982377,1730041422748853206,9,0.335,-0.87,0.5,10.725283,-80.46,-81.83
1730041422849113504,1730041422848965406,9,0.335,-0.87,0.5,10.862867,-79.67,-80.77
1730041422947995412,1730041422947776556,9,0.335,-0.87,0.5,10.987943000000001,-79.37,-80.9
1730041423047623224,1730041423047397613,9,0.335,-0.87,0.5,11.088004,-79.29,-80.39
1730041423147636231,1730041423147429466,9,0.335,-0.87,0.5,11.188065,-79.54,-80.97
1730041423248035469,1730041423247383832,9,0.335,-0.87,0.5,11.269364666666668,-79.26,-80.89
1730041423347674343,1730041423347356319,9,0.335,-0.87,0.5,11.388186666666664,-79.65,-80.86
1730041423447697893,1730041423447402238,9,0.335,-0.87,0.5,11.469485999999998,-79.73,-80.66
1730041423547423666,1730041423547193765,9,0.335,-0.87,0.5,11.582054666666666,-79.49,-80.51
1730041423647933485,1730041423647725343,9,0.335,-0.87,0.5,11.663354666666669,-79.46,-80.49
1730041423747475039,1730041423747278928,9,0.335,-0.87,0.5,11.794685,-79.55,-80.7
1730041423847862866,1730041423847485542,9,0.335,-0.87,0.5,11.907253666666668,-79.59,-80.67
1730041423947622779,1730041423947314977,9,0.335,-0.87,0.5,12.051091333333334,-79.55,-80.51
1730041424047411423,1730041424047171592,9,0.335,-0.87,0.5,12.151151999999998,-80.38,-80.86
1730041424147606931,1730041424147266387,9,0.335,-0.87,0.5,12.263720333333334,-79.85,-80.87
1730041424247800030,1730041424247459888,9,0.335,-0.87,0.5,12.351273666666666,-79.3,-80.59
1730041424347629124,1730041424347355604,9,0.335,-0.87,0.5,12.470096,-79.43,-80.51
1730041424447571991,1730041424447322845,9,0.335,-0.87,0.5,12.576410666666666,-79.45,-80.41
1730041424546335110,1730041424546030521,9,0.335,-0.87,0.5,12.688978999999998,-79.9,-80.54
1730041424647746388,1730041424647367954,9,0.335,-0.87,0.5,12.807801333333332,-79.83,-80.96
1730041424747460379,1730041424747194051,9,0.335,-0.87,0.5,12.939131333333334,-79.98,-80.83
1730041424847773598,1730041424847542285,9,0.335,-0.87,0.5,13.076715,-80.1,-80.73
1730041424948048309,1730041424947803735,9,0.335,-0.87,0.5,13.189283666666666,-82.46,-81.79
1730041425047610269,1730041425047267436,9,0.335,-0.87,0.5,13.295598666666669,-79.94,-81.04
1730041425147641872,1730041425147480249,9,0.335,-0.87,0.5,13.508228333333335,-80.2,-80.86
1730041425246692801,1730041425246040821,9,0.335,-0.87,0.5,13.614543,-79.93,-80.82
1730041425346385234,1730041425346049070,9,0.335,-0.87,0.5,13.714604,-80.02,-80.73
1730041425446452173,1730041425446013927,9,0.335,-0.87,0.5,13.827172333333332,-79.77,-81.01
1730041425546304473,1730041425546051979,9,0.335,-0.87,0.5,13.945994666666666,-79.91,-81.03
1730041425646399471,1730041425646028280,9,0.335,-0.87,0.5,14.077324666666668,-79.49,-80.85
1730041425746373387,1730041425746040105,9,0.335,-0.87,0.5,14.196147333333334,-79.93,-81.18
1730041425846546917,1730041425846049070,9,0.335,-0.87,0.5,14.308715999999999,-79.96,-80.94
1730041425946347833,1730041425946003913,9,0.335,-0.87,0.5,14.421284333333334,-80.07,-80.53
1730041426046425929,1730041426046004295,9,0.335,-0.87,0.5,14.508837666666667,-79.77,-80.74
1730041426146896236,1730041426146025180,9,0.335,-0.87,0.5,14.621406,-80.01,-80.58
1730041426246468903,1730041426246022701,9,0.335,-0.87,0.5,14.740228666666667,-80.11,-80.7
1730041426346531865,1730041426346018552,9,0.335,-0.87,0.5,14.890320000000001,-79.92,-80.54
1730041426446406438,1730041426445965766,9,0.335,-0.87,0.5,15.027904,-81.23,-82.47
1730041426546523378,1730041426546058177,9,0.335,-0.87,0.5,15.140472333333333,-80.31,-81.21
1730041426646568513,1730041426646047592,9,0.335,-0.87,0.5,15.259294666666667,-80.23,-81.01
1730041426746436687,1730041426746029376,9,0.335,-0.87,0.5,15.409386,-82.1,-81.81
1730041426846545650,1730041426846024990,9,0.335,-0.87,0.5,15.540716333333334,-81.52,-82.88
1730041426949429885,1730041426949031352,9,0.335,-0.87,0.5,15.665792333333334,-80.93,-81.72
1730041427049201020,1730041427048903465,9,0.335,-0.87,0.5,15.765853333333334,-81.52,-82.91
1730041427149060209,1730041427148752689,9,0.335,-0.87,0.5,15.897182666666666,-82.21,-82.36
1730041427246530724,1730041427246039152,9,0.335,-0.87,0.5,16.028512666666668,-82.54,-82.68
1730041427347540591,1730041427346026420,9,0.335,-0.87,0.5,16.141081,-83.44,-85.22
1730041427446423845,1730041427446030139,9,0.335,-0.87,0.5,16.259903666666666,-83.6,-85.34
1730041427546393357,1730041427546010255,9,0.335,-0.87,0.5,16.378725666666664,-83.18,-82.55
1730041427646477945,1730041427646017551,9,0.335,-0.87,0.5,16.491294333333332,-84.64,-84.27
1730041427746302849,1730041427746021032,9,0.335,-0.87,0.5,16.603863,-85.21,-85.65
1730041427846476810,1730041427846039533,9,0.335,-0.87,0.5,16.710178000000003,-85.14,-86.12
1730041427946387209,1730041427946022748,9,0.335,-0.87,0.5,16.816493,-86.11,-87.85
1730041428049097923,1730041428048952579,9,0.335,-0.87,0.5,16.91655366666667,-86.34,-89.79
1730041428148843538,1730041428148726701,9,0.335,-0.87,0.5,17.010361,-86.37,-86.83
1730041428248918050,1730041428248501062,9,0.335,-0.87,0.5,17.129183,-87.36,-87.29
1730041428380491993,1730041428380289554,9,0.335,-0.87,0.5,17.248005333333335,-90.76,-91.98
1730041428447777229,1730041428447576522,9,0.335,-0.87,0.5,17.391842666666665,-87.78,-88.09
1730041428548387720,1730041428548181056,9,0.335,-0.87,0.5,17.49190333333333,-88.3,-91.67
1730041428648236199,1730041428648097515,9,0.335,-0.87,0.5,17.579457,-88.98,-90.61
1730041428748239778,1730041428748091697,9,0.335,-0.87,0.5,17.641995333333334,-86.35,-89.59
1730041428848390144,1730041428848177671,9,0.335,-0.87,0.5,17.742056666666667,-86.69,-89.94
1730041428948805499,1730041428948595285,9,0.335,-0.87,0.5,17.87964,-86.17,-88.6
1730041429048615152,1730041429048439502,9,0.335,-0.87,0.5,18.035985333333333,-86.53,-88.64
1730041429148833536,1730041429148526668,9,0.335,-0.87,0.5,18.198584333333333,-84.95,-84.73
1730041429248518449,1730041429248303890,9,0.335,-0.87,0.5,18.304899333333335,-86.45,-86.69
1730041429348273890,1730041429348126649,9,0.335,-0.87,0.5,18.423721333333333,-85.83,-86.53
1730041429448562445,1730041429448168039,9,0.335,-0.87,0.5,18.536289999999997,-85.34,-88.63
1730041429549166254,1730041429549009323,9,0.335,-0.87,0.5,18.673874,-84.31,-84.96
1730041429648189067,1730041429647978544,9,0.335,-0.87,0.5,18.78644266666667,-87.99,-87.97
1730041429748651226,1730041429747418165,9,0.335,-0.87,0.5,18.899010999999998,-87.71,-87.24
1730041429847369661,1730041429847174644,9,0.335,-0.87,0.5,19.00532533333333,-83.57,-83.78
1730041429947532617,1730041429947257041,9,0.335,-0.87,0.5,19.124147333333337,-88.72,-88.81
1730041430048565559,1730041430048321247,9,0.335,-0.87,0.5,19.224208333333333,-83.6,-83.62
1730041430148396693,1730041430148157358,9,0.335,-0.87,0.5,19.355539,-83.51,-84.03
1730041430248211563,1730041430248045206,9,0.335,-0.87,0.5,19.474361666666667,-82.19,-82.13
1730041430348190691,1730041430348032474,9,0.335,-0.87,0.5,19.593183666666665,-83.49,-83.59
1730041430448806757,1730041430448459148,9,0.335,-0.87,0.5,19.705752,-83.05,-82.92
1730041430548119665,1730041430547876596,9,0.335,-0.87,0.5,19.81832066666667,-83.19,-82.9
1730041430648449796,1730041430648278713,9,0.335,-0.87,0.5,19.937143333333335,-82.51,-83.74
1730041430749280938,1730041430748901844,9,0.335,-0.87,0.5,20.049712,-83.17,-85.09
1730041430849024301,1730041430848737239,9,0.335,-0.87,0.5,20.168533999999998,-83.04,-82.88
1730041430948666995,1730041430948303937,9,0.335,-0.87,0.5,20.29361033333333,-83.84,-86.2
1730041431049057251,1730041431048916578,9,0.335,-0.87,0.5,20.424939999999996,-84.6,-86.23
1730041431148949075,1730041431148786783,9,0.335,-0.87,0.5,20.518747333333334,-81.83,-81.96
1730041431248825962,1730041431248654365,9,0.335,-0.87,0.5,20.612554666666668,-82.06,-82.59
1730041431349092387,1730041431348793745,9,0.335,-0.87,0.5,20.700107666666668,-81.38,-81.61
1730041431449158464,1730041431449009656,9,0.335,-0.87,0.5,20.81893033333333,-81.35,-81.64
1730041431549229780,1730041431548964500,9,0.335,-0.87,0.5,20.956513666666666,-81.47,-81.86
1730041431647529859,1730041431647283315,9,0.335,-0.87,0.5,21.07533666666667,-81.36,-82.21
1730041431748727857,1730041431748540163,9,0.335,-0.87,0.5,21.187905333333333,-81.65,-81.6
1730041431946375715,1730041431946029901,9,0.335,-0.87,0.5,21.319235333333335,-81.56,-81.16
1730041432046621664,1730041432046088695,9,0.335,-0.87,0.5,21.481834000000003,-81.57,-81.89
1730041432149311134,1730041432149131774,9,0.335,-0.87,0.5,21.631925,-81.75,-81.46
1730041432248951920,1730041432248853921,9,0.335,-0.87,0.5,21.744493333333335,-82.02,-81.87
1730041432347946761,1730041432347855567,9,0.335,-0.87,0.5,21.857062,-82.21,-81.74
1730041432446291994,1730041432446002483,9,0.335,-0.87,0.5,21.975885,-82.2,-82.23
1730041432647820728,1730041432647549390,9,0.335,-0.87,0.5,22.132230333333336,-81.07,-81.95
1730041432746432488,1730041432746021986,9,0.335,-0.87,0.5,22.276068,-81.6,-82.04
1730041432846524256,1730041432846017122,9,0.335,-0.87,0.5,22.438666666666666,-81.22,-83.6
1730041432946495947,1730041432946041345,9,0.335,-0.87,0.5,22.557489666666665,-81.76,-81.74
1730041433048673595,1730041433048509597,9,0.335,-0.87,0.5,22.670057999999997,-81.73,-82.45
1730041433146363407,1730041433146022558,9,0.335,-0.87,0.5,22.795134333333333,-81.4,-81.44
1730041433247585723,1730041433247296571,9,0.335,-0.87,0.5,19.161671333333334,-86.0,-99.36
1730041433377757750,1730041433377328872,9,0.335,-0.87,0.5,19.286747666666667,-81.66,-81.52
1730041433447673256,1730041433447260856,9,0.335,-0.87,0.5,19.393062,-81.76,-82.46
1730041433546642373,1730041433546035766,9,0.335,-0.87,0.5,23.25791533333333,-81.03,-81.03
1730041433647520734,1730041433647235393,9,0.335,-0.87,0.5,23.357976333333337,-82.0,-81.84
1730041433747475853,1730041433747121572,9,0.335,-0.87,0.5,23.476799,-81.01,-81.03
1730041433848156049,1730041433847762107,9,0.335,-0.87,0.5,23.601875333333336,-81.12,-81.16
1730041433946572781,1730041433946125030,9,0.335,-0.87,0.5,23.827012333333332,-82.58,-82.39
1730041434046324141,1730041434046124458,9,0.335,-0.87,0.5,23.933327333333335,-81.54,-81.35
1730041434146217225,1730041434146041154,9,0.335,-0.87,0.5,24.045895666666667,-81.56,-81.82
1730041434246272732,1730041434246094942,9,0.335,-0.87,0.5,24.170972000000003,-81.24,-81.24
1730041434346164761,1730041434346016168,9,0.335,-0.87,0.5,24.302301999999997,-81.06,-81.21
1730041434446394976,1730041434446007966,9,0.335,-0.87,0.5,24.433632,-81.24,-81.47
1730041434546415109,1730041434546020746,9,0.335,-0.87,0.5,24.546200666666664,-81.08,-81.56
1730041434646765597,1730041434646069288,9,0.335,-0.87,0.5,24.66502266666667,-81.3,-81.69
1730041434746625151,1730041434746100425,9,0.335,-0.87,0.5,24.783844666666667,-81.36,-82.51
1730041434846364809,1730041434846053838,9,0.335,-0.87,0.5,24.921428666666667,-82.82,-85.2
1730041434946448829,1730041434946035146,9,0.335,-0.87,0.5,25.052758666666666,-81.51,-83.63
1730041435046336315,1730041435046020746,9,0.335,-0.87,0.5,25.15281966666667,-81.37,-81.41
1730041435146279360,1730041435146012067,9,0.335,-0.87,0.5,25.24037266666667,-81.58,-82.01
1730041435246190400,1730041435246011734,9,0.335,-0.87,0.5,25.327926333333334,-82.23,-84.18
1730041435346571371,1730041435346074581,9,0.335,-0.87,0.5,25.453002666666666,-81.81,-83.96
1730041435447645803,1730041435447373390,9,0.335,-0.87,0.5,25.578079,-87.08,-87.62
1730041435547490620,1730041435547200202,9,0.335,-0.87,0.5,25.690647333333335,-85.27,-85.16
1730041435647361946,1730041435647159814,9,0.335,-0.87,0.5,25.815723333333334,-85.22,-86.83
1730041435747400297,1730041435747186422,9,0.335,-0.87,0.5,25.922038333333333,-87.0,-89.27
1730041435847483744,1730041435847202062,9,0.335,-0.87,0.5,26.034606999999998,-87.75,-90.02
1730041435947396625,1730041435947194576,9,0.335,-0.87,0.5,26.15343,-82.04,-83.75
1730041436046243956,1730041436046025991,9,0.335,-0.87,0.5,26.265998666666672,-82.34,-82.53
1730041436146240231,1730041436146025657,9,0.335,-0.87,0.5,26.378567,-82.59,-83.0
1730041436246345305,1730041436246034383,9,0.335,-0.87,0.5,26.478627666666664,-82.31,-82.13
1730041436346496932,1730041436346036434,9,0.335,-0.87,0.5,26.603703666666664,-82.73,-82.41
1730041436446775814,1730041436446171045,9,0.335,-0.87,0.5,26.722526666666667,-82.13,-82.36
1730041436546444900,1730041436546087980,9,0.335,-0.87,0.5,26.85385666666667,-81.99,-81.91
1730041436646730520,1730041436646130800,9,0.335,-0.87,0.5,26.978932333333336,-83.45,-83.32
1730041436746311748,1730041436746036767,9,0.335,-0.87,0.5,27.091500666666672,-83.54,-83.15
1730041436846393635,1730041436846034526,9,0.335,-0.87,0.5,27.197815333333335,-82.68,-82.08
1730041436946522833,1730041436946073293,9,0.335,-0.87,0.5,27.29162266666667,-83.29,-84.51
1730041437046422146,1730041437046036243,9,0.335,-0.87,0.5,27.410445,-83.37,-83.48
1730041437146370857,1730041437146027088,9,0.335,-0.87,0.5,27.51675966666667,-82.35,-82.71
1730041437246393551,1730041437246081590,9,0.335,-0.87,0.5,27.641836,-82.46,-83.0
1730041437346340783,1730041437346054315,9,0.335,-0.87,0.5,27.77316566666667,-82.52,-82.77
1730041437446662184,1730041437446127891,9,0.335,-0.87,0.5,27.917002999999998,-82.76,-83.69
1730041437546340222,1730041437546049356,9,0.335,-0.87,0.5,28.035825666666668,-82.86,-82.73
1730041437646399239,1730041437646036624,9,0.335,-0.87,0.5,28.148394333333332,-83.27,-83.31
1730041437746388449,1730041437746034622,9,0.335,-0.87,0.5,28.254709333333334,-83.06,-83.21
1730041437848444328,1730041437848133325,9,0.335,-0.87,0.5,28.379785,-82.64,-82.73
1730041437949245886,1730041437949144124,9,0.335,-0.87,0.5,28.492353333333337,-82.87,-84.89
1730041438048021773,1730041438047555446,9,0.335,-0.87,0.5,28.611175666666668,-82.72,-83.34
1730041438146550785,1730041438146064996,9,0.335,-0.87,0.5,28.717490666666663,-82.61,-82.89
1730041438246660335,1730041438246072292,9,0.335,-0.87,0.5,28.836313666666666,-83.35,-83.29
1730041438346740038,1730041438346121311,9,0.335,-0.87,0.5,28.955136333333332,-83.01,-82.82
1730041438446702439,1730041438446086168,9,0.335,-0.87,0.5,29.073958333333334,-82.6,-83.03
1730041438546562676,1730041438546068906,9,0.335,-0.87,0.5,29.186526666666666,-87.15,-87.86
1730041438946955976,1730041438946079015,9,0.335,-0.87,0.5,18.586320666666666,-82.61,-82.73
1730041439048126357,1730041439047631263,9,0.335,-0.87,0.5,18.680127666666667,-82.66,-82.23
1730041439148527353,1730041439148217439,9,0.335,-0.87,0.5,29.886953666666667,-83.06,-84.61
1730041439247390303,1730041439247166633,9,0.335,-0.87,0.5,29.999522,-83.95,-84.57
1730041439346594015,1730041439346045494,9,0.335,-0.87,0.5,30.118344000000004,-82.56,-82.37
1730041439446376153,1730041439446023225,9,0.335,-0.87,0.5,30.212151000000002,-82.78,-83.42
1730041439549458477,1730041439549185514,9,0.335,-0.87,0.5,30.337227333333335,-82.31,-82.01
1730041439648511836,1730041439648317813,9,0.335,-0.87,0.5,30.456050333333334,-83.07,-82.91
1730041439749813871,1730041439749617338,9,0.335,-0.87,0.5,30.568619,-82.21,-82.55
1730041439848394828,1730041439848145246,9,0.335,-0.87,0.5,30.693695333333334,-82.31,-82.92
1730041439948180154,1730041439947967529,9,0.335,-0.87,0.5,30.812517333333336,-82.27,-81.93
1730041440048535930,1730041440048305034,9,0.335,-0.87,0.5,30.950100666666668,-82.64,-82.73
1730041440148596893,1730041440148462533,9,0.335,-0.87,0.5,31.06892266666667,-81.93,-81.79
1730041440248497790,1730041440248254537,9,0.335,-0.87,0.5,31.20650666666667,-83.06,-85.46
1730041440348247177,1730041440347990751,9,0.335,-0.87,0.5,31.31907533333333,-82.58,-82.81
1730041440448405358,1730041440448266506,9,0.335,-0.87,0.5,31.450405999999997,-82.61,-84.39
1730041440547778508,1730041440547596454,9,0.335,-0.87,0.5,31.550466666666665,-82.87,-85.01
1730041440648435703,1730041440648181200,9,0.335,-0.87,0.5,31.669289333333335,-82.91,-84.43
1730041440747329834,1730041440747086524,9,0.335,-0.87,0.5,31.775603666666665,-83.39,-85.05
1730041440847709760,1730041440847312688,9,0.335,-0.87,0.5,31.906933666666664,-81.92,-82.5
1730041440947640084,1730041440947358369,9,0.335,-0.87,0.5,32.02575566666666,-84.27,-84.54
1730041441047802439,1730041441047486543,9,0.335,-0.87,0.5,32.150832666666666,-83.13,-83.21
1730041441148326381,1730041441147853136,9,0.335,-0.87,0.5,32.263402000000006,-83.1,-85.4
1730041441247337215,1730041441247024059,9,0.335,-0.87,0.5,32.363463,-83.08,-85.3
1730041441347496820,1730041441347156286,9,0.335,-0.87,0.5,32.457269,-83.26,-83.93
1730041441447415804,1730041441447149515,9,0.335,-0.87,0.5,32.563583333333334,-83.55,-85.62
1730041441547483215,1730041441547189474,9,0.335,-0.87,0.5,32.69491299999999,-83.53,-86.06
1730041441647438212,1730041441647157907,9,0.335,-0.87,0.5,32.813735666666666,-83.98,-85.33
1730041441777596715,1730041441777356624,9,0.335,-0.87,0.5,32.92630466666666,-83.56,-85.85
1730041441847705805,1730041441847362279,9,0.335,-0.87,0.5,33.032620333333334,-84.33,-85.37
1730041441947468252,1730041441947174310,9,0.335,-0.87,0.5,33.151443,-83.07,-83.89
1730041442048023406,1730041442047424554,9,0.335,-0.87,0.5,33.264011,-83.81,-84.98
1730041442147868678,1730041442147517681,9,0.335,-0.87,0.5,33.370325333333334,-84.12,-86.08
1730041442248662223,1730041442248515367,9,0.335,-0.87,0.5,33.48289333333333,-83.88,-86.78
1730041442348507472,1730041442348301172,9,0.335,-0.87,0.5,33.60796966666667,-84.72,-84.92
1730041442448748692,1730041442448475599,9,0.335,-0.87,0.5,33.733046,-84.15,-87.26
1730041442549097745,1730041442548945903,9,0.335,-0.87,0.5,33.858122333333334,-83.99,-84.01
1730041442650477185,1730041442650224685,9,0.335,-0.87,0.5,34.058244,-86.21,-87.03
1730041442749978747,1730041442749729633,9,0.335,-0.87,0.5,34.16455933333334,-85.12,-86.59
1730041442848857783,1730041442848544597,9,0.335,-0.87,0.5,34.270875,-85.74,-86.8
1730041442947422845,1730041442947211265,9,0.335,-0.87,0.5,34.40845833333333,-84.93,-85.69
1730041443047420945,1730041443047192811,9,0.335,-0.87,0.5,34.52728,-85.99,-87.79
1730041443147756277,1730041443147448539,9,0.335,-0.87,0.5,34.66486333333333,-85.74,-88.01
1730041443247367457,1730041443247092723,9,0.335,-0.87,0.5,34.77743233333333,-86.0,-86.62
1730041443347407000,1730041443347173213,9,0.335,-0.87,0.5,34.896255,-85.93,-86.57
1730041443447390376,1730041443447113752,9,0.335,-0.87,0.5,34.99631566666667,-85.73,-86.11
1730041443547514132,1730041443547077655,9,0.335,-0.87,0.5,35.108883666666664,-85.54,-86.11
1730041443647394877,1730041443647170305,9,0.335,-0.87,0.5,35.221452666666664,-85.5,-87.24
1730041443747593728,1730041443747215986,9,0.335,-0.87,0.5,35.346529000000004,-85.67,-86.08
1730041443846515964,1730041443846020936,9,0.335,-0.87,0.5,35.477859,-85.25,-85.92
1730041443947251819,1730041443947066068,9,0.335,-0.87,0.5,35.59668066666667,-85.43,-86.7
1730041444047487029,1730041444047156810,9,0.335,-0.87,0.5,35.696741333333335,-85.0,-86.42
1730041444147266030,1730041444146988868,9,0.335,-0.87,0.5,35.815564,-85.31,-86.84
1730041444248370766,1730041444248136520,9,0.335,-0.87,0.5,35.93438666666666,-85.28,-87.52
1730041444349172199,1730041444348871469,9,0.335,-0.87,0.5,36.08447866666666,-85.85,-87.37
1730041444449155791,1730041444448917150,9,0.335,-0.87,0.5,36.190793,-86.62,-89.54
1730041444548278493,1730041444548119544,9,0.335,-0.87,0.5,36.309615666666666,-85.76,-89.07
1730041444648698486,1730041444648445844,9,0.335,-0.87,0.5,36.40967633333333,-85.96,-86.38
1730041444847786860,1730041444847471475,9,0.335,-0.87,0.5,36.57227533333333,-86.04,-86.39
1730041444947518245,1730041444947209358,9,0.335,-0.87,0.5,36.73487433333333,-85.82,-86.14
1730041445048302695,1730041445048136711,9,0.335,-0.87,0.5,36.90998033333333,-85.11,-85.08
1730041445148234800,1730041445148007392,9,0.335,-0.87,0.5,37.03505633333334,-85.06,-85.16
1730041445247940056,1730041445247775316,9,0.335,-0.87,0.5,37.14137066666667,-85.65,-88.32
1730041445348159183,1730041445348010301,9,0.335,-0.87,0.5,37.222671,-85.39,-85.92
1730041445448719502,1730041445448565721,9,0.335,-0.87,0.5,37.30397133333333,-86.56,-87.19
1730041445546455059,1730041445546041488,9,0.335,-0.87,0.5,37.410285666666674,-86.38,-87.56
1730041445646402225,1730041445646090507,9,0.335,-0.87,0.5,37.54161533333334,-86.65,-88.71
1730041445746488536,1730041445746108055,9,0.335,-0.87,0.5,37.67919866666667,-85.55,-86.29
1730041445846627504,1730041445846076488,9,0.335,-0.87,0.5,37.81052966666667,-86.38,-86.93
1730041445946414733,1730041445946030616,9,0.335,-0.87,0.5,37.929352333333334,-86.86,-87.32
1730041446046321168,1730041446046026706,9,0.335,-0.87,0.5,38.035667999999994,-86.1,-87.55
1730041446146400945,1730041446146033763,9,0.335,-0.87,0.5,38.148236,-85.86,-88.17
1730041446246412958,1730041446246019124,9,0.335,-0.87,0.5,38.254550333333334,-86.27,-86.84
1730041446346788380,1730041446346009254,9,0.335,-0.87,0.5,38.37962533333333,-86.69,-87.96
1730041446446394781,1730041446446027278,9,0.335,-0.87,0.5,38.49219466666667,-85.65,-87.26
1730041446546425860,1730041446546026706,9,0.335,-0.87,0.5,38.604763999999996,-86.04,-86.83
1730041446646682648,1730041446646078109,9,0.335,-0.87,0.5,38.704826,-86.05,-87.45
1730041446746416735,1730041446746024131,9,0.335,-0.87,0.5,38.81739366666667,-86.0,-86.75
1730041446846231911,1730041446846003770,9,0.335,-0.87,0.5,38.948723333333334,-86.78,-88.79
1730041446946300085,1730041446946068763,9,0.335,-0.87,0.5,39.08005333333333,-86.02,-86.22
1730041447046434786,1730041447046028614,9,0.335,-0.87,0.5,39.18636766666666,-86.93,-89.04
1730041447146418576,1730041447146032810,9,0.335,-0.87,0.5,39.28017499999999,-86.28,-88.34
1730041447246489786,1730041447245999097,9,0.335,-0.87,0.5,39.38648933333334,-86.44,-88.49
1730041447349240651,1730041447349086761,9,0.335,-0.87,0.5,39.524074000000006,-85.7,-86.68
1730041447449491769,1730041447449232339,9,0.335,-0.87,0.5,39.667911000000004,-84.95,-87.63
1730041447551129410,1730041447550838947,9,0.335,-0.87,0.5,39.78673366666666,-85.69,-86.8
1730041447648579152,1730041447648407697,9,0.335,-0.87,0.5,39.899301666666666,-86.63,-87.54
1730041447748666812,1730041447748356103,9,0.335,-0.87,0.5,39.99936233333333,-86.45,-90.1
1730041447848905601,1730041447848645210,9,0.335,-0.87,0.5,40.130692,-85.47,-86.43
1730041447948432278,1730041447948290348,9,0.335,-0.87,0.5,40.24951466666667,-86.95,-90.84
1730041448048624643,1730041448048316001,9,0.335,-0.87,0.5,40.36833766666667,-86.91,-89.96
1730041448148479062,1730041448148277282,9,0.335,-0.87,0.5,40.474652,-86.37,-87.21
1730041448248499783,1730041448248344659,9,0.335,-0.87,0.5,40.58722133333333,-86.72,-88.85
1730041448348355729,1730041448348220348,9,0.335,-0.87,0.5,40.69353566666666,-86.61,-88.12
1730041448449103616,1730041448448504924,9,0.335,-0.87,0.5,40.81235866666666,-86.52,-89.76
1730041448548198900,1730041448548034191,9,0.335,-0.87,0.5,40.924926666666664,-86.48,-89.46
1730041448648754763,1730041448648393392,9,0.335,-0.87,0.5,41.05625633333333,-86.61,-87.4
1730041448749016176,1730041448748653411,9,0.335,-0.87,0.5,41.168824,-86.79,-89.59
1730041448848690923,1730041448848386049,9,0.335,-0.87,0.5,41.2939,-86.73,-88.24
1730041448948381483,1730041448948234319,9,0.335,-0.87,0.5,41.418976333333326,-86.17,-86.33
1730041449047469596,1730041449047174215,9,0.335,-0.87,0.5,41.544052666666666,-86.33,-86.23
1730041449148554159,1730041449148337364,9,0.335,-0.87,0.5,41.656622000000006,-86.13,-87.86
1730041449247770909,1730041449247422456,9,0.335,-0.87,0.5,41.775444666666665,-86.13,-88.73
1730041449347589826,1730041449347220659,9,0.335,-0.87,0.5,41.89426733333334,-86.24,-86.67
1730041449447556169,1730041449447318792,9,0.335,-0.87,0.5,42.01308866666667,-87.1,-88.78
1730041449547939607,1730041449547733545,9,0.335,-0.87,0.5,42.106896,-86.04,-87.56
1730041449648517271,1730041449648323297,9,0.335,-0.87,0.5,42.21321033333333,-87.35,-88.41
1730041449749727824,1730041449749455451,9,0.335,-0.87,0.5,42.32577966666667,-86.59,-88.28
1730041449848916077,1730041449848723411,9,0.335,-0.87,0.5,42.47587133333334,-86.36,-86.09
1730041449948382547,1730041449948228597,9,0.335,-0.87,0.5,42.59469433333333,-85.82,-86.67
1730041450047779455,1730041450047660589,9,0.335,-0.87,0.5,42.726023999999995,-85.92,-86.89
1730041450148050940,1730041450147677183,9,0.335,-0.87,0.5,42.826085,-88.37,-88.99
1730041450249756663,1730041450249558687,9,0.335,-0.87,0.5,42.957414666666665,-86.75,-87.15
1730041450446387136,1730041450446037292,9,0.335,-0.87,0.5,43.132521,-85.94,-85.37
1730041450546388964,1730041450546031951,9,0.335,-0.87,0.5,43.307627,-86.6,-87.32
1730041450646564162,1730041450646045446,9,0.335,-0.87,0.5,43.482734333333326,-85.93,-85.53
1730041450746235449,1730041450745945453,9,0.335,-0.87,0.5,43.60155699999999,-85.97,-85.6
1730041450846398871,1730041450846016168,9,0.335,-0.87,0.5,43.732886666666666,-85.89,-85.91
1730041450946260982,1730041450946004152,9,0.335,-0.87,0.5,43.864216666666664,-86.03,-86.68
1730041451048323472,1730041451048184156,9,0.335,-0.87,0.5,43.97678566666667,-86.16,-85.77
1730041451148918661,1730041451148592710,9,0.335,-0.87,0.5,44.08310133333333,-86.62,-87.36
1730041451249243128,1730041451249088764,9,0.335,-0.87,0.5,44.18941566666667,-86.34,-86.98
1730041451349421044,1730041451349170446,9,0.335,-0.87,0.5,44.320745666666674,-86.16,-86.73
1730041451449117944,1730041451448972702,9,0.335,-0.87,0.5,44.452075666666666,-86.73,-85.98
1730041451549175740,1730041451549016237,9,0.335,-0.87,0.5,44.577152000000005,-85.48,-84.88
1730041451649230003,1730041451648998498,9,0.335,-0.87,0.5,44.695973333333335,-85.71,-86.9
1730041451779771972,1730041451779015779,9,0.335,-0.87,0.5,44.808541,-86.18,-87.19
1730041451848562586,1730041451848213672,9,0.335,-0.87,0.5,44.91485533333334,-87.22,-87.33
1730041451948460749,1730041451948147535,9,0.335,-0.87,0.5,45.033678,-86.95,-87.41
1730041452049559007,1730041452049055814,9,0.335,-0.87,0.5,45.13999366666667,-86.41,-87.41
1730041452149809229,1730041452149472951,9,0.335,-0.87,0.5,45.25881633333333,-86.41,-86.03
1730041452248398586,1730041452248084545,9,0.335,-0.87,0.5,45.35887733333333,-86.02,-87.97
1730041452348629930,1730041452348009109,9,0.335,-0.87,0.5,45.48395366666667,-86.22,-85.92
1730041452446183715,1730041452446052551,9,0.335,-0.87,0.5,45.584014333333336,-86.57,-87.06
1730041452546558302,1730041452546098709,9,0.335,-0.87,0.5,45.70909066666667,-86.09,-87.3
1730041452646452444,1730041452646056652,9,0.335,-0.87,0.5,45.82791233333333,-85.75,-88.31
1730041452746546874,1730041452746054410,9,0.335,-0.87,0.5,45.96549566666666,-86.51,-87.59
1730041452846426671,1730041452846032142,9,0.335,-0.87,0.5,46.08431833333333,-85.98,-88.31
1730041452946374623,1730041452946006298,9,0.335,-0.87,0.5,46.209394333333336,-87.24,-86.87
1730041453046317442,1730041453046041488,9,0.335,-0.87,0.5,46.33447066666667,-85.46,-85.15
1730041453148250576,1730041453148029327,9,0.335,-0.87,0.5,46.447038666666664,-86.87,-86.22
1730041453246435294,1730041453246044635,9,0.335,-0.87,0.5,46.559608000000004,-86.22,-86.37
1730041453547296758,1730041453547078371,9,0.335,-0.87,0.5,46.76598466666667,-85.64,-87.12
1730041453648178379,1730041453647920846,9,0.335,-0.87,0.5,46.97861433333333,-86.02,-86.16
1730041453748009553,1730041453747904539,9,0.335,-0.87,0.5,47.19124300000001,-85.71,-85.31
1730041453848976592,1730041453848664999,9,0.335,-0.87,0.5,47.29755733333334,-86.33,-87.77
1730041453946481045,1730041453946068286,9,0.335,-0.87,0.5,47.416380333333336,-86.49,-86.04
1730041454047285238,1730041454046963214,9,0.335,-0.87,0.5,47.51644233333334,-85.99,-85.54
1730041454148235438,1730041454147943735,9,0.335,-0.87,0.5,47.635265000000004,-85.6,-85.37
1730041454248814014,1730041454248562335,9,0.335,-0.87,0.5,47.735325666666675,-86.64,-88.27
1730041454348379629,1730041454348188161,9,0.335,-0.87,0.5,47.86040066666666,-85.9,-87.13
1730041454448171464,1730041454447923898,9,0.335,-0.87,0.5,47.966715,-86.79,-87.8
1730041454547976438,1730041454547811031,9,0.335,-0.87,0.5,48.09179133333333,-86.51,-86.54
1730041454648720340,1730041454648547410,9,0.335,-0.87,0.5,48.210614,-86.84,-87.4
1730041454746478482,1730041454746052026,9,0.335,-0.87,0.5,48.34194366666667,-86.74,-88.13
1730041454846416603,1730041454846035957,9,0.335,-0.87,0.5,48.44200433333334,-85.95,-87.34
1730041454946494863,1730041454946076393,9,0.335,-0.87,0.5,48.54206533333333,-85.85,-86.13
1730041455046239571,1730041455046037435,9,0.335,-0.87,0.5,48.64212633333333,-86.73,-88.0
1730041455146298015,1730041455146037101,9,0.335,-0.87,0.5,48.773456333333336,-90.05,-91.41
1730041455246362197,1730041455246049165,9,0.335,-0.87,0.5,48.879772,-86.5,-86.36
1730041455346341321,1730041455346045255,9,0.335,-0.87,0.5,48.96732566666666,-85.69,-85.17
1730041455447412911,1730041455447216033,9,0.335,-0.87,0.5,48.98608766666666,-86.27,-86.93
1730041455547320975,1730041455547145843,9,0.335,-0.87,0.5,48.98608766666666,-86.7,-86.95
1730041456146551812,1730041456146020174,9,0.335,-0.87,0.5,49.07989466666667,-87.79,-87.6
1730041456246376697,1730041456246026515,9,0.335,-0.87,0.5,49.12992566666667,-85.58,-85.13
1730041456347541909,1730041456347323656,9,0.335,-0.87,0.5,49.167448,-85.84,-85.33
1730041456447528053,1730041456447313308,9,0.335,-0.87,0.5,49.16119333333334,-85.84,-85.48
1730041456547539459,1730041456547229290,9,0.335,-0.87,0.5,49.15493866666667,-84.97,-85.41
1730041456647751112,1730041456647382736,9,0.335,-0.87,0.5,49.142431666666674,-84.87,-84.55
1730041456748637797,1730041456748457908,9,0.335,-0.87,0.5,49.14868633333334,-84.5,-83.98
1730041456847428934,1730041456847197532,9,0.335,-0.87,0.5,49.136179,-84.32,-83.7
1730041456947431438,1730041456947233676,9,0.335,-0.87,0.5,49.12367066666667,-83.75,-83.13
1730041457046594155,1730041457046045780,9,0.335,-0.87,0.5,49.10490866666667,-84.31,-85.64
1730041457148284143,1730041457148026943,9,0.335,-0.87,0.5,49.11116233333333,-84.37,-83.71
1730041457246404462,1730041457246005773,9,0.335,-0.87,0.5,49.11116233333333,-84.92,-84.54
1730041457348514273,1730041457348261117,9,0.335,-0.87,0.5,49.104909,-84.0,-83.55
1730041457448721263,1730041457448565959,9,0.335,-0.87,0.5,49.09865533333333,-84.0,-83.56
1730041457547759981,1730041457547441005,9,0.335,-0.87,0.5,49.086148333333334,-84.64,-85.05
1730041457647428297,1730041457647244453,9,0.335,-0.87,0.5,49.09865533333333,-83.7,-83.14
1730041457747794222,1730041457747512102,9,0.335,-0.87,0.5,49.09865533333333,-84.54,-84.0
1730041457847495031,1730041457847219705,9,0.335,-0.87,0.5,49.09240166666667,-83.83,-83.42
1730041457947421959,1730041457947186708,9,0.335,-0.87,0.5,49.067386,-84.44,-83.9
1730041458047542922,1730041458047243833,9,0.335,-0.87,0.5,49.06113266666667,-84.46,-84.52
1730041458147599518,1730041458147240161,9,0.335,-0.87,0.5,49.06113266666667,-84.54,-84.35
1730041458247457331,1730041458247121810,9,0.335,-0.87,0.5,49.06738766666667,-83.93,-83.43
1730041458347376011,1730041458347087383,9,0.335,-0.87,0.5,49.073641,-83.85,-83.41
1730041458447614291,1730041458447400808,9,0.335,-0.87,0.5,49.073641,-83.9,-85.26
1730041458548213466,1730041458548045873,9,0.335,-0.87,0.5,49.07989466666667,-84.24,-83.88
1730041458648268909,1730041458648128032,9,0.335,-0.87,0.5,49.07989466666667,-84.76,-84.43
1730041458749070879,1730041458748914718,9,0.335,-0.87,0.5,49.09865533333333,-83.83,-83.51
1730041458849243721,1730041458849002599,9,0.335,-0.87,0.5,49.09240166666667,-84.03,-83.48
1730041458948937676,1730041458948724269,9,0.335,-0.87,0.5,49.09240166666667,-83.93,-83.4
1730041459048994963,1730041459048846244,9,0.335,-0.87,0.5,49.067386,-84.73,-84.59
1730041459149245046,1730041459149058341,9,0.335,-0.87,0.5,49.07363966666667,-83.37,-82.78
1730041459248326916,1730041459248050928,9,0.335,-0.87,0.5,49.06738633333333,-84.06,-83.64
1730041459378837776,1730041459378692150,9,0.335,-0.87,0.5,49.092402,-84.56,-84.47
1730041459448981726,1730041459448596715,9,0.335,-0.87,0.5,49.086148333333334,-85.35,-84.8
1730041459546564303,1730041459546097755,9,0.335,-0.87,0.5,49.09865533333333,-85.27,-86.33
1730041459647521910,1730041459647275686,9,0.335,-0.87,0.5,49.086148333333334,-85.67,-86.57
1730041459747586610,1730041459747308492,9,0.335,-0.87,0.5,49.092402,-85.53,-85.51
1730041459846543304,1730041459846016168,9,0.335,-0.87,0.5,49.086148333333334,-84.8,-86.48
1730041459946403409,1730041459946010351,9,0.335,-0.87,0.5,49.09240166666667,-85.11,-85.61
1730041460046304448,1730041460046047449,9,0.335,-0.87,0.5,49.09240166666667,-86.22,-86.32
1730041460146268347,1730041460146030902,9,0.335,-0.87,0.5,49.086148333333334,-85.5,-85.63
1730041460246575831,1730041460246013879,9,0.335,-0.87,0.5,49.079895,-86.09,-88.1
1730041460346404374,1730041460346028566,9,0.335,-0.87,0.5,49.086148333333334,-86.08,-86.57
1730041460446640511,1730041460446034193,9,0.335,-0.87,0.5,49.09240166666667,-86.4,-86.05
1730041460547355155,1730041460547119140,9,0.335,-0.87,0.5,49.09240166666667,-86.77,-86.33
1730041460646416447,1730041460646036148,9,0.335,-0.87,0.5,49.104909,-86.39,-87.95
1730041460747572239,1730041460747234344,9,0.335,-0.87,0.5,49.111162666666665,-86.84,-86.42
1730041460848300184,1730041460848082542,9,0.335,-0.87,0.5,49.123669666666665,-87.27,-88.24
1730041460946448895,1730041460946044206,9,0.335,-0.87,0.5,49.136178,-87.35,-87.19
1730041461046370481,1730041461046051263,9,0.335,-0.87,0.5,49.15494,-87.39,-86.96
1730041461146452559,1730041461146056413,9,0.335,-0.87,0.5,49.17995533333333,-87.14,-89.31
1730041461247454343,1730041461247212171,9,0.335,-0.87,0.5,49.19246233333333,-86.7,-86.81
1730041461348267710,1730041461347990989,9,0.335,-0.87,0.5,49.198715666666665,-86.21,-87.98
1730041461447445983,1730041461447166681,9,0.335,-0.87,0.5,49.198715666666665,-85.05,-85.2
1730041461547717277,1730041461547390222,9,0.335,-0.87,0.5,49.198715666666665,-85.37,-85.07
1730041461647672906,1730041461647399902,9,0.335,-0.87,0.5,49.21747766666667,-85.49,-84.93
1730041461746447997,1730041461746049165,9,0.335,-0.87,0.5,49.229985,-85.21,-85.48
1730041461846449700,1730041461846050739,9,0.335,-0.87,0.5,49.25500066666667,-85.15,-87.07
1730041462046503429,1730041462046036005,9,0.335,-0.87,0.5,49.28627,-83.64,-83.39
1730041462146514098,1730041462146065473,9,0.335,-0.87,0.5,49.323794,-84.33,-83.74
1730041462249041809,1730041462248792648,9,0.335,-0.87,0.5,49.336301,-85.03,-85.77
1730041462348559037,1730041462348190546,9,0.335,-0.87,0.5,49.34255433333334,-84.28,-86.31
1730041462448631492,1730041462448447942,9,0.335,-0.87,0.5,49.35506133333333,-82.8,-82.5
1730041462546341739,1730041462546044111,9,0.335,-0.87,0.5,49.36756966666667,-83.73,-83.18
1730041462646479243,1730041462646107196,9,0.335,-0.87,0.5,49.38633033333334,-83.77,-83.67
1730041462748739494,1730041462748416662,9,0.335,-0.87,0.5,49.423853,-83.31,-85.16
1730041462846420082,1730041462846038579,9,0.335,-0.87,0.5,49.455121999999996,-83.05,-83.0
1730041462947534672,1730041462947283267,9,0.335,-0.87,0.5,49.486391,-83.43,-85.43
1730041463047318734,1730041463047225713,9,0.335,-0.87,0.5,49.498898000000004,-84.61,-84.66
1730041463148036797,1730041463147920846,9,0.335,-0.87,0.5,49.523912333333335,-84.58,-84.03
1730041463246280779,1730041463246031045,9,0.335,-0.87,0.5,49.54267433333334,-83.82,-83.99
1730041463346241885,1730041463346024990,9,0.335,-0.87,0.5,49.55518266666667,-84.07,-85.69
1730041463446249648,1730041463446021795,9,0.335,-0.87,0.5,49.58645166666667,-83.85,-83.72
1730041463547179231,1730041463546924591,9,0.335,-0.87,0.5,49.61146733333334,-84.43,-86.67
1730041463647251787,1730041463646960020,9,0.335,-0.87,0.5,49.64273666666667,-84.29,-84.02
1730041463746516824,1730041463746018648,9,0.335,-0.87,0.5,49.674006,-84.53,-86.06
1730041463848289256,1730041463847997665,9,0.335,-0.87,0.5,49.692766666666664,-84.55,-85.16
1730041463947450892,1730041463947180032,9,0.335,-0.87,0.5,49.72403566666666,-85.0,-84.49
1730041464046263750,1730041464046054363,9,0.335,-0.87,0.5,49.736544,-85.6,-86.43
1730041464148087739,1730041464147745132,9,0.335,-0.87,0.5,49.77406666666667,-84.82,-84.53
1730041464246509159,1730041464246016025,9,0.335,-0.87,0.5,49.80533566666666,-85.09,-86.22
1730041464348234263,1730041464348081350,9,0.335,-0.87,0.5,49.85536533333334,-85.28,-86.06
1730041464448180321,1730041464448036193,9,0.335,-0.87,0.5,49.886634333333326,-86.34,-86.45
1730041464548295852,1730041464548115491,9,0.335,-0.87,0.5,49.905395,-84.86,-85.32
1730041464649231137,1730041464649014949,9,0.335,-0.87,0.5,49.924157,-85.25,-84.74
1730041464748614160,1730041464748327970,9,0.335,-0.87,0.5,49.961681,-85.24,-87.16
1730041464848575434,1730041464848405838,9,0.335,-0.87,0.5,49.98669666666666,-85.79,-87.16
1730041464949259841,1730041464949048757,9,0.335,-0.87,0.5,50.01796566666667,-85.16,-84.78
1730041465049529811,1730041465049227237,9,0.335,-0.87,0.5,50.04297966666667,-86.43,-87.11
1730041465146441907,1730041465146025180,9,0.335,-0.87,0.5,50.080501999999996,-87.84,-87.81
1730041465246381310,1730041465246016979,9,0.335,-0.87,0.5,50.111771000000005,-88.84,-88.5
1730041465346334241,1730041465346034765,9,0.335,-0.87,0.5,50.111771000000005,-91.21,-91.37
1730041465446350151,1730041465446012496,9,0.335,-0.87,0.5,50.124279666666666,-91.21,-93.82
1730041465546263447,1730041465546037912,9,0.335,-0.87,0.5,50.136787,-90.59,-92.56
1730041465649040827,1730041465648844003,9,0.335,-0.87,0.5,50.16805633333333,-90.39,-91.48
1730041465749234950,1730041465749053001,9,0.335,-0.87,0.5,50.186817,-90.66,-91.38
1730041465848393614,1730041465848242282,9,0.335,-0.87,0.5,50.218086,-89.51,-89.4
1730041465947850832,1730041465947566747,9,0.335,-0.87,0.5,50.268117,-89.08,-89.25
1730041466048170294,1730041466047891378,9,0.335,-0.87,0.5,50.31814800000001,-88.78,-89.08
1730041466148394308,1730041466148186206,9,0.335,-0.87,0.5,50.33691000000001,-89.52,-89.73
1730041466248508362,1730041466248337507,9,0.335,-0.87,0.5,50.34316333333334,-88.5,-88.5
1730041466347756724,1730041466347427845,9,0.335,-0.87,0.5,50.355670333333336,-89.23,-89.46
1730041466446336772,1730041466446022748,9,0.335,-0.87,0.5,50.38068566666667,-89.58,-90.17
1730041466546498953,1730041466546023130,9,0.335,-0.87,0.5,50.40570133333333,-89.65,-90.65
1730041466647528014,1730041466647280693,9,0.335,-0.87,0.5,50.424463333333335,-89.85,-90.9
1730041466747486581,1730041466747272253,9,0.335,-0.87,0.5,50.418208666666665,-90.98,-93.14
1730041466848336843,1730041466848183393,9,0.335,-0.87,0.5,50.411955,-91.11,-91.35
1730041466948148678,1730041466947959899,9,0.335,-0.87,0.5,50.40570133333333,-91.56,-93.43
1730041467046478172,1730041467046012878,9,0.335,-0.87,0.5,50.424463333333335,-92.13,-91.75
1730041467147473439,1730041467147214174,9,0.335,-0.87,0.5,50.44322400000001,-92.76,-92.98
1730041467247407541,1730041467247216701,9,0.335,-0.87,0.5,50.44322400000001,-93.41,-93.67
1730041467347502274,1730041467347079277,9,0.335,-0.87,0.5,50.424462000000005,-93.36,-94.28
1730041467446450953,1730041467446031093,9,0.335,-0.87,0.5,44.50210533333333,-93.57,-95.15
1730041467546392729,1730041467545995235,9,0.335,-0.87,0.5,44.49585066666666,-93.57,-93.69
1730041467647447843,1730041467647001504,9,0.335,-0.87,0.5,44.48334333333333,-92.54,-93.16
1730041467754482287,1730041467754309892,9,0.335,-0.87,0.5,50.36192400000001,-94.22,-96.24
1730041467846494116,1730041467846015691,9,0.335,-0.87,0.5,50.330656000000005,-94.99,-96.39
1730041467946287052,1730041467946031332,9,0.335,-0.87,0.5,50.286880000000004,-94.41,-94.89
1730041468046595844,1730041468046075344,9,0.335,-0.87,0.5,50.261864333333335,-94.66,-95.29
1730041468747929951,1730041468747764587,9,0.335,-0.87,0.5,50.22434066666667,-95.32,-97.73
1730041469047881475,1730041469047735214,9,0.335,-0.87,0.5,50.168056,-95.22,-96.18
1730041469247234889,1730041469247046709,9,0.335,-0.87,0.5,50.08050233333333,-94.03,-94.95
1730041469448487521,1730041469448328495,9,0.335,-0.87,0.5,49.999203333333334,-93.52,-93.74
1730041469548406055,1730041469548205375,9,0.335,-0.87,0.5,49.93666533333334,-93.62,-95.16
1730041469648148105,1730041469647939920,9,0.335,-0.87,0.5,49.87412733333334,-93.85,-95.32
1730041469746529503,1730041469746060609,9,0.335,-0.87,0.5,49.83035,-92.86,-94.22
1730041469848761924,1730041469848588943,9,0.335,-0.87,0.5,49.780319,-92.3,-93.68
1730041469947566783,1730041469947288990,9,0.335,-0.87,0.5,49.74279633333333,-92.15,-93.49
1730041470048609409,1730041470048333168,9,0.335,-0.87,0.5,49.70527366666666,-92.15,-91.63
1730041470146574882,1730041470146072149,9,0.335,-0.87,0.5,49.67400433333333,-91.69,-93.59
1730041470248414015,1730041470248136520,9,0.335,-0.87,0.5,49.60521266666667,-91.14,-92.52
1730041470348761665,1730041470348511219,9,0.335,-0.87,0.5,49.523913666666665,-91.11,-92.44
1730041470448218733,1730041470447993278,9,0.335,-0.87,0.5,49.455121999999996,-91.36,-92.23
1730041470548325565,1730041470548043489,9,0.335,-0.87,0.5,49.39258366666667,-90.7,-91.61
1730041470648250346,1730041470648020267,9,0.335,-0.87,0.5,49.33004566666667,-90.47,-90.95
1730041470748530516,1730041470748287439,9,0.335,-0.87,0.5,49.26750766666667,-90.1,-90.23
1730041470848306238,1730041470848088979,9,0.335,-0.87,0.5,49.21122333333333,-90.75,-90.74
1730041470948095987,1730041470947867155,9,0.335,-0.87,0.5,49.13617666666667,-90.22,-90.52
1730041471048159597,1730041471047962188,9,0.335,-0.87,0.5,49.04862433333333,-90.24,-90.43
1730041471148099209,1730041471147918224,9,0.335,-0.87,0.5,48.97983233333333,-89.79,-89.77
1730041471248134186,1730041471247938871,9,0.335,-0.87,0.5,48.91729433333333,-88.81,-88.18
1730041471348096109,1730041471347903251,9,0.335,-0.87,0.5,48.86100966666667,-88.95,-91.47
1730041471448497928,1730041471448258399,9,0.335,-0.87,0.5,48.785964666666665,-88.37,-87.97
1730041471548180426,1730041471547981739,9,0.335,-0.87,0.5,48.69841233333333,-87.99,-90.25
1730041471646444471,1730041471646083116,9,0.335,-0.87,0.5,48.610858666666665,-87.49,-87.84
1730041471746261780,1730041471746045351,9,0.335,-0.87,0.5,48.517051333333335,-88.01,-88.61
1730041471846196998,1730041471846079349,9,0.335,-0.87,0.5,48.435751,-88.07,-88.78
1730041471946206734,1730041471945999622,9,0.335,-0.87,0.5,48.33569033333333,-87.52,-87.96
1730041472046362089,1730041472046010255,9,0.335,-0.87,0.5,48.248136666666674,-87.29,-86.83
1730041472146386168,1730041472145996809,9,0.335,-0.87,0.5,48.166838000000006,-87.27,-89.4
1730041472247452179,1730041472247303009,9,0.335,-0.87,0.5,48.08553766666666,-87.25,-86.96
1730041472347594773,1730041472347312450,9,0.335,-0.87,0.5,47.985477,-87.01,-86.78
