%time,field.stamp,field.id,field.x,field.y,field.z,field.distanceFromTag,field.rssi,field.rssi_fp
1733053256749609539,1733053256749261140,12,-0.05,0.87,0.5,5.140630666666667,-79.36,-81.07
1733053256849424649,1733053256849180459,12,-0.05,0.87,0.5,5.128123333333334,-79.69,-82.61
1733053256950147093,1733053256949914693,12,-0.05,0.87,0.5,5.134377333333334,-79.64,-82.07
1733053257548126843,1733053257547879695,12,-0.05,0.87,0.5,5.1781543333333335,-79.71,-81.08
1733053257648350285,1733053257647898674,12,-0.05,0.87,0.5,5.159392666666666,-79.6,-82.62
1733053257751159955,1733053257750904321,12,-0.05,0.87,0.5,5.165646333333334,-79.88,-81.39
1733053257850394848,1733053257850154161,12,-0.05,0.87,0.5,5.146884666666666,-79.68,-81.05
1733053257950024504,1733053257949803829,12,-0.05,0.87,0.5,5.153138333333334,-79.73,-82.67
1733053258051169013,1733053258050990819,12,-0.05,0.87,0.5,5.134377,-79.69,-82.0
1733053258148279907,1733053258147879600,12,-0.05,0.87,0.5,5.128123333333334,-79.76,-81.32
1733053258248279624,1733053258247883558,12,-0.05,0.87,0.5,5.134377333333333,-79.26,-80.69
1733053258348345008,1733053258347939014,12,-0.05,0.87,0.5,5.134377333333333,-79.55,-81.49
1733053258448206113,1733053258447910547,12,-0.05,0.87,0.5,5.146884666666667,-79.84,-81.31
1733053258548434494,1733053258547899246,12,-0.05,0.87,0.5,5.146884666666666,-79.32,-80.86
1733053258648576326,1733053258647993803,12,-0.05,0.87,0.5,5.146884666666666,-79.61,-81.91
1733053258748166412,1733053258747902631,12,-0.05,0.87,0.5,5.140631,-79.4,-81.07
1733053258848311044,1733053258847916364,12,-0.05,0.87,0.5,5.134377,-79.72,-82.17
1733053258948367889,1733053258947900056,12,-0.05,0.87,0.5,5.159392333333333,-79.21,-80.89
1733053259048341190,1733053259047922849,12,-0.05,0.87,0.5,5.1719,-79.23,-82.68
1733053259151129977,1733053259150864124,12,-0.05,0.87,0.5,5.1719,-80.09,-83.12
1733053259251049696,1733053259250851154,12,-0.05,0.87,0.5,5.165646,-79.8,-82.06
1733053259350303848,1733053259350074291,12,-0.05,0.87,0.5,5.146884666666668,-79.7,-82.37
1733053259450171182,1733053259449900150,12,-0.05,0.87,0.5,5.146884666666668,-79.56,-81.74
1733053259550275954,1733053259549862146,12,-0.05,0.87,0.5,5.146884666666668,-80.25,-82.43
1733053259650627279,1733053259650230884,12,-0.05,0.87,0.5,5.165646,-79.19,-81.51
1733053259751718895,1733053259751005649,12,-0.05,0.87,0.5,5.165646,-79.32,-81.65
1733053259848217251,1733053259847884893,12,-0.05,0.87,0.5,5.165646,-78.72,-80.97
1733053259948427506,1733053259947882890,12,-0.05,0.87,0.5,5.146884666666668,-79.16,-81.63
1733053260048344264,1733053260047904968,12,-0.05,0.87,0.5,5.165646333333334,-79.19,-81.7
1733053260149589767,1733053260147912502,12,-0.05,0.87,0.5,5.165646333333334,-78.89,-80.85
1733053260248405037,1733053260247913122,12,-0.05,0.87,0.5,5.178153666666667,-79.43,-81.5
1733053260348522552,1733053260347893953,12,-0.05,0.87,0.5,5.165646,-79.12,-81.28
1733053260448594409,1733053260447879076,12,-0.05,0.87,0.5,5.178154,-79.0,-81.36
1733053260551167551,1733053260550961494,12,-0.05,0.87,0.5,5.1906620000000006,-79.16,-81.2
1733053260651289591,1733053260651140213,12,-0.05,0.87,0.5,5.190662,-79.07,-80.84
1733053260751126105,1733053260751048088,12,-0.05,0.87,0.5,5.184408,-79.04,-81.03
1733053260851122639,1733053260850954294,12,-0.05,0.87,0.5,5.1719,-79.51,-81.83
1733053260948255273,1733053260947886705,12,-0.05,0.87,0.5,5.165646,-78.8,-80.87
1733053261048369603,1733053261047911167,12,-0.05,0.87,0.5,5.165646,-79.24,-81.85
1733053261148357046,1733053261147910356,12,-0.05,0.87,0.5,5.196915333333333,-79.2,-80.79
1733053261248916410,1733053261247946739,12,-0.05,0.87,0.5,5.178153999999999,-79.11,-81.08
1733053261348571641,1733053261347933530,12,-0.05,0.87,0.5,5.1844079999999995,-79.41,-81.03
1733053261448623698,1733053261447903394,12,-0.05,0.87,0.5,5.153138666666667,-79.49,-83.1
1733053261548327372,1733053261547887802,12,-0.05,0.87,0.5,5.153138666666667,-79.79,-82.9
1733053261648537656,1733053261647940397,12,-0.05,0.87,0.5,5.140630666666667,-79.59,-81.31
1733053261748262356,1733053261747876882,12,-0.05,0.87,0.5,5.115615666666667,-79.78,-82.31
1733053261848242427,1733053261847896337,12,-0.05,0.87,0.5,5.128123333333334,-79.44,-81.1
1733053261948366540,1733053261947893857,12,-0.05,0.87,0.5,5.115616,-79.62,-80.94
1733053262048686557,1733053262047983884,12,-0.05,0.87,0.5,5.140631,-80.6,-82.4
1733053262148532067,1733053262147932529,12,-0.05,0.87,0.5,5.146884666666668,-79.48,-80.67
1733053262248248879,1733053262247893810,12,-0.05,0.87,0.5,5.159392,-79.13,-81.12
1733053262348189347,1733053262347899436,12,-0.05,0.87,0.5,5.165646,-78.91,-81.48
1733053262448665331,1733053262447919607,12,-0.05,0.87,0.5,5.165646,-79.94,-81.48
1733053262548303724,1733053262547895669,12,-0.05,0.87,0.5,5.165646,-79.39,-81.01
1733053262648288347,1733053262647933483,12,-0.05,0.87,0.5,5.159392,-79.34,-81.34
1733053262850659255,1733053262850448608,12,-0.05,0.87,0.5,5.165646,-79.37,-81.0
1733053262950589348,1733053262950363159,12,-0.05,0.87,0.5,5.165646,-79.14,-81.7
1733053263049987894,1733053263049599409,12,-0.05,0.87,0.5,5.1719,-79.25,-81.93
1733053263149733970,1733053263149454355,12,-0.05,0.87,0.5,5.1719,-79.68,-82.62
1733053263248182551,1733053263247878551,12,-0.05,0.87,0.5,5.165646333333334,-79.16,-81.01
1733053263348285357,1733053263347907304,12,-0.05,0.87,0.5,5.159392333333334,-79.38,-81.79
1733053263451442438,1733053263451338291,12,-0.05,0.87,0.5,5.140631,-79.96,-80.88
1733053263551389644,1733053263551192045,12,-0.05,0.87,0.5,5.140631,-79.47,-81.92
1733053263652211553,1733053263651964902,12,-0.05,0.87,0.5,5.140631,-79.42,-81.32
1733053263751874806,1733053263751768350,12,-0.05,0.87,0.5,5.146884666666666,-79.68,-81.18
1733053263851506764,1733053263851355552,12,-0.05,0.87,0.5,5.153138333333334,-79.5,-81.44
1733053263951817094,1733053263951577425,12,-0.05,0.87,0.5,5.140631,-79.34,-81.29
1733053264051548970,1733053264051388502,12,-0.05,0.87,0.5,5.140631,-79.41,-81.83
1733053264151467817,1733053264151341915,12,-0.05,0.87,0.5,5.128123666666667,-79.37,-81.23
1733053264251679276,1733053264251406192,12,-0.05,0.87,0.5,5.134377333333333,-79.58,-81.23
1733053264352179318,1733053264351712465,12,-0.05,0.87,0.5,5.140631,-79.6,-81.39
1733053264451423666,1733053264451287269,12,-0.05,0.87,0.5,5.153138333333334,-79.41,-81.38
1733053264551648752,1733053264551381826,12,-0.05,0.87,0.5,5.159392,-79.64,-81.31
1733053264654137367,1733053264653904438,12,-0.05,0.87,0.5,5.159392,-79.45,-80.99
1733053264752874899,1733053264752679109,12,-0.05,0.87,0.5,5.159392,-79.6,-81.27
1733053264851618886,1733053264851410627,12,-0.05,0.87,0.5,5.153138333333334,-79.58,-81.76
1733053264951584331,1733053264951339006,12,-0.05,0.87,0.5,5.153138333333334,-79.55,-81.73
1733053265051713721,1733053265051516056,12,-0.05,0.87,0.5,5.165646333333333,-79.3,-80.8
1733053265151556380,1733053265151239871,12,-0.05,0.87,0.5,5.159392666666666,-79.26,-81.04
1733053265251368416,1733053265251037359,12,-0.05,0.87,0.5,5.1531389999999995,-79.54,-81.02
1733053265650453007,1733053265650226116,12,-0.05,0.87,0.5,5.096854333333333,-79.42,-80.97
1733053265750456707,1733053265750327110,12,-0.05,0.87,0.5,5.109362,-79.37,-81.47
1733053265850764195,1733053265850380897,12,-0.05,0.87,0.5,5.115616,-79.31,-80.89
1733053265951239315,1733053265950981855,12,-0.05,0.87,0.5,5.115616,-79.29,-80.58
1733053266050528493,1733053266050293684,12,-0.05,0.87,0.5,5.115616,-79.25,-80.79
1733053266150629369,1733053266150413513,12,-0.05,0.87,0.5,5.115616,-79.59,-80.71
1733053266250867682,1733053266250569105,12,-0.05,0.87,0.5,5.140631,-80.17,-81.14
1733053266350663777,1733053266350562810,12,-0.05,0.87,0.5,5.134377333333334,-79.73,-80.89
1733053266450303093,1733053266450029373,12,-0.05,0.87,0.5,5.140631,-79.23,-80.84
1733053266550758579,1733053266550502061,12,-0.05,0.87,0.5,5.178154,-79.55,-80.46
1733053266650763117,1733053266650551319,12,-0.05,0.87,0.5,5.184407666666666,-79.33,-80.75
1733053266750331077,1733053266750154733,12,-0.05,0.87,0.5,5.184407666666666,-79.41,-81.13
1733053266850256092,1733053266850029706,12,-0.05,0.87,0.5,5.153138666666667,-79.72,-80.94
1733053266950659608,1733053266950468778,12,-0.05,0.87,0.5,5.178154,-79.58,-80.69
1733053267050613344,1733053267050411224,12,-0.05,0.87,0.5,5.203169333333334,-79.11,-81.02
1733053267149573846,1733053267149303913,12,-0.05,0.87,0.5,5.234438333333333,-79.23,-80.9
1733053267249478241,1733053267249109983,12,-0.05,0.87,0.5,5.265707333333334,-79.07,-81.38
1733053267350492468,1733053267350282907,12,-0.05,0.87,0.5,5.265707333333334,-79.38,-81.26
1733053267450229375,1733053267450034618,12,-0.05,0.87,0.5,5.271961,-79.48,-80.91
1733053267550425016,1733053267550231218,12,-0.05,0.87,0.5,5.278215,-78.94,-80.62
1733053267651129165,1733053267650818586,12,-0.05,0.87,0.5,5.296976333333333,-79.28,-81.2
1733053267748456487,1733053267747938871,12,-0.05,0.87,0.5,5.3344993333333335,-79.34,-81.54
1733053267848434379,1733053267847904205,12,-0.05,0.87,0.5,5.3970373333333335,-79.08,-81.02
1733053267948403571,1733053267947895765,12,-0.05,0.87,0.5,5.478337,-78.67,-80.67
1733053268048898087,1733053268048037052,12,-0.05,0.87,0.5,5.497098333333334,-79.0,-81.56
1733053268148308649,1733053268147886276,12,-0.05,0.87,0.5,5.503352,-79.29,-81.19
1733053268248350287,1733053268247883796,12,-0.05,0.87,0.5,5.528366999999999,-78.98,-80.39
1733053268348552920,1733053268347945451,12,-0.05,0.87,0.5,5.5783976666666675,-78.94,-80.49
1733053268448754119,1733053268447948694,12,-0.05,0.87,0.5,5.5783976666666675,-78.96,-80.81
1733053268548421090,1733053268547929286,12,-0.05,0.87,0.5,5.609666666666667,-78.98,-80.49
1733053268648458605,1733053268647952318,12,-0.05,0.87,0.5,5.653443333333333,-79.12,-81.04
1733053268748191211,1733053268747889995,12,-0.05,0.87,0.5,5.734743000000001,-79.33,-80.52
1733053268848280191,1733053268847887754,12,-0.05,0.87,0.5,5.740997,-79.17,-80.69
1733053268948568661,1733053268947906970,12,-0.05,0.87,0.5,5.759758333333333,-78.81,-80.63
1733053269048340951,1733053269047917842,12,-0.05,0.87,0.5,5.878580333333333,-79.2,-80.59
1733053269148398776,1733053269147907018,12,-0.05,0.87,0.5,5.947372333333333,-79.05,-80.46
1733053269248189209,1733053269247886896,12,-0.05,0.87,0.5,6.016164333333333,-78.88,-80.45
1733053269348635651,1733053269347894191,12,-0.05,0.87,0.5,6.059940999999999,-79.04,-80.66
1733053269448600319,1733053269447908163,12,-0.05,0.87,0.5,6.109971333333334,-79.31,-81.09
1733053269548314550,1733053269547905445,12,-0.05,0.87,0.5,6.147494333333333,-79.34,-80.48
1733053269648165711,1733053269647887945,12,-0.05,0.87,0.5,6.216286333333333,-79.37,-80.44
1733053269748457877,1733053269747895240,12,-0.05,0.87,0.5,6.285078333333334,-79.93,-80.71
1733053269848136865,1733053269847889661,12,-0.05,0.87,0.5,6.372631666666667,-79.97,-80.94
1733053269948559213,1733053269947900772,12,-0.05,0.87,0.5,6.435169666666667,-79.39,-80.56
1733053270048859500,1733053270047896146,12,-0.05,0.87,0.5,6.510215333333334,-79.36,-80.48
1733053270148312633,1733053270147928476,12,-0.05,0.87,0.5,6.585261,-79.06,-80.51
1733053270248224933,1733053270247911453,12,-0.05,0.87,0.5,6.660307,-79.3,-80.8
1733053270351369073,1733053270351178407,12,-0.05,0.87,0.5,6.7228449999999995,-79.44,-80.61
1733053270451862078,1733053270451720714,12,-0.05,0.87,0.5,6.810398333333333,-78.7,-80.63
1733053270551553619,1733053270551339626,12,-0.05,0.87,0.5,6.87919,-79.01,-80.5
1733053270651052406,1733053270650929450,12,-0.05,0.87,0.5,6.960489666666668,-78.9,-80.77
1733053270751372966,1733053270751190185,12,-0.05,0.87,0.5,7.035535333333333,-78.76,-80.4
1733053270851116132,1733053270850931406,12,-0.05,0.87,0.5,7.123088666666667,-78.98,-80.72
1733053271048521980,1733053271047948122,12,-0.05,0.87,0.5,7.241910999999999,-79.02,-80.65
1733053271148293177,1733053271147896528,12,-0.05,0.87,0.5,7.335718,-79.0,-80.61
1733053271248350672,1733053271247881174,12,-0.05,0.87,0.5,7.423271333333333,-79.1,-80.58
1733053271348389261,1733053271347919702,12,-0.05,0.87,0.5,7.492063333333333,-79.05,-80.6
1733053271448532388,1733053271447946310,12,-0.05,0.87,0.5,7.5733630000000005,-79.05,-80.75
1733053271549641352,1733053271549283504,12,-0.05,0.87,0.5,7.673424,-79.19,-81.05
1733053271649312067,1733053271649015903,12,-0.05,0.87,0.5,7.767231,-78.97,-80.72
1733053271750977015,1733053271750704050,12,-0.05,0.87,0.5,7.873545666666666,-79.29,-80.95
1733053271850782503,1733053271850471258,12,-0.05,0.87,0.5,7.979860333333334,-79.34,-80.78
1733053271951555402,1733053271951182603,12,-0.05,0.87,0.5,8.079921333333333,-79.35,-80.88
1733053272051886392,1733053272051618814,12,-0.05,0.87,0.5,8.186236333333333,-79.58,-80.98
1733053272150544701,1733053272150307893,12,-0.05,0.87,0.5,8.292551333333334,-79.12,-80.54
1733053272250200917,1733053272249942541,12,-0.05,0.87,0.5,8.392612333333334,-79.26,-80.58
1733053272350646243,1733053272350558757,12,-0.05,0.87,0.5,8.467658,-79.6,-80.86
1733053272450696559,1733053272450565814,12,-0.05,0.87,0.5,8.586480333333334,-79.53,-80.75
1733053272550409624,1733053272550214290,12,-0.05,0.87,0.5,8.705303,-79.45,-80.78
1733053272650244586,1733053272650074720,12,-0.05,0.87,0.5,8.824125333333333,-79.34,-80.86
1733053272750821672,1733053272750618696,12,-0.05,0.87,0.5,8.911678666666667,-79.73,-81.44
1733053272850392078,1733053272850167751,12,-0.05,0.87,0.5,8.992977999999999,-79.56,-81.28
1733053272950279655,1733053272950014352,12,-0.05,0.87,0.5,9.099292666666665,-80.33,-81.55
1733053273050430787,1733053273050233364,12,-0.05,0.87,0.5,9.199353666666667,-79.86,-81.27
1733053273149638914,1733053273149533033,12,-0.05,0.87,0.5,9.330683666666665,-80.4,-81.63
1733053273250348592,1733053273250078678,12,-0.05,0.87,0.5,9.449506,-80.07,-81.51
1733053273350308782,1733053273350074768,12,-0.05,0.87,0.5,9.568328333333334,-80.73,-81.77
1733053273451295756,1733053273451206445,12,-0.05,0.87,0.5,9.699658333333334,-81.32,-82.55
1733053273551306502,1733053273551063776,12,-0.05,0.87,0.5,9.824734666666666,-80.56,-81.34
1733053273650957360,1733053273650821447,12,-0.05,0.87,0.5,9.962318333333334,-80.64,-81.41
1733053273751311349,1733053273751128673,12,-0.05,0.87,0.5,10.074886999999999,-79.6,-80.9
1733053273851297356,1733053273850893735,12,-0.05,0.87,0.5,10.187455666666667,-79.64,-81.79
1733053273950657657,1733053273950429677,12,-0.05,0.87,0.5,10.275008999999999,-79.79,-80.83
1733053274050757223,1733053274050603628,12,-0.05,0.87,0.5,10.362562333333335,-79.86,-80.68
1733053274156606813,1733053274156297445,12,-0.05,0.87,0.5,10.450115666666667,-79.65,-80.76
1733053274250730724,1733053274250436782,12,-0.05,0.87,0.5,10.550177,-79.44,-80.66
1733053274350433782,1733053274350149154,12,-0.05,0.87,0.5,10.656491666666666,-79.55,-80.8
1733053274450582011,1733053274450480937,12,-0.05,0.87,0.5,10.787821333333333,-79.29,-80.83
1733053274550350453,1733053274550141334,12,-0.05,0.87,0.5,10.900389666666667,-79.43,-80.68
1733053274650325714,1733053274650111913,12,-0.05,0.87,0.5,11.019212000000001,-79.44,-80.84
1733053274750572679,1733053274750223159,12,-0.05,0.87,0.5,11.119273333333332,-79.69,-81.19
1733053274850646169,1733053274850249767,12,-0.05,0.87,0.5,11.231842,-79.44,-80.57
1733053274949731010,1733053274949192523,12,-0.05,0.87,0.5,11.356918333333335,-79.57,-80.63
1733053275049509525,1733053275049254894,12,-0.05,0.87,0.5,11.475740666666667,-79.24,-80.69
1733053275149573792,1733053275149328231,12,-0.05,0.87,0.5,11.594563,-79.26,-80.75
1733053275249579959,1733053275249351024,12,-0.05,0.87,0.5,11.707131333333335,-79.11,-80.65
1733053275348222646,1733053275347890138,12,-0.05,0.87,0.5,11.813445999999999,-79.16,-80.68
1733053275449657352,1733053275449409961,12,-0.05,0.87,0.5,11.919760666666667,-79.45,-80.97
1733053275550249562,1733053275549381017,12,-0.05,0.87,0.5,12.026075333333333,-79.28,-80.46
1733053275649544079,1733053275649131298,12,-0.05,0.87,0.5,12.119882666666667,-79.6,-80.9
1733053275749597594,1733053275749141216,12,-0.05,0.87,0.5,12.244958666666667,-79.06,-80.78
1733053275849250285,1733053275849121332,12,-0.05,0.87,0.5,12.357527333333335,-79.4,-81.07
1733053275949512778,1733053275949331760,12,-0.05,0.87,0.5,12.482603333333335,-79.28,-80.73
1733053276049488838,1733053276049122571,12,-0.05,0.87,0.5,12.613933666666668,-79.29,-80.59
1733053276149629620,1733053276149357080,12,-0.05,0.87,0.5,12.73901,-79.56,-80.94
1733053276249858937,1733053276249237775,12,-0.05,0.87,0.5,12.870339999999999,-79.27,-80.83
1733053276348587396,1733053276347967147,12,-0.05,0.87,0.5,12.964147000000002,-79.54,-80.72
1733053276448441594,1733053276447892189,12,-0.05,0.87,0.5,5.822296333333334,-79.62,-80.61
1733053276548446582,1733053276547922372,12,-0.05,0.87,0.5,5.934864999999999,-80.01,-80.87
1733053276648505694,1733053276647922515,12,-0.05,0.87,0.5,6.0787026666666675,-80.03,-80.97
1733053276748690439,1733053276747915744,12,-0.05,0.87,0.5,13.451944333333332,-80.01,-80.96
1733053276848425889,1733053276847881317,12,-0.05,0.87,0.5,13.589528,-79.76,-80.92
1733053276948121375,1733053276947909355,12,-0.05,0.87,0.5,13.808411,-80.04,-80.8
1733053277048255664,1733053277047951459,12,-0.05,0.87,0.5,13.927233333333334,-80.19,-81.46
1733053277150664462,1733053277150524854,12,-0.05,0.87,0.5,14.058563333333334,-81.12,-81.09
1733053277248447297,1733053277247942924,12,-0.05,0.87,0.5,14.202401,-80.37,-80.89
1733053277349027859,1733053277348765611,12,-0.05,0.87,0.5,14.314969666666668,-80.54,-81.16
1733053277449851329,1733053277449454069,12,-0.05,0.87,0.5,14.452553666666667,-80.59,-80.96
1733053277549537722,1733053277549123048,12,-0.05,0.87,0.5,14.57763,-81.86,-82.33
1733053277649251088,1733053277648990392,12,-0.05,0.87,0.5,14.715213666666665,-81.02,-81.22
1733053277749259520,1733053277749041557,12,-0.05,0.87,0.5,14.834035666666665,-80.83,-82.11
1733053277849174826,1733053277848881721,12,-0.05,0.87,0.5,14.934096333333335,-81.12,-81.72
1733053277949655328,1733053277949283361,12,-0.05,0.87,0.5,15.065426333333335,-81.55,-83.02
1733053278048132757,1733053278047880411,12,-0.05,0.87,0.5,15.177995333333334,-81.44,-81.56
1733053278150046976,1733053278149778366,12,-0.05,0.87,0.5,15.328087000000002,-81.83,-82.03
1733053278250289034,1733053278250077962,12,-0.05,0.87,0.5,15.465671,-81.92,-81.91
1733053278350958283,1733053278350734949,12,-0.05,0.87,0.5,15.603254666666666,-82.15,-82.81
1733053278449598859,1733053278449397087,12,-0.05,0.87,0.5,15.722076999999999,-82.78,-83.41
1733053278551948876,1733053278551037788,12,-0.05,0.87,0.5,15.815884000000002,-82.77,-82.81
1733053278648317416,1733053278647901296,12,-0.05,0.87,0.5,15.928452333333333,-82.86,-84.14
1733053278748366321,1733053278747898817,12,-0.05,0.87,0.5,16.059782000000002,-84.24,-84.54
1733053278848137611,1733053278847888469,12,-0.05,0.87,0.5,16.197365333333334,-84.16,-84.09
1733053278948350140,1733053278947912454,12,-0.05,0.87,0.5,16.309933666666666,-83.71,-83.74
1733053279049417613,1733053279049140691,12,-0.05,0.87,0.5,16.416248666666668,-84.28,-85.85
1733053279155810626,1733053279155571699,12,-0.05,0.87,0.5,16.522563666666667,-84.38,-85.29
1733053279249791319,1733053279249470710,12,-0.05,0.87,0.5,16.64764,-84.45,-86.72
1733053279350109251,1733053279349897146,12,-0.05,0.87,0.5,16.785223333333334,-84.58,-86.47
1733053279449250588,1733053279449068784,12,-0.05,0.87,0.5,16.922807333333335,-84.96,-87.18
1733053279548443212,1733053279548005342,12,-0.05,0.87,0.5,17.041629333333333,-85.59,-85.58
1733053279651448192,1733053279651317358,12,-0.05,0.87,0.5,17.172959666666667,-85.28,-85.67
1733053279751819607,1733053279751644611,12,-0.05,0.87,0.5,17.279274,-86.11,-89.91
1733053279850387889,1733053279850250959,12,-0.05,0.87,0.5,17.416858,-85.51,-88.32
1733053279950386408,1733053279950151205,12,-0.05,0.87,0.5,17.529426666666666,-84.41,-85.8
1733053280050096695,1733053280049998521,12,-0.05,0.87,0.5,17.679518333333334,-85.43,-87.14
1733053280150656293,1733053280150423288,12,-0.05,0.87,0.5,17.798340666666668,-85.84,-86.39
1733053280250700383,1733053280250411272,12,-0.05,0.87,0.5,17.923416333333332,-85.92,-86.23
1733053280350159525,1733053280349893569,12,-0.05,0.87,0.5,18.042238333333334,-86.15,-86.87
1733053280450230490,1733053280449980258,12,-0.05,0.87,0.5,18.173568666666664,-86.82,-87.29
1733053280550503563,1733053280550284862,12,-0.05,0.87,0.5,18.298645,-86.68,-88.36
1733053280650125361,1733053280649959564,12,-0.05,0.87,0.5,18.436229333333333,-86.21,-88.87
1733053280750268299,1733053280749980688,12,-0.05,0.87,0.5,18.555051666666667,-85.93,-86.02
1733053280850110953,1733053280850019216,12,-0.05,0.87,0.5,18.692635666666664,-85.48,-85.81
1733053280950267321,1733053280950074672,12,-0.05,0.87,0.5,18.805204,-85.46,-85.56
1733053281050298427,1733053281050015449,12,-0.05,0.87,0.5,18.93028,-85.47,-86.19
1733053281150408892,1733053281150168418,12,-0.05,0.87,0.5,19.055356333333336,-85.04,-85.54
1733053281250383626,1733053281250103235,12,-0.05,0.87,0.5,19.180432666666665,-84.78,-84.63
1733053281350974730,1733053281350886344,12,-0.05,0.87,0.5,19.311762666666667,-84.99,-86.87
1733053281450686091,1733053281450493812,12,-0.05,0.87,0.5,19.399315666666666,-84.7,-84.84
1733053281550879008,1733053281550782442,12,-0.05,0.87,0.5,19.51188433333333,-84.41,-86.24
1733053281651028279,1733053281650836467,12,-0.05,0.87,0.5,19.636960666666667,-84.63,-85.74
1733053281750724922,1733053281750482797,12,-0.05,0.87,0.5,19.762037,-83.92,-84.61
1733053281850920409,1733053281850562334,12,-0.05,0.87,0.5,19.880859,-85.45,-86.94
1733053281950745033,1733053281950578212,12,-0.05,0.87,0.5,19.999681,-83.72,-85.51
1733053282050723981,1733053282050607442,12,-0.05,0.87,0.5,20.12475733333333,-83.96,-85.59
1733053282150845066,1733053282150602579,12,-0.05,0.87,0.5,20.25608733333333,-83.28,-85.54
1733053282250864217,1733053282250669240,12,-0.05,0.87,0.5,20.381163666666666,-84.17,-84.12
1733053282350718486,1733053282350606441,12,-0.05,0.87,0.5,20.518747,-83.3,-83.46
1733053282950976480,1733053282950756072,12,-0.05,0.87,0.5,21.300474333333334,-83.04,-82.86
1733053283050633472,1733053283050474405,12,-0.05,0.87,0.5,21.444311666666664,-82.94,-83.29
1733053283149897665,1733053283149590015,12,-0.05,0.87,0.5,21.569387333333335,-82.71,-82.4
1733053283249395551,1733053283249233007,12,-0.05,0.87,0.5,21.67570166666667,-82.53,-82.66
1733053283350122181,1733053283349985122,12,-0.05,0.87,0.5,21.788270333333333,-82.49,-82.65
1733053283448099072,1733053283447886943,12,-0.05,0.87,0.5,21.919601,-82.22,-82.22
1733053283548216672,1733053283547894239,12,-0.05,0.87,0.5,22.063438666666666,-82.81,-83.62
1733053283648115215,1733053283647885322,12,-0.05,0.87,0.5,22.207276333333336,-82.2,-82.21
1733053283748349990,1733053283747908115,12,-0.05,0.87,0.5,22.30108266666667,-82.37,-82.26
1733053283848164009,1733053283847881078,12,-0.05,0.87,0.5,22.426159,-82.0,-81.92
1733053283948108545,1733053283947896242,12,-0.05,0.87,0.5,22.557488666666668,-81.75,-81.68
1733053284050632585,1733053284050550460,12,-0.05,0.87,0.5,22.68881933333334,-82.33,-82.59
1733053284151143328,1733053284150723934,12,-0.05,0.87,0.5,22.801388,-83.26,-83.03
1733053284250849865,1733053284250570058,12,-0.05,0.87,0.5,22.895195333333334,-81.89,-82.04
1733053284350772063,1733053284350575923,12,-0.05,0.87,0.5,23.039033,-82.97,-83.41
1733053284948970773,1733053284948806285,12,-0.05,0.87,0.5,23.75822066666667,-82.27,-82.54
1733053285049284649,1733053285049043893,12,-0.05,0.87,0.5,23.908312,-81.45,-81.72
1733053285149438818,1733053285149152517,12,-0.05,0.87,0.5,24.027134,-81.63,-81.97
1733053285248131711,1733053285247909784,12,-0.05,0.87,0.5,24.139702666666665,-81.77,-82.01
1733053285348254278,1733053285347877740,12,-0.05,0.87,0.5,24.25227133333333,-81.85,-81.76
1733053285450456419,1733053285450257301,12,-0.05,0.87,0.5,24.358586333333335,-83.02,-83.14
1733053285550539125,1733053285550184011,12,-0.05,0.87,0.5,24.489916333333337,-81.89,-83.94
1733053285649785612,1733053285649369001,12,-0.05,0.87,0.5,24.60248466666667,-81.71,-81.78
1733053285748325231,1733053285747891664,12,-0.05,0.87,0.5,24.75257566666667,-82.9,-84.6
1733053285848308344,1733053285847902536,12,-0.05,0.87,0.5,24.890159666666666,-82.08,-81.82
1733053285948311215,1733053285947921991,12,-0.05,0.87,0.5,25.021489666666668,-81.58,-81.96
1733053286048058666,1733053286047896385,12,-0.05,0.87,0.5,25.15281966666667,-81.64,-83.01
1733053286148187040,1733053286147896289,12,-0.05,0.87,0.5,25.296657333333332,-81.22,-81.57
1733053286248343000,1733053286247901201,12,-0.05,0.87,0.5,25.42173366666667,-81.76,-81.95
1733053286348237304,1733053286347887277,12,-0.05,0.87,0.5,25.528048666666667,-81.84,-81.87
1733053286448227931,1733053286447871923,12,-0.05,0.87,0.5,25.64687066666666,-81.5,-83.05
1733053286548328724,1733053286547890424,12,-0.05,0.87,0.5,25.76569333333333,-81.57,-82.22
1733053286648395958,1733053286647882699,12,-0.05,0.87,0.5,25.890769666666667,-81.55,-81.7
1733053286748293425,1733053286747891187,12,-0.05,0.87,0.5,26.003338333333332,-81.95,-81.97
1733053286848225743,1733053286847879409,12,-0.05,0.87,0.5,26.159683,-81.35,-81.43
1733053286948758836,1733053286947984218,12,-0.05,0.87,0.5,26.303520666666667,-81.66,-81.57
1733053287048659188,1733053287048017978,12,-0.05,0.87,0.5,26.516150666666665,-81.22,-81.68
1733053287148337839,1733053287147923946,12,-0.05,0.87,0.5,26.622465333333334,-81.28,-83.16
1733053287248351743,1733053287247900724,12,-0.05,0.87,0.5,26.760048666666666,-81.86,-82.01
1733053287348205226,1733053287347900390,12,-0.05,0.87,0.5,26.872617,-81.72,-81.63
1733053287448189395,1733053287447885513,12,-0.05,0.87,0.5,26.991439333333336,-81.42,-81.39
1733053287548385362,1733053287547925949,12,-0.05,0.87,0.5,27.085246666666666,-81.27,-81.19
1733053287648312439,1733053287647898674,12,-0.05,0.87,0.5,27.197815333333335,-81.57,-81.38
1733053287748228127,1733053287747898340,12,-0.05,0.87,0.5,27.322891666666663,-81.24,-81.91
1733053287848235692,1733053287847880363,12,-0.05,0.87,0.5,27.441714333333334,-81.81,-81.74
1733053287948435726,1733053287947885513,12,-0.05,0.87,0.5,27.57929833333333,-81.92,-81.93
1733053288048468507,1733053288047949314,12,-0.05,0.87,0.5,27.679359,-81.16,-81.32
1733053288148191909,1733053288147883892,12,-0.05,0.87,0.5,27.810688666666668,-81.84,-83.62
1733053288248269946,1733053288247905254,12,-0.05,0.87,0.5,27.923257333333336,-81.37,-81.66
1733053288348181000,1733053288347895622,12,-0.05,0.87,0.5,28.04208,-81.37,-81.99
1733053288448465689,1733053288447890520,12,-0.05,0.87,0.5,28.123379666666665,-81.8,-82.09
1733053288549384996,1733053288549108505,12,-0.05,0.87,0.5,28.210932666666665,-81.22,-81.22
1733053288649199249,1733053288649098157,12,-0.05,0.87,0.5,28.304739333333334,-81.35,-81.45
1733053288750047210,1733053288749188661,12,-0.05,0.87,0.5,28.373531000000003,-82.61,-82.48
1733053288849183207,1733053288849003076,12,-0.05,0.87,0.5,28.373531,-81.36,-81.69
1733053288949400737,1733053288949129581,12,-0.05,0.87,0.5,28.35476966666667,-82.65,-82.32
1733053289049315935,1733053289049120664,12,-0.05,0.87,0.5,28.336008333333336,-81.67,-81.47
1733053289148224742,1733053289147925853,12,-0.05,0.87,0.5,28.348516,-81.84,-82.08
1733053289248281033,1733053289247899055,12,-0.05,0.87,0.5,28.367277333333334,-82.19,-83.31
1733053289348247173,1733053289347895383,12,-0.05,0.87,0.5,28.40480066666667,-81.69,-81.78
1733053289448304921,1733053289447920799,12,-0.05,0.87,0.5,28.467338666666667,-81.88,-81.84
1733053289548198236,1733053289547890901,12,-0.05,0.87,0.5,28.511115333333333,-80.97,-81.01
1733053289648375394,1733053289647932052,12,-0.05,0.87,0.5,28.554891333333334,-80.93,-81.07
1733053289748234040,1733053289747899055,12,-0.05,0.87,0.5,28.586160666666668,-81.75,-81.62
1733053289848217607,1733053289847907066,12,-0.05,0.87,0.5,28.636191333333333,-82.35,-83.27
1733053289948263279,1733053289947895765,12,-0.05,0.87,0.5,28.642445666666664,-82.66,-82.42
1733053290150432624,1733053290150233268,12,-0.05,0.87,0.5,28.661207,-83.39,-85.8
1733053290250170961,1733053290249936580,12,-0.05,0.87,0.5,28.667461,-83.18,-83.52
1733053290349366720,1733053290348959207,12,-0.05,0.87,0.5,28.704983666666664,-83.36,-85.56
1733053290449735091,1733053290449474096,12,-0.05,0.87,0.5,28.704983666666667,-83.39,-83.29
1733053290549123139,1733053290549035549,12,-0.05,0.87,0.5,28.69872966666667,-83.22,-84.56
1733053290649564288,1733053290649236917,12,-0.05,0.87,0.5,28.679968333333335,-84.05,-84.34
1733053290750368803,1733053290750061988,12,-0.05,0.87,0.5,20.562524333333332,-84.3,-84.16
1733053290850933363,1733053290850325822,12,-0.05,0.87,0.5,20.556270666666666,-83.52,-83.41
1733053290949634731,1733053290949305057,12,-0.05,0.87,0.5,20.550016333333332,-83.46,-84.84
1733053291050392473,1733053291050134181,12,-0.05,0.87,0.5,28.65495233333333,-83.81,-85.7
1733053291150428855,1733053291150169372,12,-0.05,0.87,0.5,28.642444666666666,-83.63,-83.6
1733053291250822054,1733053291250643491,12,-0.05,0.87,0.5,28.636191333333333,-85.98,-85.76
1733053291350786413,1733053291350578784,12,-0.05,0.87,0.5,28.636191333333333,-84.0,-85.92
1733053291450400476,1733053291450236320,12,-0.05,0.87,0.5,28.61743,-83.16,-84.35
1733053291549752350,1733053291549615383,12,-0.05,0.87,0.5,28.56739933333333,-83.44,-83.83
1733053291650151197,1733053291650053977,12,-0.05,0.87,0.5,28.517369000000002,-84.41,-86.57
1733053291750287344,1733053291750039577,12,-0.05,0.87,0.5,28.486099666666664,-82.62,-82.99
1733053291850253004,1733053291850019693,12,-0.05,0.87,0.5,28.473592,-82.56,-85.53
1733053291950640582,1733053291950397014,12,-0.05,0.87,0.5,28.423561666666668,-82.39,-82.87
1733053292050276410,1733053292050062656,12,-0.05,0.87,0.5,28.367277333333334,-82.82,-83.92
1733053292150572067,1733053292150305509,12,-0.05,0.87,0.5,28.310993333333332,-82.77,-83.3
1733053292250466088,1733053292250240325,12,-0.05,0.87,0.5,28.27972433333333,-82.61,-82.93
1733053292350077344,1733053292349885225,12,-0.05,0.87,0.5,28.217186666666667,-82.87,-83.25
1733053292450020602,1733053292449855089,12,-0.05,0.87,0.5,28.160902333333336,-82.53,-83.6
1733053292550355891,1733053292550120353,12,-0.05,0.87,0.5,28.110872,-82.47,-82.54
1733053292649959760,1733053292649873971,12,-0.05,0.87,0.5,28.08585666666667,-82.58,-84.27
1733053292750013971,1733053292749826669,12,-0.05,0.87,0.5,28.048334,-82.48,-83.74
1733053292850123991,1733053292849955081,12,-0.05,0.87,0.5,28.004557000000002,-82.52,-82.59
1733053292950177114,1733053292949905872,12,-0.05,0.87,0.5,27.942018666666666,-83.49,-85.47
1733053293049967029,1733053293049815654,12,-0.05,0.87,0.5,27.879480333333333,-82.36,-82.49
1733053293149983505,1733053293149854183,12,-0.05,0.87,0.5,27.798181,-82.49,-84.71
1733053293280411045,1733053293280223846,12,-0.05,0.87,0.5,27.729389333333334,-82.62,-85.53
1733053293350359027,1733053293350105524,12,-0.05,0.87,0.5,27.679359,-82.9,-83.37
1733053293450186236,1733053293449834346,12,-0.05,0.87,0.5,27.623075,-82.44,-84.53
1733053293550650742,1733053293549969434,12,-0.05,0.87,0.5,27.541775666666666,-82.66,-83.1
1733053293649566369,1733053293649270296,12,-0.05,0.87,0.5,27.447968333333336,-83.36,-83.76
1733053293749147089,1733053293748945951,12,-0.05,0.87,0.5,27.38543,-82.61,-82.71
1733053293848218810,1733053293847866773,12,-0.05,0.87,0.5,27.335399666666664,-82.45,-83.61
1733053293949212575,1733053293949013710,12,-0.05,0.87,0.5,27.272861666666667,-82.71,-83.49
1733053294049611009,1733053294049251079,12,-0.05,0.87,0.5,27.20407,-82.94,-82.93
1733053294149414357,1733053294149007320,12,-0.05,0.87,0.5,27.116516333333333,-84.47,-85.28
1733053294249461154,1733053294249117612,12,-0.05,0.87,0.5,27.02896266666667,-82.45,-82.63
1733053294348616599,1733053294347897768,12,-0.05,0.87,0.5,26.941409000000004,-82.77,-82.73
1733053294448210291,1733053294447902202,12,-0.05,0.87,0.5,26.872617,-83.13,-83.76
1733053294548407043,1733053294547883510,12,-0.05,0.87,0.5,26.810079333333334,-82.84,-83.0
1733053294648313185,1733053294647923231,12,-0.05,0.87,0.5,26.72878,-82.44,-82.78
1733053294748244259,1733053294747931241,12,-0.05,0.87,0.5,26.653734333333333,-82.48,-82.87
1733053294848483136,1733053294847918033,12,-0.05,0.87,0.5,26.566180666666668,-82.45,-84.45
1733053294948365141,1733053294947898387,12,-0.05,0.87,0.5,26.453612000000003,-83.15,-83.6
1733053295048365065,1733053295047912120,12,-0.05,0.87,0.5,26.372312333333337,-83.01,-83.37
1733053295148349494,1733053295147904872,12,-0.05,0.87,0.5,26.29726666666667,-82.81,-83.76
1733053295248404536,1733053295247883558,12,-0.05,0.87,0.5,26.23472866666667,-83.18,-83.53
1733053295348094751,1733053295347924709,12,-0.05,0.87,0.5,26.159683,-83.07,-83.92
1733053295448385627,1733053295447874784,12,-0.05,0.87,0.5,26.07213,-82.99,-84.8
1733053295548361889,1733053295547937631,12,-0.05,0.87,0.5,25.984577,-82.94,-83.06
1733053295648145617,1733053295647957324,12,-0.05,0.87,0.5,25.890769666666667,-82.47,-82.85
1733053295748150721,1733053295747959852,12,-0.05,0.87,0.5,25.734424,-82.75,-85.17
1733053295848297321,1733053295847900390,12,-0.05,0.87,0.5,25.646871,-82.71,-83.04
1733053295948481509,1733053295947879076,12,-0.05,0.87,0.5,25.553063999999996,-82.77,-84.83
1733053296048517240,1733053296047955513,12,-0.05,0.87,0.5,25.45300333333333,-83.24,-83.66
1733053296448355862,1733053296447919130,12,-0.05,0.87,0.5,25.077774,-82.73,-83.75
1733053296549907842,1733053296549551248,12,-0.05,0.87,0.5,24.965205333333333,-82.94,-83.69
1733053296650213664,1733053296649952411,12,-0.05,0.87,0.5,24.86514466666667,-83.03,-85.01
1733053296748287923,1733053296747892379,12,-0.05,0.87,0.5,24.752576333333334,-82.34,-82.48
1733053296848153857,1733053296847885131,12,-0.05,0.87,0.5,24.677530666666666,-82.36,-82.61
1733053296948157229,1733053296947885751,12,-0.05,0.87,0.5,24.621246666666668,-81.82,-81.82
1733053297050846538,1733053297050659656,12,-0.05,0.87,0.5,24.527439333333337,-82.56,-84.58
1733053297152198362,1733053297151978492,12,-0.05,0.87,0.5,24.433632,-82.19,-82.38
1733053297250891602,1733053297250719547,12,-0.05,0.87,0.5,24.302301666666665,-82.42,-84.93
1733053297349366645,1733053297349174976,12,-0.05,0.87,0.5,24.214748,-82.35,-82.84
1733053297448457465,1733053297447954416,12,-0.05,0.87,0.5,24.08967233333333,-84.01,-84.64
1733053297548252392,1733053297547878026,12,-0.05,0.87,0.5,23.989611333333333,-82.16,-82.6
1733053297648303075,1733053297647885799,12,-0.05,0.87,0.5,23.858281333333334,-83.73,-85.93
1733053297748379883,1733053297747897148,12,-0.05,0.87,0.5,23.764473999999996,-82.14,-83.34
1733053297851015882,1733053297850798606,12,-0.05,0.87,0.5,23.633144333333334,-83.36,-84.73
1733053297950887291,1733053297950624704,12,-0.05,0.87,0.5,23.551845,-82.29,-82.42
1733053298050995961,1733053298050712108,12,-0.05,0.87,0.5,23.458038,-83.27,-85.39
1733053298152194685,1733053298151352643,12,-0.05,0.87,0.5,23.370484333333334,-82.63,-84.85
1733053298250798442,1733053298250677824,12,-0.05,0.87,0.5,23.239154333333335,-82.36,-83.12
1733053298350807599,1733053298350612401,12,-0.05,0.87,0.5,23.114077999999996,-82.13,-81.96
1733053298450798935,1733053298450637578,12,-0.05,0.87,0.5,23.007763666666666,-81.83,-82.06
1733053298550943933,1733053298550751209,12,-0.05,0.87,0.5,22.92021,-81.85,-83.12
1733053298651078457,1733053298650727510,12,-0.05,0.87,0.5,22.79513366666667,-82.18,-82.64
1733053298751346742,1733053298751115560,12,-0.05,0.87,0.5,22.670057333333336,-81.79,-83.92
1733053298851580431,1733053298851295948,12,-0.05,0.87,0.5,22.544980999999996,-82.07,-83.19
1733053298951096899,1733053298950886487,12,-0.05,0.87,0.5,22.457428000000004,-81.64,-82.35
1733053299051151267,1733053299050951004,12,-0.05,0.87,0.5,22.344859333333332,-82.25,-83.13
1733053299150917026,1733053299150672435,12,-0.05,0.87,0.5,22.21352966666667,-82.32,-83.0
1733053299250133985,1733053299250015258,12,-0.05,0.87,0.5,22.075945666666666,-82.81,-83.84
1733053299350070799,1733053299349838018,12,-0.05,0.87,0.5,21.975885,-82.65,-85.14
1733053299451186143,1733053299451052427,12,-0.05,0.87,0.5,21.882077666666664,-82.22,-83.31
1733053299551379784,1733053299551212310,12,-0.05,0.87,0.5,21.757001333333335,-82.1,-82.95
1733053299650979120,1733053299650727510,12,-0.05,0.87,0.5,21.656940000000002,-83.43,-85.33
1733053299751895182,1733053299751727342,12,-0.05,0.87,0.5,21.55687933333333,-81.64,-82.34
1733053299851323192,1733053299851223707,12,-0.05,0.87,0.5,21.48808766666666,-81.63,-82.66
1733053299952255057,1733053299952037811,12,-0.05,0.87,0.5,21.394281000000003,-81.8,-83.77
1733053300051914128,1733053300050979852,12,-0.05,0.87,0.5,21.300473666666665,-82.08,-82.96
1733053300151168880,1733053300150871276,12,-0.05,0.87,0.5,21.181651333333335,-82.65,-84.91
1733053300250874890,1733053300250620365,12,-0.05,0.87,0.5,21.062828666666665,-82.5,-84.09
1733053300351288196,1733053300351080417,12,-0.05,0.87,0.5,20.944006666666667,-82.38,-85.04
1733053300451201190,1733053300450943946,12,-0.05,0.87,0.5,20.875214333333332,-82.26,-83.7
1733053300551809304,1733053300551681041,12,-0.05,0.87,0.5,20.762645666666668,-83.09,-83.9
1733053300650644629,1733053300650578022,12,-0.05,0.87,0.5,20.66258433333333,-82.14,-83.51
1733053300751803500,1733053300751328945,12,-0.05,0.87,0.5,20.537508666666668,-82.07,-84.38
1733053300851625889,1733053300851408481,12,-0.05,0.87,0.5,20.443701666666666,-82.63,-83.87
1733053300951037473,1733053300950874328,12,-0.05,0.87,0.5,20.32487933333333,-82.88,-86.13
1733053301050996403,1733053301050846815,12,-0.05,0.87,0.5,20.21231033333333,-81.92,-84.65
1733053301151444423,1733053301151178598,12,-0.05,0.87,0.5,20.105996,-82.19,-85.43
1733053301250594156,1733053301250454187,12,-0.05,0.87,0.5,19.993427666666665,-82.7,-84.47
1733053301350249860,1733053301349978446,12,-0.05,0.87,0.5,19.862097666666667,-83.03,-85.96
1733053301449444476,1733053301449090480,12,-0.05,0.87,0.5,19.755782666666665,-82.77,-84.58
1733053301549406896,1733053301549154758,12,-0.05,0.87,0.5,19.636960666666667,-83.15,-87.17
1733053301650310968,1733053301650027275,12,-0.05,0.87,0.5,19.549407666666667,-82.7,-84.9
1733053301848383952,1733053301847914934,12,-0.05,0.87,0.5,19.386808666666667,-82.86,-85.55
1733053301948079820,1733053301947914123,12,-0.05,0.87,0.5,19.230463,-84.0,-85.65
1733053302048296784,1733053302047880649,12,-0.05,0.87,0.5,19.074117666666666,-83.45,-85.25
1733053302148291436,1733053302147905588,12,-0.05,0.87,0.5,18.949041333333337,-84.08,-86.55
1733053302248310692,1733053302247902154,12,-0.05,0.87,0.5,18.836472999999998,-85.02,-86.61
1733053302348175347,1733053302347884178,12,-0.05,0.87,0.5,18.686382,-84.69,-86.89
1733053302450676000,1733053302450480222,12,-0.05,0.87,0.5,18.523782999999998,-85.4,-87.96
1733053302548248764,1733053302547884225,12,-0.05,0.87,0.5,18.373691,-86.73,-90.58
1733053302648235498,1733053302647900819,12,-0.05,0.87,0.5,18.211091333333332,-87.16,-91.0
1733053302748232296,1733053302747912883,12,-0.05,0.87,0.5,18.086015,-86.83,-92.82
1733053302849670411,1733053302849351406,12,-0.05,0.87,0.5,17.960939333333332,-89.04,-93.13
1733053302980060903,1733053302979788780,12,-0.05,0.87,0.5,17.867132666666667,-86.42,-90.83
1733053303050053887,1733053303049947738,12,-0.05,0.87,0.5,17.779579,-87.01,-90.13
1733053303150204191,1733053303150071620,12,-0.05,0.87,0.5,17.698279,-88.24,-92.89
1733053303249243446,1733053303248986482,12,-0.05,0.87,0.5,17.585710666666667,-88.7,-90.88
1733053303348203646,1733053303347880125,12,-0.05,0.87,0.5,17.460635,-88.23,-89.25
1733053303448189388,1733053303447874069,12,-0.05,0.87,0.5,17.335559333333336,-87.31,-89.57
1733053303548202033,1733053303547908306,12,-0.05,0.87,0.5,17.229244333333334,-88.76,-89.83
1733053303651006509,1733053303650868654,12,-0.05,0.87,0.5,17.122929333333335,-87.75,-89.58
1733053303751083446,1733053303750886917,12,-0.05,0.87,0.5,16.985345333333335,-86.08,-89.1
1733053303851322518,1733053303851177930,12,-0.05,0.87,0.5,16.879030333333333,-85.62,-90.31
1733053303950847185,1733053303950603485,12,-0.05,0.87,0.5,16.785223333333334,-85.03,-89.26
1733053304050665997,1733053304050488471,12,-0.05,0.87,0.5,16.703923999999997,-84.8,-87.36
1733053304150861533,1733053304150643825,12,-0.05,0.87,0.5,16.616371,-84.37,-85.45
1733053304251022535,1733053304250751972,12,-0.05,0.87,0.5,16.497548666666667,-84.68,-86.02
1733053304351082152,1733053304350893735,12,-0.05,0.87,0.5,16.42875666666667,-84.74,-86.59
1733053304748278334,1733053304747895717,12,-0.05,0.87,0.5,16.053528,-86.14,-86.99
1733053304848332430,1733053304847927808,12,-0.05,0.87,0.5,15.978483000000002,-86.06,-87.21
1733053305049506231,1733053305049238204,12,-0.05,0.87,0.5,15.884675666666666,-84.34,-87.41
1733053305149075386,1733053305148922204,12,-0.05,0.87,0.5,15.803376,-83.52,-85.95
1733053305249574220,1733053305249340772,12,-0.05,0.87,0.5,15.697061333333332,-84.28,-86.33
1733053305349792484,1733053305349282741,12,-0.05,0.87,0.5,15.640777,-83.75,-84.33
1733053305448471111,1733053305447950601,12,-0.05,0.87,0.5,15.565731333333332,-84.24,-85.38
1733053305551466738,1733053305551223039,12,-0.05,0.87,0.5,15.459416666666668,-84.69,-86.22
1733053305650183746,1733053305649872064,12,-0.05,0.87,0.5,15.384371333333334,-83.78,-84.22
1733053305849990020,1733053305849792718,12,-0.05,0.87,0.5,15.309325666666666,-82.62,-84.01
1733053305950189930,1733053305950102090,12,-0.05,0.87,0.5,15.271802666666666,-83.38,-83.24
1733053306050185144,1733053306049945831,12,-0.05,0.87,0.5,15.196757,-84.77,-85.08
1733053306150065606,1733053306149906873,12,-0.05,0.87,0.5,15.127965333333334,-84.73,-86.67
1733053306250275093,1733053306250071525,12,-0.05,0.87,0.5,15.084188333333335,-84.43,-85.19
1733053306351609087,1733053306350838422,12,-0.05,0.87,0.5,15.059172666666667,-82.94,-83.48
1733053306448162905,1733053306447894096,12,-0.05,0.87,0.5,15.052918666666665,-84.63,-84.93
1733053306548157459,1733053306547869205,12,-0.05,0.87,0.5,15.034157333333335,-84.08,-83.68
1733053306648266619,1733053306647891044,12,-0.05,0.87,0.5,14.990381,-83.67,-83.27
1733053306748384614,1733053306747925519,12,-0.05,0.87,0.5,14.965365666666665,-83.08,-84.65
1733053306848497963,1733053306847945451,12,-0.05,0.87,0.5,14.909081666666665,-83.95,-85.47
1733053306948445085,1733053306947941303,12,-0.05,0.87,0.5,14.896574000000001,-82.6,-82.32
1733053307048445126,1733053307047901868,12,-0.05,0.87,0.5,14.865305,-82.6,-82.89
1733053307148314342,1733053307147870779,12,-0.05,0.87,0.5,14.877812666666665,-82.84,-82.63
1733053307248452080,1733053307247898340,12,-0.05,0.87,0.5,14.840289666666669,-84.85,-86.21
1733053307348831089,1733053307347960948,12,-0.05,0.87,0.5,14.821528,-85.43,-85.83
1733053307448323266,1733053307447898864,12,-0.05,0.87,0.5,14.790259,-85.46,-85.77
1733053307548377521,1733053307547916173,12,-0.05,0.87,0.5,14.777751666666667,-84.42,-85.65
1733053307648195816,1733053307647882699,12,-0.05,0.87,0.5,14.733975000000001,-83.87,-85.62
1733053307748192071,1733053307747883319,12,-0.05,0.87,0.5,14.740228666666667,-84.21,-84.09
1733053307848361107,1733053307847935199,12,-0.05,0.87,0.5,14.721467000000002,-84.62,-84.59
1733053307948307635,1733053307947888135,12,-0.05,0.87,0.5,14.740228333333334,-84.57,-86.39
1733053308048551227,1733053308047944545,12,-0.05,0.87,0.5,14.740228333333334,-84.67,-84.75
1733053308148253017,1733053308147819042,12,-0.05,0.87,0.5,14.746482,-84.79,-86.53
1733053308248227160,1733053308247883796,12,-0.05,0.87,0.5,14.740228333333334,-83.39,-84.42
1733053308348461023,1733053308347880125,12,-0.05,0.87,0.5,14.740228333333334,-83.88,-83.46
1733053308448256814,1733053308447874307,12,-0.05,0.87,0.5,14.708959333333334,-85.34,-85.09
1733053308548771549,1733053308547913312,12,-0.05,0.87,0.5,14.708959333333334,-84.25,-87.13
1733053308648024329,1733053308647884130,12,-0.05,0.87,0.5,14.683944333333335,-83.73,-86.03
1733053308748197475,1733053308747889757,12,-0.05,0.87,0.5,14.696452,-82.62,-82.85
1733053308848080930,1733053308847888469,12,-0.05,0.87,0.5,14.646421666666667,-82.26,-83.9
1733053308948100442,1733053308947895288,12,-0.05,0.87,0.5,14.608898666666667,-81.72,-82.01
1733053309048161323,1733053309047899723,12,-0.05,0.87,0.5,14.565122,-81.15,-81.48
1733053309148296232,1733053309147928714,12,-0.05,0.87,0.5,14.533852666666666,-81.72,-82.27
1733053309248384224,1733053309247936487,12,-0.05,0.87,0.5,14.515091333333332,-81.52,-81.28
1733053309348267579,1733053309347949504,12,-0.05,0.87,0.5,14.515091333333336,-81.65,-82.43
1733053309448150793,1733053309447916030,12,-0.05,0.87,0.5,14.540106666666668,-81.29,-81.4
1733053309548168886,1733053309547907590,12,-0.05,0.87,0.5,14.552614,-82.1,-82.56
1733053309648268218,1733053309647948741,12,-0.05,0.87,0.5,14.552614,-81.6,-82.59
1733053309848128597,1733053309847914218,12,-0.05,0.87,0.5,14.533852666666666,-81.78,-81.56
1733053309948161997,1733053309947896718,12,-0.05,0.87,0.5,14.49633,-82.02,-81.85
1733053310049137579,1733053310049026250,12,-0.05,0.87,0.5,14.446299666666667,-82.17,-81.83
1733053310148246150,1733053310147897005,12,-0.05,0.87,0.5,14.390015333333332,-82.81,-82.85
1733053310248267486,1733053310247943162,12,-0.05,0.87,0.5,14.346238666666666,-82.33,-82.67
1733053310348132618,1733053310347907066,12,-0.05,0.87,0.5,14.283700333333334,-82.56,-82.71
1733053310448146019,1733053310447895050,12,-0.05,0.87,0.5,14.227416,-82.33,-82.82
1733053310550164206,1733053310550001144,12,-0.05,0.87,0.5,14.177385666666666,-82.55,-84.77
1733053310649573282,1733053310649381160,12,-0.05,0.87,0.5,14.152370666666664,-83.07,-85.2
1733053310749491958,1733053310749192476,12,-0.05,0.87,0.5,14.102340333333332,-82.66,-82.67
1733053310850352565,1733053310849959373,12,-0.05,0.87,0.5,14.05231,-82.6,-82.81
1733053310950160311,1733053310949817657,12,-0.05,0.87,0.5,13.977264333333332,-82.82,-82.8
1733053311050082505,1733053311049933910,12,-0.05,0.87,0.5,13.939741333333332,-82.32,-82.58
1733053311150320976,1733053311150078296,12,-0.05,0.87,0.5,13.864695333333332,-82.81,-83.64
1733053311249959669,1733053311249798059,12,-0.05,0.87,0.5,13.795903333333333,-82.55,-82.81
1733053311350191682,1733053311350003004,12,-0.05,0.87,0.5,13.708350000000001,-82.28,-83.81
1733053311450022030,1733053311449769735,12,-0.05,0.87,0.5,13.633304333333333,-81.75,-82.28
1733053311550163461,1733053311549937009,12,-0.05,0.87,0.5,13.545750999999997,-82.13,-82.56
1733053311650348254,1733053311650130748,12,-0.05,0.87,0.5,13.464451666666667,-82.18,-84.0
1733053311750291164,1733053311750081539,12,-0.05,0.87,0.5,13.389406,-81.59,-81.41
1733053311851302200,1733053311851034879,12,-0.05,0.87,0.5,13.289345333333332,-81.63,-81.46
1733053311948316151,1733053311947926521,12,-0.05,0.87,0.5,13.183030333333335,-81.98,-81.69
1733053312048244855,1733053312047940492,12,-0.05,0.87,0.5,13.089223333333331,-80.6,-80.95
1733053312148299273,1733053312147899389,12,-0.05,0.87,0.5,13.001669999999999,-81.12,-81.15
1733053312248379186,1733053312247953653,12,-0.05,0.87,0.5,12.920370666666665,-80.15,-80.67
1733053312348233313,1733053312347929716,12,-0.05,0.87,0.5,12.820309333333332,-80.5,-81.43
1733053312448305872,1733053312447915315,12,-0.05,0.87,0.5,12.726502000000002,-80.65,-81.04
1733053312548329637,1733053312547935962,12,-0.05,0.87,0.5,12.620187333333334,-80.79,-81.28
1733053312651328291,1733053312651106834,12,-0.05,0.87,0.5,12.513872666666666,-80.27,-81.18
1733053312750098885,1733053312749980688,12,-0.05,0.87,0.5,12.432573,-80.18,-81.08
1733053312850689558,1733053312850181818,12,-0.05,0.87,0.5,12.345019666666666,-80.04,-80.73
1733053312950352771,1733053312950160980,12,-0.05,0.87,0.5,12.257466333333333,-79.87,-80.57
1733053313050102469,1733053313049973726,12,-0.05,0.87,0.5,12.144898,-80.12,-80.96
1733053313149488434,1733053313149031639,12,-0.05,0.87,0.5,12.051090666666667,-80.17,-81.17
1733053313249761929,1733053313249264955,12,-0.05,0.87,0.5,11.938522333333333,-80.07,-80.99
1733053313379265666,1733053313378950357,12,-0.05,0.87,0.5,11.838461333333333,-79.9,-80.64
1733053313449479724,1733053313449043273,12,-0.05,0.87,0.5,11.700877666666665,-79.76,-80.52
1733053313549432288,1733053313549011230,12,-0.05,0.87,0.5,11.594563,-80.24,-81.25
1733053313650010062,1733053313649551391,12,-0.05,0.87,0.5,11.469486666666668,-79.99,-80.99
1733053313749277885,1733053313748978137,12,-0.05,0.87,0.5,11.381933333333334,-80.05,-81.07
1733053313849465634,1733053313849260330,12,-0.05,0.87,0.5,11.275618333333332,-79.92,-80.96
1733053313949317002,1733053313949039220,12,-0.05,0.87,0.5,11.175557333333332,-79.61,-80.6
1733053314050126557,1733053314049993753,12,-0.05,0.87,0.5,11.075496333333334,-79.6,-80.6
1733053314150213772,1733053314149995565,12,-0.05,0.87,0.5,10.975435666666664,-79.75,-80.83
1733053314249503718,1733053314249269008,12,-0.05,0.87,0.5,10.881628666666666,-79.67,-81.14
1733053314349246582,1733053314349081039,12,-0.05,0.87,0.5,10.762806333333332,-79.3,-80.51
1733053314449737175,1733053314449478626,12,-0.05,0.87,0.5,10.650237666666667,-79.54,-80.72
1733053314549361573,1733053314549114227,12,-0.05,0.87,0.5,10.537669,-79.67,-80.67
1733053314649571740,1733053314649269104,12,-0.05,0.87,0.5,10.437607999999999,-79.82,-80.74
1733053314749579536,1733053314749284982,12,-0.05,0.87,0.5,10.325039333333335,-80.16,-80.88
1733053314849255574,1733053314849074840,12,-0.05,0.87,0.5,10.218724666666668,-80.47,-80.94
1733053314948279513,1733053314947873592,12,-0.05,0.87,0.5,10.093648666666667,-80.14,-80.94
1733053315049303046,1733053315049227476,12,-0.05,0.87,0.5,9.849750333333334,-80.71,-81.36
1733053315149273145,1733053315148896217,12,-0.05,0.87,0.5,9.743435333333332,-80.25,-81.26
1733053315249440658,1733053315249241113,12,-0.05,0.87,0.5,9.649628,-80.33,-80.96
1733053315350281543,1733053315350129365,12,-0.05,0.87,0.5,9.568328333333332,-80.68,-81.14
1733053315848312807,1733053315847904682,12,-0.05,0.87,0.5,8.992977999999999,-80.25,-80.7
1733053315951119784,1733053315950980424,12,-0.05,0.87,0.5,8.817871333333335,-80.75,-81.67
1733053316050851174,1733053316050668239,12,-0.05,0.87,0.5,8.711556666666667,-79.95,-80.89
1733053316150392432,1733053316150205612,12,-0.05,0.87,0.5,8.586480666666667,-80.33,-80.89
1733053316250205633,1733053316249946594,12,-0.05,0.87,0.5,8.473912333333333,-79.93,-81.46
1733053316351035833,1733053316350814819,12,-0.05,0.87,0.5,8.342582666666667,-80.49,-81.23
1733053316448274354,1733053316447957992,12,-0.05,0.87,0.5,8.211252333333334,-79.84,-81.4
1733053316548429819,1733053316547929763,12,-0.05,0.87,0.5,8.123698666666668,-79.42,-80.97
1733053316648255454,1733053316647902965,12,-0.05,0.87,0.5,8.011129666666667,-79.52,-81.1
1733053316748221137,1733053316748011112,12,-0.05,0.87,0.5,7.898561,-79.65,-80.99
1733053316848400901,1733053316847932815,12,-0.05,0.87,0.5,7.773485,-79.6,-81.38
1733053316948196296,1733053316947885990,12,-0.05,0.87,0.5,7.642155,-79.55,-81.19
1733053317048190474,1733053317047934055,12,-0.05,0.87,0.5,7.504571333333334,-79.44,-80.74
1733053317148233826,1733053317147902727,12,-0.05,0.87,0.5,7.379495000000001,-79.42,-80.6
1733053317248190868,1733053317247920036,12,-0.05,0.87,0.5,7.266926333333333,-79.52,-80.73
1733053317348121085,1733053317347893953,12,-0.05,0.87,0.5,7.173119,-79.71,-80.93
1733053317448186078,1733053317447890758,12,-0.05,0.87,0.5,7.066804333333333,-79.36,-81.03
1733053317548155593,1733053317547910451,12,-0.05,0.87,0.5,6.935474333333333,-80.07,-81.19
1733053317648131204,1733053317647907733,12,-0.05,0.87,0.5,6.7978906666666665,-80.17,-80.73
1733053317748323139,1733053317747933149,12,-0.05,0.87,0.5,6.672814333333334,-80.02,-81.25
1733053317848275286,1733053317847934961,12,-0.05,0.87,0.5,6.553992,-81.94,-83.74
1733053317948280078,1733053317947925567,12,-0.05,0.87,0.5,6.428915666666666,-81.88,-82.87
1733053318048003859,1733053318047885894,12,-0.05,0.87,0.5,6.291332,-82.2,-86.08
1733053318148182945,1733053318147899150,12,-0.05,0.87,0.5,6.160002000000001,-83.32,-85.6
1733053318248380742,1733053318247896671,12,-0.05,0.87,0.5,6.0661950000000004,-80.55,-81.28
1733053318348224567,1733053318347879886,12,-0.05,0.87,0.5,5.953626333333332,-80.19,-81.18
1733053318448073902,1733053318447854995,12,-0.05,0.87,0.5,5.859819333333333,-80.06,-80.92
1733053318548282145,1733053318547900199,12,-0.05,0.87,0.5,5.740997,-80.28,-81.12
1733053318648351731,1733053318647914648,12,-0.05,0.87,0.5,5.628428333333333,-79.74,-81.06
1733053318748232998,1733053318747887134,12,-0.05,0.87,0.5,5.509606000000001,-79.75,-80.45
1733053318848376347,1733053318847903728,12,-0.05,0.87,0.5,5.365768333333333,-79.66,-81.07
1733053318948258271,1733053318947893619,12,-0.05,0.87,0.5,5.253199666666667,-79.54,-80.52
1733053319048264965,1733053319047894477,12,-0.05,0.87,0.5,5.134377,-79.27,-80.49
1733053319150626689,1733053319150502920,12,-0.05,0.87,0.5,5.0343160000000005,-79.86,-80.98
1733053319250830278,1733053319250577211,12,-0.05,0.87,0.5,4.902986333333334,-79.64,-80.91
1733053319350705041,1733053319350577116,12,-0.05,0.87,0.5,4.784164333333333,-82.18,-83.29
1733053319451210426,1733053319450989007,12,-0.05,0.87,0.5,4.652834333333334,-81.29,-83.18
1733053319550766592,1733053319550581216,12,-0.05,0.87,0.5,4.540265666666667,-80.69,-81.55
1733053319651292914,1733053319651090621,12,-0.05,0.87,0.5,4.427697,-79.26,-81.21
1733053319751006519,1733053319750570297,12,-0.05,0.87,0.5,4.346397666666667,-79.06,-80.84
1733053319849489072,1733053319849191427,12,-0.05,0.87,0.5,4.221321333333333,-79.51,-80.9
1733053319949158065,1733053319948936462,12,-0.05,0.87,0.5,4.102499,-79.6,-80.69
1733053320051316158,1733053320051025629,12,-0.05,0.87,0.5,3.9649149999999995,-79.37,-80.88
1733053320150157061,1733053320149930715,12,-0.05,0.87,0.5,3.877361666666667,-79.49,-80.87
1733053320250435031,1733053320250132322,12,-0.05,0.87,0.5,3.802315666666667,-79.35,-80.83
1733053320350355848,1733053320350025653,12,-0.05,0.87,0.5,3.721016,-79.49,-81.02
1733053320449807213,1733053320449000120,12,-0.05,0.87,0.5,3.6647316666666665,-79.06,-81.58
1733053320549327705,1733053320549041032,12,-0.05,0.87,0.5,3.614701333333333,-78.67,-80.46
1733053320650126015,1733053320649903535,12,-0.05,0.87,0.5,3.564671,-78.94,-80.49
1733053320750157942,1733053320750000476,12,-0.05,0.87,0.5,3.502133,-78.97,-80.5
1733053320851045913,1733053320850812673,12,-0.05,0.87,0.5,3.439595,-79.22,-81.06
1733053321250700930,1733053321250441312,12,-0.05,0.87,0.5,3.470864,-79.04,-80.77
1733053321350780337,1733053321350214958,12,-0.05,0.87,0.5,3.533402333333333,-78.78,-80.42
1733053321450799047,1733053321450619220,12,-0.05,0.87,0.5,3.5271483333333333,-78.89,-80.42
1733053321550994612,1733053321550793886,12,-0.05,0.87,0.5,3.533402,-78.83,-80.55
1733053321651142508,1733053321650810956,12,-0.05,0.87,0.5,3.533402,-78.92,-80.41
1733053321749995971,1733053321749792575,12,-0.05,0.87,0.5,3.564671333333333,-78.87,-80.39
1733053321849541897,1733053321849226713,12,-0.05,0.87,0.5,3.627209666666667,-78.8,-80.46
1733053321949767423,1733053321949566125,12,-0.05,0.87,0.5,3.6709863333333335,-78.9,-80.64
1733053322049404975,1733053322049167633,12,-0.05,0.87,0.5,3.7272703333333332,-78.91,-80.55
1733053322149161329,1733053322148926019,12,-0.05,0.87,0.5,3.771047,-78.85,-80.34
1733053322249965591,1733053322249409437,12,-0.05,0.87,0.5,3.833585,-79.11,-80.7
1733053322349325841,1733053322349010467,12,-0.05,0.87,0.5,3.8898693333333334,-78.85,-80.42
1733053322449185194,1733053322449013948,12,-0.05,0.87,0.5,3.9211383333333334,-79.22,-80.66
1733053322550447221,1733053322550245523,12,-0.05,0.87,0.5,3.977422666666667,-79.06,-81.23
1733053322650346733,1733053322650129556,12,-0.05,0.87,0.5,4.0086916666666665,-79.25,-80.87
1733053322750424548,1733053322750165224,12,-0.05,0.87,0.5,4.064976000000001,-78.96,-80.93
1733053322850362883,1733053322849941253,12,-0.05,0.87,0.5,4.158783333333333,-79.01,-80.47
1733053322950502021,1733053322950199127,12,-0.05,0.87,0.5,4.233829,-78.59,-80.45
1733053323050367038,1733053323050175428,12,-0.05,0.87,0.5,4.327636,-79.23,-81.1
1733053323149390870,1733053323149140596,12,-0.05,0.87,0.5,4.402681666666667,-79.31,-80.93
1733053323249646226,1733053323249439477,12,-0.05,0.87,0.5,4.465219666666667,-79.21,-80.95
1733053323349583722,1733053323349218368,12,-0.05,0.87,0.5,4.521504,-79.11,-80.72
1733053323449366866,1733053323449036836,12,-0.05,0.87,0.5,4.6028036666666665,-79.11,-80.74
1733053323549446209,1733053323549046754,12,-0.05,0.87,0.5,4.671595666666666,-79.03,-81.08
1733053323649352356,1733053323648983955,12,-0.05,0.87,0.5,4.752895,-79.0,-80.71
1733053323749138063,1733053323748973608,12,-0.05,0.87,0.5,4.827940666666667,-78.86,-80.73
1733053323849778160,1733053323849560499,12,-0.05,0.87,0.5,4.934255333333334,-78.81,-80.65
1733053323951209281,1733053323949252128,12,-0.05,0.87,0.5,4.996793333333334,-78.89,-81.07
1733053324049491366,1733053324049222469,12,-0.05,0.87,0.5,5.065585333333334,-79.71,-83.05
1733053324149176348,1733053324148985147,12,-0.05,0.87,0.5,5.121869666666666,-79.4,-81.07
1733053324249134166,1733053324249037027,12,-0.05,0.87,0.5,5.215677,-79.59,-80.95
1733053324349147719,1733053324348930120,12,-0.05,0.87,0.5,5.328245333333334,-79.23,-81.89
1733053324449257641,1733053324449113368,12,-0.05,0.87,0.5,5.415798666666667,-79.27,-80.87
1733053324549273828,1733053324548943042,12,-0.05,0.87,0.5,5.503352,-79.23,-80.92
1733053324649573787,1733053324649272203,12,-0.05,0.87,0.5,5.590905333333333,-78.89,-81.22
1733053324750100130,1733053324749846935,12,-0.05,0.87,0.5,5.684712333333333,-79.15,-80.71
1733053324849363678,1733053324849084377,12,-0.05,0.87,0.5,5.747250333333334,-79.0,-81.13
1733053324949235888,1733053324948886871,12,-0.05,0.87,0.5,5.847311333333333,-79.3,-80.7
1733053325049405932,1733053325049060821,12,-0.05,0.87,0.5,5.941118666666667,-78.99,-80.71
1733053325149280649,1733053325148941755,12,-0.05,0.87,0.5,6.091209999999999,-78.96,-80.71
1733053325249077382,1733053325248912811,12,-0.05,0.87,0.5,6.1912709999999995,-79.19,-80.81
1733053325349058640,1733053325348894119,12,-0.05,0.87,0.5,6.328854666666667,-78.77,-81.96
1733053325449424438,1733053325448998928,12,-0.05,0.87,0.5,6.460185,-78.92,-82.17
1733053325549263364,1733053325549034833,12,-0.05,0.87,0.5,6.579007333333333,-79.92,-81.38
1733053325649256907,1733053325649071931,12,-0.05,0.87,0.5,6.641545333333333,-80.67,-85.21
1733053325749619784,1733053325749305963,12,-0.05,0.87,0.5,6.722844666666667,-81.19,-88.56
1733053325849777434,1733053325849377632,12,-0.05,0.87,0.5,6.804144333333333,-82.28,-86.13
1733053325949082684,1733053325948929786,12,-0.05,0.87,0.5,6.9855046666666665,-82.19,-83.4
1733053326050258483,1733053326050059318,12,-0.05,0.87,0.5,7.160611333333333,-80.02,-81.48
1733053326150476830,1733053326150168418,12,-0.05,0.87,0.5,7.329463999999999,-81.65,-83.94
1733053326249962388,1733053326249795436,12,-0.05,0.87,0.5,7.429525000000001,-79.82,-81.78
1733053326350259577,1733053326350003957,12,-0.05,0.87,0.5,7.498317,-80.19,-81.0
1733053326450236422,1733053326450023889,12,-0.05,0.87,0.5,7.5796166666666664,-79.9,-81.88
1733053326849623710,1733053326849364757,12,-0.05,0.87,0.5,8.142460666666667,-81.52,-83.43
1733053326949184334,1733053326948981523,12,-0.05,0.87,0.5,8.22376,-81.4,-82.19
1733053327049267755,1733053327049045562,12,-0.05,0.87,0.5,8.305059333333334,-83.6,-86.82
1733053327149340538,1733053327149060964,12,-0.05,0.87,0.5,8.423881333333334,-82.51,-83.2
1733053327249307941,1733053327249002456,12,-0.05,0.87,0.5,8.548957333333334,-83.24,-87.0
1733053327348371849,1733053327347909688,12,-0.05,0.87,0.5,8.705302666666666,-83.42,-84.76
1733053327448097524,1733053327447895050,12,-0.05,0.87,0.5,8.817871333333335,-82.61,-83.98
1733053327548146107,1733053327547903776,12,-0.05,0.87,0.5,8.961709,-81.61,-82.13
1733053327648168081,1733053327647897481,12,-0.05,0.87,0.5,9.080531,-81.55,-82.91
1733053327748334947,1733053327747935056,12,-0.05,0.87,0.5,9.218115,-81.78,-82.25
1733053327848181813,1733053327847910165,12,-0.05,0.87,0.5,9.330683666666665,-81.65,-83.03
1733053327948243036,1733053327947911977,12,-0.05,0.87,0.5,9.45576,-81.49,-82.53
1733053328050575569,1733053328050466060,12,-0.05,0.87,0.5,9.549566666666665,-81.84,-82.66
1733053328151071919,1733053328150828599,12,-0.05,0.87,0.5,9.655881333333333,-81.04,-81.8
1733053328251646687,1733053328251343250,12,-0.05,0.87,0.5,9.787211666666666,-81.23,-82.48
1733053328379993164,1733053328379632949,12,-0.05,0.87,0.5,9.931049333333334,-82.05,-82.68
1733053328450117773,1733053328449998855,12,-0.05,0.87,0.5,10.049872,-81.16,-81.36
1733053328550531119,1733053328550190687,12,-0.05,0.87,0.5,10.156186666666667,-80.5,-80.95
1733053328650833389,1733053328650510311,12,-0.05,0.87,0.5,10.268755666666666,-80.62,-81.15
1733053328750038936,1733053328749948501,12,-0.05,0.87,0.5,10.406339333333333,-80.91,-82.02
