%time,field.stamp,field.id,field.x,field.y,field.z,field.distanceFromTag,field.rssi,field.rssi_fp
1733053256748357368,1733053256747906923,3,2.21,0.19,1.79,4.921748,-79.9,-81.29
1733053256848206081,1733053256847887277,3,2.21,0.19,1.79,4.909240333333333,-79.57,-80.56
1733053256949282288,1733053256949099540,3,2.21,0.19,1.79,4.902986333333334,-79.31,-80.56
1733053257150467097,1733053257150192737,3,2.21,0.19,1.79,4.909240333333333,-79.63,-80.58
1733053257350216235,1733053257350019693,3,2.21,0.19,1.79,4.928002,-79.94,-81.01
1733053257750478094,1733053257750200510,3,2.21,0.19,1.79,4.928001666666667,-79.41,-80.5
1733053257850962013,1733053257850796937,3,2.21,0.19,1.79,4.928001666666667,-79.4,-80.48
1733053257949226711,1733053257949012041,3,2.21,0.19,1.79,4.909240333333333,-79.51,-80.68
1733053258049630842,1733053258049298286,3,2.21,0.19,1.79,4.909240333333333,-79.26,-80.47
1733053258149614644,1733053258149042844,3,2.21,0.19,1.79,4.921748,-80.18,-80.78
1733053258249465309,1733053258249063253,3,2.21,0.19,1.79,4.934255666666666,-79.58,-80.72
1733053258349193496,1733053258349077701,3,2.21,0.19,1.79,4.915494333333334,-79.64,-80.58
1733053258449442740,1733053258449124336,3,2.21,0.19,1.79,4.909240666666666,-79.59,-80.58
1733053258549171320,1733053258548999071,3,2.21,0.19,1.79,4.909240666666666,-79.36,-80.51
1733053258649720915,1733053258649412870,3,2.21,0.19,1.79,4.921748333333333,-79.64,-80.57
1733053258749418112,1733053258749249935,3,2.21,0.19,1.79,4.928002,-79.52,-80.62
1733053258849444098,1733053258849134922,3,2.21,0.19,1.79,4.921748,-79.61,-80.75
1733053258949451129,1733053258949070930,3,2.21,0.19,1.79,4.934255666666666,-79.8,-80.59
1733053259049587830,1733053259049309492,3,2.21,0.19,1.79,4.940509333333334,-80.38,-80.79
1733053259148797285,1733053259147899866,3,2.21,0.19,1.79,4.928001666666667,-79.53,-80.82
1733053259248328989,1733053259247893333,3,2.21,0.19,1.79,4.921747666666666,-79.28,-80.68
1733053259351116288,1733053259350817680,3,2.21,0.19,1.79,4.902986333333334,-79.42,-81.1
1733053259450729788,1733053259450542688,3,2.21,0.19,1.79,4.928001666666667,-79.57,-80.94
1733053259550894549,1733053259550678968,3,2.21,0.19,1.79,4.915494,-79.49,-80.82
1733053259651365345,1733053259651152372,3,2.21,0.19,1.79,4.921748,-79.4,-80.46
1733053259748553185,1733053259747945308,3,2.21,0.19,1.79,4.921748,-79.79,-80.62
1733053259849526702,1733053259849202156,3,2.21,0.19,1.79,4.965524666666667,-79.65,-80.7
1733053259949252687,1733053259949089288,3,2.21,0.19,1.79,4.971778333333333,-79.4,-80.36
1733053260049548790,1733053260049244403,3,2.21,0.19,1.79,4.971778333333333,-79.35,-80.4
1733053260149560179,1733053260149197578,3,2.21,0.19,1.79,4.940509333333334,-79.64,-80.55
1733053260249350220,1733053260249259471,3,2.21,0.19,1.79,4.953017,-79.73,-80.61
1733053260349434417,1733053260349273681,3,2.21,0.19,1.79,4.940509333333334,-79.88,-80.7
1733053260449384010,1733053260449208974,3,2.21,0.19,1.79,4.953017,-79.33,-80.5
1733053260549598013,1733053260549221277,3,2.21,0.19,1.79,4.940509333333334,-79.27,-80.38
1733053260649631858,1733053260649297952,3,2.21,0.19,1.79,4.946763333333333,-79.85,-81.22
1733053260749748828,1733053260749394893,3,2.21,0.19,1.79,4.946763333333333,-79.32,-80.52
1733053260849440869,1733053260849159479,3,2.21,0.19,1.79,4.940509666666667,-79.31,-80.57
1733053260949986634,1733053260949908733,3,2.21,0.19,1.79,4.946763333333333,-79.53,-80.5
1733053261050721104,1733053261050459623,3,2.21,0.19,1.79,4.953017,-79.29,-80.47
1733053261151094825,1733053261150164365,3,2.21,0.19,1.79,4.959270666666666,-79.68,-80.84
1733053261250540874,1733053261250333547,3,2.21,0.19,1.79,4.940509333333334,-79.47,-80.84
1733053261350884010,1733053261350538015,3,2.21,0.19,1.79,4.909240333333333,-79.53,-80.45
1733053261450378807,1733053261450228929,3,2.21,0.19,1.79,4.902986666666667,-79.46,-80.5
1733053261550258594,1733053261549938917,3,2.21,0.19,1.79,4.902986666666667,-79.43,-80.85
1733053261650492226,1733053261650267124,3,2.21,0.19,1.79,4.896733,-79.4,-80.57
1733053261750928499,1733053261750766515,3,2.21,0.19,1.79,4.884225333333333,-79.39,-80.81
1733053261850422760,1733053261850147485,3,2.21,0.19,1.79,4.877971333333334,-79.67,-80.9
1733053261950402791,1733053261950177907,3,2.21,0.19,1.79,4.902986666666667,-79.49,-80.54
1733053262050918493,1733053262050703525,3,2.21,0.19,1.79,4.921748,-79.47,-80.54
1733053262150691664,1733053262150598049,3,2.21,0.19,1.79,4.934255666666666,-79.46,-80.43
1733053262250516712,1733053262250238180,3,2.21,0.19,1.79,4.921748,-79.69,-80.69
1733053262450737135,1733053262450391769,3,2.21,0.19,1.79,4.921748,-79.29,-80.52
1733053262848444683,1733053262847918510,3,2.21,0.19,1.79,4.946763,-79.83,-80.46
1733053262948405716,1733053262947918415,3,2.21,0.19,1.79,4.946763,-79.61,-80.95
1733053263051634791,1733053263051435947,3,2.21,0.19,1.79,4.934255333333333,-79.51,-81.03
1733053263151314477,1733053263151147127,3,2.21,0.19,1.79,4.928001666666667,-79.38,-80.47
1733053263251205207,1733053263250953197,3,2.21,0.19,1.79,4.934255666666666,-79.97,-81.04
1733053263351971268,1733053263351760387,3,2.21,0.19,1.79,4.928002,-79.18,-80.45
1733053263450864834,1733053263450639009,3,2.21,0.19,1.79,4.915494333333334,-79.51,-80.56
1733053263550486875,1733053263550378561,3,2.21,0.19,1.79,4.915494333333334,-79.76,-80.55
1733053263651304737,1733053263651087284,3,2.21,0.19,1.79,4.915494333333334,-79.94,-80.92
1733053263751026640,1733053263750742435,3,2.21,0.19,1.79,4.909240666666666,-79.7,-80.79
1733053263850753769,1733053263850605964,3,2.21,0.19,1.79,4.896733,-79.55,-80.58
1733053263950995198,1733053263950737953,3,2.21,0.19,1.79,4.890479,-79.67,-80.83
1733053264050763698,1733053264050543308,3,2.21,0.19,1.79,4.902986666666667,-79.83,-80.5
1733053264150893643,1733053264150568008,3,2.21,0.19,1.79,4.909240333333333,-79.73,-80.89
1733053264250614098,1733053264250370740,3,2.21,0.19,1.79,4.940509333333334,-79.41,-80.5
1733053264351121739,1733053264350815534,3,2.21,0.19,1.79,4.946763,-79.71,-80.67
1733053264450721682,1733053264450580596,3,2.21,0.19,1.79,4.934255333333333,-79.42,-80.47
1733053264550810771,1733053264550544023,3,2.21,0.19,1.79,4.909240333333333,-79.39,-80.6
1733053264652668253,1733053264651191234,3,2.21,0.19,1.79,4.902986666666667,-79.56,-80.54
1733053264751838868,1733053264751603126,3,2.21,0.19,1.79,4.934255666666666,-79.37,-80.42
1733053264851002368,1733053264850645065,3,2.21,0.19,1.79,4.946763333333333,-79.46,-80.44
1733053264950685881,1733053264950451612,3,2.21,0.19,1.79,4.928001666666667,-79.63,-80.77
1733053265050881425,1733053265050663948,3,2.21,0.19,1.79,4.902986666666667,-79.6,-80.83
1733053265150762277,1733053265150506496,3,2.21,0.19,1.79,4.877971333333334,-79.33,-80.46
1733053265250431845,1733053265250159502,3,2.21,0.19,1.79,4.884225333333333,-79.28,-80.47
1733053265350515150,1733053265350301265,3,2.21,0.19,1.79,4.915494333333334,-79.37,-80.85
1733053265450815936,1733053265450623512,3,2.21,0.19,1.79,4.921748,-79.44,-81.19
1733053265550548457,1733053265550468683,3,2.21,0.19,1.79,4.915494,-79.28,-80.91
1733053265649535529,1733053265649176359,3,2.21,0.19,1.79,4.884225,-79.09,-81.16
1733053265749511613,1733053265749421596,3,2.21,0.19,1.79,4.877971333333334,-78.89,-81.53
1733053265849696261,1733053265849386930,3,2.21,0.19,1.79,4.85921,-79.0,-81.34
1733053265950473583,1733053265950217723,3,2.21,0.19,1.79,4.827941,-78.93,-80.94
1733053266051194272,1733053266050945758,3,2.21,0.19,1.79,4.796672,-78.93,-80.72
1733053266151388170,1733053266151135444,3,2.21,0.19,1.79,4.777910666666667,-78.98,-80.81
1733053266251701597,1733053266251395225,3,2.21,0.19,1.79,4.752895333333334,-79.53,-81.05
1733053266348315639,1733053266347953081,3,2.21,0.19,1.79,4.740387666666667,-79.03,-81.5
1733053266448295379,1733053266447906970,3,2.21,0.19,1.79,4.734133666666667,-78.96,-81.7
1733053266548317703,1733053266547966957,3,2.21,0.19,1.79,4.7403873333333335,-78.72,-80.94
1733053266648238927,1733053266647924661,3,2.21,0.19,1.79,4.7216260000000005,-78.92,-81.08
1733053266748225638,1733053266747936487,3,2.21,0.19,1.79,4.684103333333334,-79.09,-80.85
1733053266848265771,1733053266847906112,3,2.21,0.19,1.79,4.646580666666666,-79.25,-80.68
1733053266948528520,1733053266947943449,3,2.21,0.19,1.79,4.6153113333333335,-79.46,-80.81
1733053267048369654,1733053267047921657,3,2.21,0.19,1.79,4.596549666666666,-79.75,-80.67
1733053267150967160,1733053267150840997,3,2.21,0.19,1.79,4.584042,-79.47,-80.65
1733053267348486789,1733053267347887754,3,2.21,0.19,1.79,4.577788333333333,-79.76,-80.75
1733053267448204584,1733053267447908878,3,2.21,0.19,1.79,4.546519333333333,-79.61,-81.06
1733053267548085620,1733053267547900438,3,2.21,0.19,1.79,4.534011666666667,-79.12,-80.51
1733053267648387062,1733053267647933959,3,2.21,0.19,1.79,4.515250333333333,-79.15,-80.65
1733053267751390358,1733053267751180171,3,2.21,0.19,1.79,4.534012,-79.36,-81.15
1733053267850243376,1733053267849989891,3,2.21,0.19,1.79,4.502743,-79.57,-81.04
1733053267950624639,1733053267950511693,3,2.21,0.19,1.79,4.490235333333334,-79.29,-80.82
1733053268051430207,1733053268051115274,3,2.21,0.19,1.79,4.471473666666667,-79.22,-80.6
1733053268150505709,1733053268150288105,3,2.21,0.19,1.79,4.440204666666667,-79.37,-80.75
1733053268250386150,1733053268250069618,3,2.21,0.19,1.79,4.440204666666667,-79.6,-81.23
1733053268351168017,1733053268350991964,3,2.21,0.19,1.79,4.458966333333334,-79.35,-80.98
1733053268452004624,1733053268451770067,3,2.21,0.19,1.79,4.477727666666667,-79.32,-81.23
1733053268551251606,1733053268551142930,3,2.21,0.19,1.79,4.471473666666667,-79.42,-80.86
1733053268651784775,1733053268651620388,3,2.21,0.19,1.79,4.446458333333333,-79.59,-81.66
1733053268751745017,1733053268751563549,3,2.21,0.19,1.79,4.465219666666667,-79.2,-80.81
1733053268851429884,1733053268851175069,3,2.21,0.19,1.79,4.440204666666667,-79.57,-80.71
1733053268951551487,1733053268951400756,3,2.21,0.19,1.79,4.458966,-79.78,-80.98
1733053269052090414,1733053269051470756,3,2.21,0.19,1.79,4.471473666666667,-79.6,-80.74
1733053269152020307,1733053269151763439,3,2.21,0.19,1.79,4.534011666666667,-80.02,-80.91
1733053269251194526,1733053269250978708,3,2.21,0.19,1.79,4.546519333333333,-79.75,-80.67
1733053269351586367,1733053269351444959,3,2.21,0.19,1.79,4.577788333333333,-79.79,-80.94
1733053269451333239,1733053269451122522,3,2.21,0.19,1.79,4.609057333333333,-79.75,-80.93
1733053269551380662,1733053269551159858,3,2.21,0.19,1.79,4.615311,-79.31,-80.68
1733053269651047850,1733053269650911569,3,2.21,0.19,1.79,4.634072666666667,-79.34,-80.78
1733053269751923006,1733053269751719474,3,2.21,0.19,1.79,4.646580333333333,-79.38,-80.8
1733053269851389426,1733053269851262092,3,2.21,0.19,1.79,4.684103333333333,-79.13,-80.69
1733053269951355920,1733053269951073646,3,2.21,0.19,1.79,4.72788,-79.18,-81.41
1733053270051744782,1733053270051543951,3,2.21,0.19,1.79,4.796672,-80.15,-81.2
1733053270152146996,1733053270151782751,3,2.21,0.19,1.79,4.865464,-79.49,-80.81
1733053270251012865,1733053270250829935,3,2.21,0.19,1.79,4.890479,-79.47,-80.77
1733053270350690346,1733053270350519895,3,2.21,0.19,1.79,4.902986666666667,-79.42,-80.66
1733053270451124826,1733053270450809240,3,2.21,0.19,1.79,4.953017,-79.05,-80.58
1733053270550871867,1733053270550588130,3,2.21,0.19,1.79,5.009301333333333,-79.13,-80.7
1733053270650437088,1733053270650218963,3,2.21,0.19,1.79,5.078093,-79.21,-80.72
1733053270750668597,1733053270750463962,3,2.21,0.19,1.79,5.128123666666666,-79.47,-81.1
1733053270850430358,1733053270850194454,3,2.21,0.19,1.79,5.184408,-79.49,-80.67
1733053271251203993,1733053271251030445,3,2.21,0.19,1.79,5.409544666666666,-79.24,-80.97
1733053271351322707,1733053271351055145,3,2.21,0.19,1.79,5.503352,-78.91,-81.27
1733053271548366687,1733053271547924041,3,2.21,0.19,1.79,5.609666666666667,-79.1,-80.48
1733053271948372972,1733053271947892904,3,2.21,0.19,1.79,5.984895333333334,-78.92,-81.02
1733053272048317188,1733053272047922611,3,2.21,0.19,1.79,6.072448666666666,-79.44,-80.85
1733053272151392774,1733053272151150941,3,2.21,0.19,1.79,6.134986666666667,-79.2,-80.7
1733053272250959885,1733053272250694513,3,2.21,0.19,1.79,6.210032333333333,-79.24,-80.85
1733053272348162215,1733053272347884178,3,2.21,0.19,1.79,6.2850779999999995,-79.55,-80.72
1733053272448500260,1733053272447889089,3,2.21,0.19,1.79,6.35387,-79.36,-80.49
1733053272548260823,1733053272547892808,3,2.21,0.19,1.79,6.466438666666666,-78.85,-80.53
1733053272648191315,1733053272647900819,3,2.21,0.19,1.79,6.535230666666667,-79.06,-81.62
1733053272748944494,1733053272747968673,3,2.21,0.19,1.79,6.666560666666666,-79.26,-82.0
1733053272848505305,1733053272847903251,3,2.21,0.19,1.79,6.779129333333334,-79.07,-81.72
1733053272948367551,1733053272947922945,3,2.21,0.19,1.79,6.910459333333333,-79.71,-80.68
1733053273048281100,1733053273047930717,3,2.21,0.19,1.79,6.998012333333333,-79.69,-81.15
1733053273449874723,1733053273449459791,3,2.21,0.19,1.79,7.423271666666667,-78.86,-81.09
1733053273549384784,1733053273549076557,3,2.21,0.19,1.79,7.510824666666667,-79.26,-82.14
1733053273649379319,1733053273649089097,3,2.21,0.19,1.79,7.617139333333333,-79.38,-82.4
1733053273749685038,1733053273749295473,3,2.21,0.19,1.79,7.704692666666666,-79.12,-81.19
1733053273849804498,1733053273849432229,3,2.21,0.19,1.79,7.811007666666666,-79.92,-80.94
1733053273949782647,1733053273949275255,3,2.21,0.19,1.79,7.904814999999999,-79.2,-80.38
1733053274049633234,1733053274049497604,3,2.21,0.19,1.79,8.073668333333332,-79.21,-80.42
1733053274155243034,1733053274154972553,3,2.21,0.19,1.79,8.173729666666667,-79.43,-81.11
1733053274249481150,1733053274249381303,3,2.21,0.19,1.79,8.317567333333335,-79.55,-80.96
1733053274349532926,1733053274349191665,3,2.21,0.19,1.79,8.423881999999999,-79.33,-80.69
1733053274449631116,1733053274449278831,3,2.21,0.19,1.79,8.555211666666667,-79.46,-82.31
1733053274549457103,1733053274549140691,3,2.21,0.19,1.79,8.661526333333333,-80.41,-83.23
1733053274649282398,1733053274649084091,3,2.21,0.19,1.79,8.767840999999999,-79.7,-82.0
1733053274749615476,1733053274749234199,3,2.21,0.19,1.79,8.886663333333333,-79.65,-80.98
1733053274849354013,1733053274849111318,3,2.21,0.19,1.79,8.967962666666667,-79.35,-80.46
1733053274948381819,1733053274947925806,3,2.21,0.19,1.79,9.055516,-79.72,-80.91
1733053275048214485,1733053275047894001,3,2.21,0.19,1.79,9.168084666666667,-79.7,-80.98
1733053275148238351,1733053275147908210,3,2.21,0.19,1.79,9.286907333333334,-79.8,-80.87
1733053275248348667,1733053275247872352,3,2.21,0.19,1.79,9.436998666666666,-79.7,-81.08
1733053275448584160,1733053275447925806,3,2.21,0.19,1.79,9.543313333333332,-79.42,-80.8
1733053275548316709,1733053275547927618,3,2.21,0.19,1.79,9.687150666666666,-79.82,-81.99
1733053275648196385,1733053275647896766,3,2.21,0.19,1.79,9.793465333333332,-80.16,-83.21
1733053275748450874,1733053275747912883,3,2.21,0.19,1.79,9.918541666666668,-80.09,-82.71
1733053275848331095,1733053275847882509,3,2.21,0.19,1.79,10.031110333333332,-79.87,-81.82
1733053275948264489,1733053275947888612,3,2.21,0.19,1.79,10.131171333333334,-79.72,-80.89
1733053276048361616,1733053276047895908,3,2.21,0.19,1.79,10.249993666666667,-79.62,-80.89
1733053276148303107,1733053276147908687,3,2.21,0.19,1.79,10.368816,-79.8,-81.02
1733053276248313310,1733053276247900009,3,2.21,0.19,1.79,10.506399666666667,-79.73,-80.83
1733053276351453095,1733053276351319551,3,2.21,0.19,1.79,10.637729666666667,-79.98,-81.08
1733053276752270245,1733053276752074956,3,2.21,0.19,1.79,11.094257666666666,-79.99,-80.74
1733053276852439917,1733053276852349519,3,2.21,0.19,1.79,11.225588000000002,-80.53,-81.14
1733053276951108517,1733053276950849056,3,2.21,0.19,1.79,11.331903000000002,-80.79,-82.02
1733053277050618036,1733053277050540208,3,2.21,0.19,1.79,11.450725333333333,-80.68,-82.72
1733053277148205230,1733053277147897958,3,2.21,0.19,1.79,11.582055333333335,-81.81,-83.74
1733053277249178246,1733053277248984575,3,2.21,0.19,1.79,11.719639,-80.31,-81.29
1733053277550309824,1733053277550094604,3,2.21,0.19,1.79,11.919761000000001,-80.11,-80.74
1733053277650254501,1733053277650100708,3,2.21,0.19,1.79,12.101121333333333,-80.14,-80.62
1733053277750498678,1733053277750164508,3,2.21,0.19,1.79,12.301243333333332,-80.26,-81.08
1733053277849869141,1733053277849649906,3,2.21,0.19,1.79,12.426319333333334,-80.28,-81.02
1733053277951698696,1733053277951443195,3,2.21,0.19,1.79,12.551395333333332,-80.39,-81.13
1733053278050513794,1733053278050213575,3,2.21,0.19,1.79,12.676471333333334,-80.05,-80.82
1733053278150610664,1733053278150417089,3,2.21,0.19,1.79,12.782786333333334,-80.28,-80.83
1733053278250978328,1733053278250850915,3,2.21,0.19,1.79,12.926623999999999,-80.81,-81.72
1733053278348259677,1733053278347890615,3,2.21,0.19,1.79,13.057954,-80.79,-80.93
1733053278548461164,1733053278548017501,3,2.21,0.19,1.79,13.233060666666667,-81.07,-81.47
1733053278649408473,1733053278649198293,3,2.21,0.19,1.79,3.8898696666666663,-81.96,-82.27
1733053279250820272,1733053279250641822,3,2.21,0.19,1.79,14.189893666666668,-83.37,-84.3
1733053279349396103,1733053279349033117,3,2.21,0.19,1.79,14.321223666666668,-81.33,-81.72
1733053279450120197,1733053279449935913,3,2.21,0.19,1.79,14.458807666666667,-80.91,-81.19
1733053279550358941,1733053279550156116,3,2.21,0.19,1.79,14.57763,-80.96,-80.95
1733053279650813268,1733053279650516510,3,2.21,0.19,1.79,14.702706333333332,-81.19,-81.24
1733053279750757673,1733053279750601291,3,2.21,0.19,1.79,14.802767000000001,-80.58,-81.01
1733053279849372088,1733053279849095821,3,2.21,0.19,1.79,14.934097,-80.63,-81.05
1733053279949687385,1733053279949321985,3,2.21,0.19,1.79,15.077934333333332,-81.19,-81.73
1733053280049477080,1733053280049101591,3,2.21,0.19,1.79,15.228026,-81.02,-81.27
1733053280149584751,1733053280149494886,3,2.21,0.19,1.79,15.334340666666668,-80.74,-81.52
1733053280249716889,1733053280249508380,3,2.21,0.19,1.79,15.446909333333332,-80.49,-80.75
1733053280349177828,1733053280348983287,3,2.21,0.19,1.79,15.559477666666666,-80.93,-81.36
1733053280449502663,1733053280449185371,3,2.21,0.19,1.79,15.703314999999998,-80.58,-81.13
1733053280549599955,1733053280549363851,3,2.21,0.19,1.79,15.822137333333332,-80.69,-81.14
1733053280649444982,1733053280649148702,3,2.21,0.19,1.79,15.940959666666666,-80.71,-81.01
1733053280749402133,1733053280749100685,3,2.21,0.19,1.79,16.059782000000002,-81.02,-81.24
1733053280849346708,1733053280849181890,3,2.21,0.19,1.79,16.216127,-80.98,-81.08
1733053280949469907,1733053280949182033,3,2.21,0.19,1.79,16.353711,-81.34,-81.65
1733053281049404257,1733053281049061775,3,2.21,0.19,1.79,16.478787333333333,-81.41,-81.31
1733053281149559102,1733053281149236440,3,2.21,0.19,1.79,16.578848333333337,-81.91,-81.8
1733053281249529667,1733053281249119043,3,2.21,0.19,1.79,16.703923999999997,-82.14,-82.85
1733053281350464637,1733053281350176334,3,2.21,0.19,1.79,16.835253666666663,-82.39,-84.64
1733053281449959487,1733053281449819803,3,2.21,0.19,1.79,16.979091333333333,-84.03,-85.93
1733053281550230246,1733053281550010204,3,2.21,0.19,1.79,17.079152666666666,-83.45,-85.53
1733053281650456038,1733053281650051116,3,2.21,0.19,1.79,17.191721333333334,-84.25,-85.61
1733053281749978781,1733053281749844312,3,2.21,0.19,1.79,17.335558666666667,-83.85,-86.78
1733053281850054050,1733053281849901199,3,2.21,0.19,1.79,17.473142,-83.83,-84.2
1733053281950108068,1733053281949908256,3,2.21,0.19,1.79,17.591964666666666,-84.03,-85.69
1733053282050212682,1733053282049930572,3,2.21,0.19,1.79,17.698279666666664,-83.2,-83.76
1733053282150181691,1733053282149998188,3,2.21,0.19,1.79,17.842117333333334,-83.03,-83.53
1733053282250220186,1733053282249891519,3,2.21,0.19,1.79,17.992208333333334,-82.67,-83.02
1733053282350172056,1733053282349966287,3,2.21,0.19,1.79,18.123538333333332,-82.39,-84.11
1733053282750237180,1733053282749968051,3,2.21,0.19,1.79,18.373690999999997,-81.55,-81.7
1733053282850228471,1733053282850057363,3,2.21,0.19,1.79,18.648858666666666,-81.21,-82.03
1733053282950288943,1733053282950048923,3,2.21,0.19,1.79,18.880249333333335,-81.43,-81.66
1733053283049981403,1733053283049843311,3,2.21,0.19,1.79,18.986564333333334,-81.21,-81.57
1733053283150609401,1733053283150445222,3,2.21,0.19,1.79,19.067863666666668,-81.03,-81.09
1733053283250299938,1733053283250024080,3,2.21,0.19,1.79,19.217955333333332,-81.93,-82.19
1733053283349364152,1733053283349183797,3,2.21,0.19,1.79,19.361793,-81.24,-81.37
1733053283450555576,1733053283450410604,3,2.21,0.19,1.79,19.518138333333336,-81.16,-81.21
1733053283551426793,1733053283550732374,3,2.21,0.19,1.79,19.630707,-80.66,-81.23
1733053283651038530,1733053283650886774,3,2.21,0.19,1.79,19.762036666666667,-80.83,-80.82
1733053283750620309,1733053283750490903,3,2.21,0.19,1.79,19.880859666666666,-81.42,-81.42
1733053283851366001,1733053283851287126,3,2.21,0.19,1.79,20.012189333333335,-80.85,-81.2
1733053283949789987,1733053283949614763,3,2.21,0.19,1.79,20.137265666666668,-81.02,-81.59
1733053284050094543,1733053284049820661,3,2.21,0.19,1.79,20.274849000000003,-81.61,-81.44
1733053284150208992,1733053284149854898,3,2.21,0.19,1.79,20.399925333333332,-81.11,-81.78
1733053284249965349,1733053284249883413,3,2.21,0.19,1.79,20.53125533333333,-81.04,-80.99
1733053284350078799,1733053284349853515,3,2.21,0.19,1.79,20.656331666666663,-80.76,-81.0
1733053284450108249,1733053284449944734,3,2.21,0.19,1.79,20.800169333333333,-82.34,-82.13
1733053284648108326,1733053284647893905,3,2.21,0.19,1.79,20.98152933333333,-81.27,-81.1
1733053285451053445,1733053285450892210,3,2.21,0.19,1.79,22.007154,-83.46,-83.27
1733053285551142679,1733053285551046371,3,2.21,0.19,1.79,22.107214666666668,-83.07,-84.54
1733053285650587807,1733053285650319576,3,2.21,0.19,1.79,22.232291,-83.39,-82.89
1733053285750493785,1733053285750257968,3,2.21,0.19,1.79,22.369874999999997,-85.4,-85.43
1733053285850589906,1733053285850423336,3,2.21,0.19,1.79,22.53872766666667,-83.34,-83.64
1733053285950945521,1733053285950766801,3,2.21,0.19,1.79,22.68881933333334,-84.59,-84.04
1733053286050495083,1733053286050258636,3,2.21,0.19,1.79,22.845164333333333,-84.35,-83.87
1733053286150239365,1733053286150023698,3,2.21,0.19,1.79,22.951479333333335,-84.66,-84.55
1733053286250827744,1733053286250631570,3,2.21,0.19,1.79,23.064048,-86.97,-89.34
1733053286350192937,1733053286349997520,3,2.21,0.19,1.79,23.17661633333333,-84.94,-85.66
1733053286450238708,1733053286450047492,3,2.21,0.19,1.79,23.301692666666668,-86.14,-86.95
1733053286550476967,1733053286550242900,3,2.21,0.19,1.79,23.408006999999998,-86.11,-89.82
1733053286650763670,1733053286650536537,3,2.21,0.19,1.79,23.52057566666667,-85.66,-86.65
1733053286750217634,1733053286750015258,3,2.21,0.19,1.79,23.645652000000002,-87.32,-87.4
1733053286850324653,1733053286850107192,3,2.21,0.19,1.79,23.770728000000002,-87.29,-88.88
1733053286951207899,1733053286950793027,3,2.21,0.19,1.79,23.92081966666667,-86.58,-89.74
1733053287050396294,1733053287050197362,3,2.21,0.19,1.79,24.058403,-86.4,-86.91
1733053287150147961,1733053287149914264,3,2.21,0.19,1.79,24.214748666666665,-85.75,-86.16
1733053287250011103,1733053287249853372,3,2.21,0.19,1.79,24.321063,-85.86,-87.55
1733053287350308385,1733053287350136995,3,2.21,0.19,1.79,24.433631333333334,-86.02,-87.7
1733053287450247826,1733053287449956417,3,2.21,0.19,1.79,24.527438333333333,-85.92,-87.53
1733053287550734992,1733053287550473213,3,2.21,0.19,1.79,24.627499666666665,-85.26,-87.4
1733053287650319342,1733053287650142908,3,2.21,0.19,1.79,24.752576,-84.98,-85.89
1733053287750426158,1733053287750250101,3,2.21,0.19,1.79,24.877652333333334,-85.11,-86.25
1733053287850182200,1733053287850060224,3,2.21,0.19,1.79,25.059012666666664,-84.06,-84.06
1733053287949915109,1733053287949771404,3,2.21,0.19,1.79,25.190342666666666,-84.37,-84.79
1733053288050664586,1733053288050411462,3,2.21,0.19,1.79,25.340434,-83.81,-84.17
1733053288150051874,1733053288149902820,3,2.21,0.19,1.79,25.440495000000002,-83.28,-82.92
1733053288250368124,1733053288250131130,3,2.21,0.19,1.79,25.590586666666667,-82.84,-82.56
1733053288350517097,1733053288350305795,3,2.21,0.19,1.79,25.721916333333336,-83.67,-83.22
1733053288751295940,1733053288750937938,3,2.21,0.19,1.79,26.07213,-82.29,-82.58
1733053288850742068,1733053288850555658,3,2.21,0.19,1.79,26.103399,-81.95,-82.0
1733053288950736968,1733053288950551986,3,2.21,0.19,1.79,26.072129666666665,-81.94,-82.3
1733053289050704908,1733053289050553560,3,2.21,0.19,1.79,26.072129666666665,-83.45,-83.1
1733053289150705650,1733053289150526285,3,2.21,0.19,1.79,26.078383333333335,-82.45,-84.34
1733053289250801493,1733053289250476121,3,2.21,0.19,1.79,26.109652666666666,-82.17,-82.11
1733053289350460100,1733053289350326538,3,2.21,0.19,1.79,26.13466766666667,-81.94,-82.24
1733053289451089561,1733053289450522184,3,2.21,0.19,1.79,26.165936666666667,-81.79,-82.2
1733053289550635823,1733053289550547599,3,2.21,0.19,1.79,26.203459666666664,-82.08,-81.74
1733053289650952368,1733053289650851249,3,2.21,0.19,1.79,26.272251999999998,-82.1,-81.82
1733053289750683573,1733053289750502824,3,2.21,0.19,1.79,26.322282333333334,-82.57,-82.23
1733053289850805842,1733053289850628376,3,2.21,0.19,1.79,26.33479033333333,-84.04,-83.63
1733053289950726984,1733053289950544357,3,2.21,0.19,1.79,26.316029,-84.89,-84.63
1733053290149410879,1733053290149132013,3,2.21,0.19,1.79,26.316029,-85.16,-88.03
1733053290249375912,1733053290249141693,3,2.21,0.19,1.79,26.322282333333334,-86.1,-88.27
1733053290348222439,1733053290347881793,3,2.21,0.19,1.79,26.328535666666667,-85.72,-87.81
1733053290448365957,1733053290447914600,3,2.21,0.19,1.79,26.309774333333337,-85.1,-86.51
1733053290548373552,1733053290547897815,3,2.21,0.19,1.79,26.29726666666667,-85.11,-87.07
1733053290648409320,1733053290647953987,3,2.21,0.19,1.79,26.284758999999998,-85.34,-85.74
1733053291049587779,1733053291049218654,3,2.21,0.19,1.79,24.202240666666665,-85.42,-87.13
1733053291149332365,1733053291149137735,3,2.21,0.19,1.79,24.183479333333334,-85.37,-86.08
1733053291250194861,1733053291249961376,3,2.21,0.19,1.79,26.265997666666667,-85.92,-87.88
1733053291349991010,1733053291349842786,3,2.21,0.19,1.79,26.272251999999998,-86.6,-89.47
1733053291451370401,1733053291451196908,3,2.21,0.19,1.79,26.259744333333334,-84.56,-85.82
1733053291550517196,1733053291550366163,3,2.21,0.19,1.79,26.247237000000002,-83.97,-84.16
1733053291651103508,1733053291650918960,3,2.21,0.19,1.79,26.190952333333332,-84.02,-84.89
1733053291748149838,1733053291747929811,3,2.21,0.19,1.79,26.159683333333334,-84.01,-84.67
1733053291848336873,1733053291847917556,3,2.21,0.19,1.79,26.122160333333337,-84.11,-84.64
1733053291948476035,1733053291947910547,3,2.21,0.19,1.79,26.07213,-84.43,-85.1
1733053292048292215,1733053292047924518,3,2.21,0.19,1.79,26.015846,-84.44,-85.07
1733053292148141470,1733053292147885084,3,2.21,0.19,1.79,25.95330766666667,-85.92,-86.95
1733053292248298884,1733053292247922182,3,2.21,0.19,1.79,25.922038333333333,-87.7,-89.12
1733053292348445409,1733053292347929239,3,2.21,0.19,1.79,25.85950033333333,-84.85,-85.87
1733053292448325360,1733053292447886705,3,2.21,0.19,1.79,25.790708666666664,-85.07,-86.35
1733053292548218218,1733053292547911882,3,2.21,0.19,1.79,25.728170666666667,-84.93,-86.17
1733053292648363624,1733053292647930145,3,2.21,0.19,1.79,25.66563233333333,-85.36,-87.05
1733053292748167850,1733053292747907400,3,2.21,0.19,1.79,25.596840666666665,-85.12,-87.6
1733053292848379763,1733053292847904205,3,2.21,0.19,1.79,25.509287666666665,-85.67,-87.96
1733053292948330377,1733053292947913169,3,2.21,0.19,1.79,25.434241666666665,-87.18,-89.61
1733053293048336503,1733053293047888278,3,2.21,0.19,1.79,25.371703333333333,-88.31,-92.13
1733053293148253022,1733053293147892475,3,2.21,0.19,1.79,25.296657333333332,-87.59,-91.26
1733053293248289769,1733053293247897386,3,2.21,0.19,1.79,25.209104333333332,-86.84,-90.93
1733053293348158546,1733053293347863197,3,2.21,0.19,1.79,25.121550666666664,-87.34,-90.95
1733053293448241190,1733053293447887659,3,2.21,0.19,1.79,25.040251333333334,-89.11,-93.93
1733053293548366823,1733053293547929048,3,2.21,0.19,1.79,24.971459,-87.07,-92.6
1733053293648224336,1733053293647907495,3,2.21,0.19,1.79,21.907093000000003,-87.38,-93.77
1733053293748243582,1733053293747906208,3,2.21,0.19,1.79,21.825793333333337,-88.46,-94.09
1733053293850152149,1733053293849936485,3,2.21,0.19,1.79,21.763255333333333,-87.03,-92.5
1733053293950840104,1733053293950631856,3,2.21,0.19,1.79,24.671276666666667,-87.1,-92.81
1733053294051067140,1733053294050886631,3,2.21,0.19,1.79,24.57746966666667,-86.65,-94.37
1733053294150949385,1733053294150684356,3,2.21,0.19,1.79,24.48991666666667,-86.98,-94.04
1733053294251284075,1733053294251042842,3,2.21,0.19,1.79,24.42737866666667,-86.57,-94.27
1733053294356468832,1733053294356178760,3,2.21,0.19,1.79,24.371094,-87.28,-94.39
1733053294451302174,1733053294451100587,3,2.21,0.19,1.79,24.289794333333333,-87.8,-94.36
1733053294550724450,1733053294550646543,3,2.21,0.19,1.79,24.214748333333336,-87.83,-93.16
1733053294651594950,1733053294651390552,3,2.21,0.19,1.79,24.152210333333333,-87.33,-92.56
1733053294751339107,1733053294751032829,3,2.21,0.19,1.79,24.077164666666665,-87.28,-92.17
1733053294851213010,1733053294850950956,3,2.21,0.19,1.79,23.989611,-86.23,-90.65
1733053294951164632,1733053294950990676,3,2.21,0.19,1.79,23.920818999999998,-85.56,-88.38
1733053295051528527,1733053295051261663,3,2.21,0.19,1.79,23.852027333333336,-86.23,-89.1
1733053295150949375,1733053295150679349,3,2.21,0.19,1.79,23.801997,-85.73,-88.17
1733053295251048675,1733053295250831604,3,2.21,0.19,1.79,23.720697666666666,-85.72,-88.07
1733053295351053422,1733053295350869417,3,2.21,0.19,1.79,23.651905333333332,-85.33,-87.56
1733053295451170617,1733053295451008319,3,2.21,0.19,1.79,23.570605999999998,-84.79,-86.93
1733053295551070930,1733053295550835609,3,2.21,0.19,1.79,23.489306666666664,-85.27,-86.44
1733053295651087711,1733053295650951623,3,2.21,0.19,1.79,23.414261333333332,-84.63,-85.9
1733053295751520799,1733053295751259803,3,2.21,0.19,1.79,23.326708333333332,-83.98,-86.23
1733053295850883410,1733053295850655078,3,2.21,0.19,1.79,23.245408666666666,-84.08,-86.15
1733053295950957351,1733053295950817584,3,2.21,0.19,1.79,23.151601333333332,-83.73,-85.61
1733053296050973324,1733053296050808429,3,2.21,0.19,1.79,23.057794,-83.03,-83.18
1733053296150146167,1733053296149884462,3,2.21,0.19,1.79,21.832047333333335,-83.13,-83.06
1733053296250395523,1733053296250133514,3,2.21,0.19,1.79,21.73824,-83.06,-83.81
1733053296350749424,1733053296350327491,3,2.21,0.19,1.79,21.65068633333333,-83.3,-85.24
1733053296450693832,1733053296450544357,3,2.21,0.19,1.79,22.695072333333332,-83.11,-83.05
1733053296649399042,1733053296649092912,3,2.21,0.19,1.79,22.557488333333335,-81.88,-82.24
1733053296750351199,1733053296750188589,3,2.21,0.19,1.79,22.38863566666667,-83.51,-83.36
1733053296851005681,1733053296850783348,3,2.21,0.19,1.79,22.257305666666667,-82.67,-82.3
1733053296950813828,1733053296950682163,3,2.21,0.19,1.79,22.157245000000003,-82.58,-82.65
1733053297048218745,1733053297047898054,3,2.21,0.19,1.79,22.107214666666664,-81.44,-81.74
1733053297148507889,1733053297147929430,3,2.21,0.19,1.79,22.02591533333333,-81.65,-81.48
1733053297248063546,1733053297247919559,3,2.21,0.19,1.79,21.925854666666666,-81.93,-81.94
1733053297350481670,1733053297350288629,3,2.21,0.19,1.79,21.807032000000003,-81.19,-81.29
1733053297449540698,1733053297449244499,3,2.21,0.19,1.79,21.706971,-81.02,-81.44
1733053297649429127,1733053297649101257,3,2.21,0.19,1.79,21.61316366666667,-80.98,-81.43
1733053297751330318,1733053297749236583,3,2.21,0.19,1.79,21.488088,-81.47,-81.85
1733053297848260851,1733053297847887039,3,2.21,0.19,1.79,21.350504,-81.48,-81.58
1733053297948237442,1733053297947892665,3,2.21,0.19,1.79,21.225427666666665,-81.62,-81.45
1733053298048467943,1733053298047905445,3,2.21,0.19,1.79,21.119112666666666,-81.17,-80.96
1733053298148278832,1733053298147876501,3,2.21,0.19,1.79,21.00654433333333,-80.77,-81.57
1733053298248174227,1733053298247875928,3,2.21,0.19,1.79,20.900229999999997,-80.9,-81.38
1733053298348194933,1733053298347883224,3,2.21,0.19,1.79,20.78766166666667,-80.91,-82.04
1733053298448199419,1733053298447878837,3,2.21,0.19,1.79,20.668839333333334,-80.48,-81.37
1733053298548178665,1733053298547882318,3,2.21,0.19,1.79,20.562524333333332,-80.49,-80.96
1733053298648144598,1733053298647886753,3,2.21,0.19,1.79,20.481224666666666,-80.74,-80.88
1733053298748285868,1733053298747894525,3,2.21,0.19,1.79,20.393671,-80.74,-81.13
1733053298848372790,1733053298847880601,3,2.21,0.19,1.79,20.287356,-80.63,-80.92
1733053298948388480,1733053298947918176,3,2.21,0.19,1.79,20.149772,-80.53,-81.83
1733053299048241871,1733053299047884225,3,2.21,0.19,1.79,20.012188666666663,-80.69,-81.03
1733053299148681641,1733053299147924423,3,2.21,0.19,1.79,19.893366666666665,-80.73,-81.56
1733053299248308337,1733053299247887372,3,2.21,0.19,1.79,19.774544666666667,-80.68,-81.35
1733053299348346102,1733053299347885131,3,2.21,0.19,1.79,19.611945666666667,-81.58,-82.58
1733053299448093162,1733053299447892189,3,2.21,0.19,1.79,19.499377,-81.16,-81.46
1733053299548314369,1733053299547883749,3,2.21,0.19,1.79,19.430584666666668,-84.11,-86.2
1733053299648265848,1733053299647893905,3,2.21,0.19,1.79,19.374300333333334,-81.7,-82.74
1733053299748106218,1733053299747909784,3,2.21,0.19,1.79,19.242970666666668,-81.91,-83.09
1733053299849603906,1733053299849402666,3,2.21,0.19,1.79,19.092879333333332,-81.75,-83.05
1733053299949685499,1733053299949464559,3,2.21,0.19,1.79,18.961549333333334,-82.81,-83.84
1733053300049649103,1733053300049348592,3,2.21,0.19,1.79,18.848980666666666,-82.05,-84.45
1733053300149337219,1733053300149098634,3,2.21,0.19,1.79,18.742665666666667,-82.58,-85.09
1733053300249217369,1733053300249114513,3,2.21,0.19,1.79,18.648858333333333,-84.27,-87.04
1733053300349579033,1733053300349209547,3,2.21,0.19,1.79,18.511274333333333,-84.08,-87.68
1733053300449506659,1733053300449193000,3,2.21,0.19,1.79,18.392452333333335,-84.06,-87.31
1733053300549559461,1733053300549365520,3,2.21,0.19,1.79,18.254868333333334,-84.14,-89.69
1733053300649484787,1733053300649057626,3,2.21,0.19,1.79,18.186076666666665,-83.77,-89.61
1733053300749705967,1733053300749310255,3,2.21,0.19,1.79,18.073508,-84.27,-88.79
1733053300850053631,1733053300849689483,3,2.21,0.19,1.79,17.96093966666667,-83.69,-88.89
1733053300949336752,1733053300949153900,3,2.21,0.19,1.79,17.842117000000002,-83.64,-86.92
1733053301049343315,1733053301049128532,3,2.21,0.19,1.79,17.742056333333334,-83.68,-86.04
1733053301149619619,1733053301149226903,3,2.21,0.19,1.79,17.679518,-82.22,-84.03
1733053301249167867,1733053301248986005,3,2.21,0.19,1.79,17.585710666666667,-82.23,-83.28
1733053301348540197,1733053301347882270,3,2.21,0.19,1.79,17.491903333333333,-81.37,-83.05
1733053301448305954,1733053301447887182,3,2.21,0.19,1.79,17.39809666666667,-81.12,-81.6
1733053301548237354,1733053301547863960,3,2.21,0.19,1.79,17.31679733333333,-81.19,-81.72
1733053301649383071,1733053301649076938,3,2.21,0.19,1.79,17.179213333333333,-81.39,-82.13
1733053301749721975,1733053301749507904,3,2.21,0.19,1.79,17.066644999999998,-81.22,-81.55
1733053301850757665,1733053301850572109,3,2.21,0.19,1.79,16.935315,-80.62,-81.12
1733053301950278800,1733053301950064897,3,2.21,0.19,1.79,16.835254333333335,-80.5,-80.93
1733053302051174310,1733053302051036834,3,2.21,0.19,1.79,16.703923666666665,-80.72,-81.46
1733053302150814956,1733053302150628328,3,2.21,0.19,1.79,16.585101666666663,-80.39,-81.77
1733053302250848852,1733053302250762701,3,2.21,0.19,1.79,16.485040666666666,-80.32,-81.13
1733053302350726187,1733053302350615501,3,2.21,0.19,1.79,16.366218666666665,-80.24,-80.85
1733053302449954658,1733053302449737548,3,2.21,0.19,1.79,16.259903666666663,-80.69,-81.2
1733053302550387956,1733053302550071954,3,2.21,0.19,1.79,16.153589,-80.08,-81.38
1733053302650810062,1733053302650631666,3,2.21,0.19,1.79,16.04727433333333,-80.44,-80.76
1733053302751250623,1733053302750972747,3,2.21,0.19,1.79,15.934706,-80.41,-80.96
1733053302848209782,1733053302847915410,3,2.21,0.19,1.79,15.828391666666667,-80.13,-81.24
1733053302948285617,1733053302947946786,3,2.21,0.19,1.79,15.715823,-82.47,-82.23
1733053303049234526,1733053303049018144,3,2.21,0.19,1.79,15.553223666666666,-80.71,-81.45
1733053303149198605,1733053303149089336,3,2.21,0.19,1.79,15.415639333333333,-80.38,-81.13
1733053303248244429,1733053303247880458,3,2.21,0.19,1.79,15.271802000000001,-80.47,-81.36
1733053303351112165,1733053303350772142,3,2.21,0.19,1.79,15.209264333333332,-80.72,-82.43
1733053303451028853,1733053303450756311,3,2.21,0.19,1.79,15.109203666666666,-81.19,-82.37
1733053303550581852,1733053303550251960,3,2.21,0.19,1.79,15.027904,-81.32,-83.04
1733053303650295996,1733053303650112867,3,2.21,0.19,1.79,14.896573666666667,-83.3,-85.4
1733053303750383967,1733053303750160217,3,2.21,0.19,1.79,14.702705666666667,-83.38,-86.83
1733053303850627877,1733053303850356817,3,2.21,0.19,1.79,14.565122,-83.43,-88.54
1733053303950198706,1733053303949965476,3,2.21,0.19,1.79,14.427538333333333,-82.73,-87.5
1733053304049960668,1733053304049836635,3,2.21,0.19,1.79,14.383761666666667,-82.56,-87.57
1733053304150101058,1733053304149915695,3,2.21,0.19,1.79,14.296208333333334,-83.43,-87.06
1733053304250266509,1733053304250048398,3,2.21,0.19,1.79,14.233670333333334,-82.35,-84.82
1733053304350387781,1733053304350166082,3,2.21,0.19,1.79,14.146116666666666,-81.82,-83.4
1733053304550086369,1733053304549851655,3,2.21,0.19,1.79,14.046055666666666,-81.38,-82.44
1733053305150328990,1733053305150130271,3,2.21,0.19,1.79,13.564512333333333,-81.71,-82.04
1733053305248275705,1733053305247903823,3,2.21,0.19,1.79,13.508228,-81.36,-81.81
1733053305348505394,1733053305347954988,3,2.21,0.19,1.79,13.451943666666667,-81.43,-81.97
1733053305449684706,1733053305449405908,3,2.21,0.19,1.79,13.370644333333333,-81.24,-81.4
1733053305548286424,1733053305547901630,3,2.21,0.19,1.79,13.308106333333333,-81.07,-82.42
1733053305648404326,1733053305647922754,3,2.21,0.19,1.79,13.245568,-81.3,-81.73
1733053305748048117,1733053305747884035,3,2.21,0.19,1.79,13.164268666666667,-81.64,-82.27
1733053305848030588,1733053305847876548,3,2.21,0.19,1.79,13.101730666666667,-81.78,-83.1
1733053305948567620,1733053305947996377,3,2.21,0.19,1.79,13.057954,-82.4,-84.6
1733053306048397641,1733053306047894001,3,2.21,0.19,1.79,13.045446,-82.44,-84.06
1733053306148258327,1733053306147868394,3,2.21,0.19,1.79,13.045446,-82.65,-83.45
1733053306248351619,1733053306247875690,3,2.21,0.19,1.79,13.014177333333334,-82.0,-83.98
1733053306350502305,1733053306350150108,3,2.21,0.19,1.79,12.995416,-82.68,-83.52
1733053306450171596,1733053306450066089,3,2.21,0.19,1.79,12.920370333333333,-82.68,-84.43
1733053306550007117,1733053306549796819,3,2.21,0.19,1.79,12.857832,-82.89,-84.25
1733053306650533431,1733053306650301218,3,2.21,0.19,1.79,12.814055333333334,-83.9,-85.91
1733053306750729466,1733053306750391244,3,2.21,0.19,1.79,12.801547666666666,-83.02,-84.22
1733053306850646441,1733053306850362539,3,2.21,0.19,1.79,12.782786000000002,-84.87,-86.26
1733053306950420286,1733053306950246810,3,2.21,0.19,1.79,12.776532333333334,-83.56,-85.18
1733053307050016641,1733053307049852848,3,2.21,0.19,1.79,12.764024666666666,-83.82,-85.53
1733053307149984146,1733053307149805068,3,2.21,0.19,1.79,12.770278666666668,-83.73,-85.64
1733053307250395643,1733053307250054121,3,2.21,0.19,1.79,12.745263666666666,-83.61,-86.14
1733053307350407742,1733053307350259542,3,2.21,0.19,1.79,12.751517666666667,-83.8,-85.18
1733053307450052673,1733053307449847698,3,2.21,0.19,1.79,12.739010333333335,-84.98,-85.53
1733053307550006133,1733053307549837112,3,2.21,0.19,1.79,12.720248666666668,-86.46,-87.46
1733053307650209649,1733053307649849414,3,2.21,0.19,1.79,12.701487333333334,-86.94,-89.99
1733053307750185710,1733053307749971628,3,2.21,0.19,1.79,12.713994666666666,-84.66,-85.8
1733053307850086804,1733053307849864244,3,2.21,0.19,1.79,12.720248333333332,-84.87,-85.68
1733053307950025916,1733053307949702739,3,2.21,0.19,1.79,12.713994333333332,-84.49,-88.75
1733053308050640761,1733053308050395488,3,2.21,0.19,1.79,12.688978999999998,-84.53,-86.96
1733053308150349074,1733053308149832010,3,2.21,0.19,1.79,7.373241333333333,-84.44,-84.79
1733053308250142702,1733053308250002384,3,2.21,0.19,1.79,7.379495333333334,-84.08,-85.12
1733053308381034020,1733053308380874395,3,2.21,0.19,1.79,7.404510666666667,-86.57,-87.21
1733053308450075933,1733053308449893236,3,2.21,0.19,1.79,12.732756333333334,-84.32,-85.48
1733053308550035644,1733053308549875974,3,2.21,0.19,1.79,12.732756333333334,-84.63,-85.33
1733053308650025622,1733053308649808168,3,2.21,0.19,1.79,12.707741,-84.75,-85.95
1733053308749770065,1733053308749512910,3,2.21,0.19,1.79,12.707741,-82.7,-84.11
1733053308851717247,1733053308851569890,3,2.21,0.19,1.79,12.726502333333334,-82.26,-83.06
1733053308951028051,1733053308950948238,3,2.21,0.19,1.79,12.739010333333335,-80.47,-81.75
1733053309050732939,1733053309050556182,3,2.21,0.19,1.79,12.720248666666668,-80.76,-81.4
1733053309150234313,1733053309150047540,3,2.21,0.19,1.79,12.657710333333334,-80.61,-81.75
1733053309251347679,1733053309251159191,3,2.21,0.19,1.79,12.588918333333334,-81.08,-82.19
1733053309351832023,1733053309351479291,3,2.21,0.19,1.79,12.557649333333332,-80.47,-81.21
1733053309451191100,1733053309450942039,3,2.21,0.19,1.79,12.557649333333332,-81.13,-81.14
1733053309550971974,1733053309550834894,3,2.21,0.19,1.79,12.582664333333334,-81.11,-81.21
1733053309651733411,1733053309651639699,3,2.21,0.19,1.79,12.582664333333334,-80.68,-81.21
1733053310150225524,1733053310149831771,3,2.21,0.19,1.79,12.432572666666667,-80.7,-81.21
1733053310251629390,1733053310251235008,3,2.21,0.19,1.79,12.382542333333333,-80.8,-81.04
1733053310350658621,1733053310350455999,3,2.21,0.19,1.79,12.332512,-80.73,-81.28
1733053310450934956,1733053310450670480,3,2.21,0.19,1.79,12.257466333333333,-81.0,-81.24
1733053310551502495,1733053310551264762,3,2.21,0.19,1.79,12.201181999999998,-81.39,-82.59
1733053310650587925,1733053310650396585,3,2.21,0.19,1.79,12.151151666666665,-83.91,-84.05
1733053310750343731,1733053310750056505,3,2.21,0.19,1.79,12.101121333333333,-81.42,-81.85
1733053310851172823,1733053310851037263,3,2.21,0.19,1.79,12.051091,-81.5,-82.13
1733053310950689764,1733053310950550794,3,2.21,0.19,1.79,11.957283666666667,-82.03,-83.55
1733053311051307399,1733053311051017761,3,2.21,0.19,1.79,11.882237666666667,-82.43,-83.08
1733053311151082269,1733053311150853872,3,2.21,0.19,1.79,11.794684333333334,-82.72,-82.94
1733053311251035886,1733053311250744819,3,2.21,0.19,1.79,11.744653999999999,-82.89,-83.8
1733053311350861130,1733053311350721597,3,2.21,0.19,1.79,11.694623666666667,-83.26,-83.17
1733053311450607074,1733053311450451135,3,2.21,0.19,1.79,11.638339333333334,-81.85,-81.82
1733053311551021921,1733053311550790071,3,2.21,0.19,1.79,11.582054666666666,-81.45,-81.85
1733053311651278089,1733053311651071548,3,2.21,0.19,1.79,11.481993666666668,-80.42,-81.66
1733053311751209044,1733053311751009702,3,2.21,0.19,1.79,11.388186666666664,-79.9,-81.86
1733053311848306611,1733053311847908020,3,2.21,0.19,1.79,11.281872,-80.49,-83.02
1733053311949149582,1733053311948920726,3,2.21,0.19,1.79,11.206826333333332,-80.28,-81.46
1733053312049612917,1733053312049382686,3,2.21,0.19,1.79,11.094257666666666,-80.13,-81.09
1733053312149363185,1733053312149008989,3,2.21,0.19,1.79,11.012958333333332,-80.59,-81.22
1733053312249448846,1733053312249159336,3,2.21,0.19,1.79,10.881628333333333,-79.94,-80.9
1733053312351226224,1733053312350788831,3,2.21,0.19,1.79,10.800329,-79.95,-80.67
1733053312449146022,1733053312448911190,3,2.21,0.19,1.79,10.694014333333334,-80.12,-81.05
1733053312549411821,1733053312549164533,3,2.21,0.19,1.79,10.631476333333334,-80.5,-81.11
1733053312648246247,1733053312647898912,3,2.21,0.19,1.79,10.525161666666666,-80.49,-81.35
1733053312751045777,1733053312750728607,3,2.21,0.19,1.79,10.412593333333334,-80.58,-81.07
1733053312851446513,1733053312851253271,3,2.21,0.19,1.79,10.300024666666667,-80.73,-81.54
1733053312951518635,1733053312951360940,3,2.21,0.19,1.79,10.212471333333333,-81.34,-83.44
1733053313051363722,1733053313051201581,3,2.21,0.19,1.79,10.087395,-80.78,-83.22
1733053313149988079,1733053313149906158,3,2.21,0.19,1.79,9.974826666666667,-80.92,-82.67
1733053313250374613,1733053313250123262,3,2.21,0.19,1.79,9.856004,-80.62,-81.4
1733053313380662956,1733053313380345344,3,2.21,0.19,1.79,9.780958333333334,-80.02,-80.75
1733053313450365579,1733053313450164556,3,2.21,0.19,1.79,9.693405,-79.84,-80.64
1733053313650894942,1733053313650807619,3,2.21,0.19,1.79,9.555821333333334,-79.74,-80.94
1733053313750353275,1733053313750118494,3,2.21,0.19,1.79,9.443252666666666,-79.37,-80.74
1733053313850349879,1733053313850259542,3,2.21,0.19,1.79,9.280653333333333,-79.75,-81.2
1733053313949959373,1733053313949816226,3,2.21,0.19,1.79,9.155577000000001,-80.2,-81.18
1733053314050761310,1733053314050654172,3,2.21,0.19,1.79,8.992978,-79.97,-81.39
1733053314151330651,1733053314151022195,3,2.21,0.19,1.79,8.880409333333334,-80.35,-81.57
1733053314250310114,1733053314249991416,3,2.21,0.19,1.79,8.761587,-80.47,-80.74
1733053314350523226,1733053314350236415,3,2.21,0.19,1.79,8.630257,-80.87,-81.41
1733053314451841362,1733053314451661348,3,2.21,0.19,1.79,8.517688666666666,-81.06,-81.32
1733053314550938664,1733053314550805091,3,2.21,0.19,1.79,8.398866333333332,-80.65,-81.23
1733053314651372016,1733053314651140213,3,2.21,0.19,1.79,8.323820333333334,-80.31,-80.95
1733053314751331080,1733053314751060724,3,2.21,0.19,1.79,8.204997666666667,-80.03,-81.04
1733053314851002652,1733053314850877761,3,2.21,0.19,1.79,8.104936666666667,-80.17,-80.59
1733053315048338193,1733053315047903060,3,2.21,0.19,1.79,7.92983,-80.45,-81.09
1733053315549269401,1733053315548995494,3,2.21,0.19,1.79,7.335718333333333,-80.12,-80.83
1733053315950230657,1733053315950051546,3,2.21,0.19,1.79,6.779129,-79.59,-80.79
1733053316050189847,1733053316049933671,3,2.21,0.19,1.79,6.660306666666667,-79.52,-80.5
1733053316151175303,1733053316150973558,3,2.21,0.19,1.79,6.572753333333334,-79.76,-80.7
1733053316249455254,1733053316249152660,3,2.21,0.19,1.79,6.447677,-79.31,-81.11
1733053316349262028,1733053316348992347,3,2.21,0.19,1.79,6.328854666666667,-79.56,-81.97
1733053316449167642,1733053316449006557,3,2.21,0.19,1.79,6.178763333333333,-79.48,-81.06
1733053316549556050,1733053316549221277,3,2.21,0.19,1.79,6.066194666666667,-79.15,-80.49
1733053316649158716,1733053316648899078,3,2.21,0.19,1.79,5.934864666666667,-79.05,-80.79
1733053316749389691,1733053316749186038,3,2.21,0.19,1.79,5.791027,-79.52,-80.96
1733053316849351186,1733053316849207878,3,2.21,0.19,1.79,5.665951,-79.03,-80.7
1733053317049495925,1733053317049192667,3,2.21,0.19,1.79,5.528367333333333,-79.62,-80.83
1733053317149231533,1733053317149010896,3,2.21,0.19,1.79,5.4095450000000005,-79.58,-81.91
1733053317249564422,1733053317249178647,3,2.21,0.19,1.79,5.271961,-79.4,-81.01
1733053317349170949,1733053317348956346,3,2.21,0.19,1.79,5.153138333333334,-79.89,-80.53
1733053317449187771,1733053317448969125,3,2.21,0.19,1.79,5.028062333333334,-79.49,-81.09
1733053317549311925,1733053317549167156,3,2.21,0.19,1.79,4.902986333333334,-79.04,-80.79
1733053317649045959,1733053317648960113,3,2.21,0.19,1.79,4.752895,-79.59,-81.02
1733053317749456405,1733053317749144315,3,2.21,0.19,1.79,4.634072666666666,-78.78,-82.09
1733053317849885541,1733053317849525451,3,2.21,0.19,1.79,4.527758,-79.0,-80.73
1733053317949528158,1733053317949270009,3,2.21,0.19,1.79,4.390174333333333,-79.54,-81.16
1733053318049171958,1733053318048913955,3,2.21,0.19,1.79,4.252590333333333,-78.93,-80.98
1733053318149476314,1733053318148982286,3,2.21,0.19,1.79,4.096245,-79.26,-80.45
1733053318249105378,1733053318248988151,3,2.21,0.19,1.79,3.9961839999999995,-79.15,-82.24
1733053318378859500,1733053318378442764,3,2.21,0.19,1.79,3.877361666666667,-79.3,-80.42
1733053318449260163,1733053318448942422,3,2.21,0.19,1.79,3.7898083333333332,-79.18,-81.04
1733053318549270183,1733053318549050569,3,2.21,0.19,1.79,3.6709860000000005,-79.01,-81.07
1733053318649177603,1733053318648916959,3,2.21,0.19,1.79,3.5521636666666665,-78.47,-81.87
1733053318749386988,1733053318749008178,3,2.21,0.19,1.79,3.389564666666667,-79.68,-80.71
1733053318849538248,1733053318849113941,3,2.21,0.19,1.79,3.295757333333333,-79.21,-80.55
1733053318949425979,1733053318949169635,3,2.21,0.19,1.79,3.1831886666666667,-80.04,-81.24
1733053319048997050,1733053319048836946,3,2.21,0.19,1.79,3.0893816666666667,-79.33,-80.97
1733053319148319118,1733053319147890329,3,2.21,0.19,1.79,2.9392903333333336,-78.77,-80.83
1733053319248346016,1733053319247893095,3,2.21,0.19,1.79,2.8142143333333336,-79.36,-80.64
1733053319348684175,1733053319347874641,3,2.21,0.19,1.79,2.7016456666666664,-79.02,-80.82
1733053319448157561,1733053319447873830,3,2.21,0.19,1.79,2.6391076666666664,-79.02,-82.04
1733053319548451347,1733053319547915697,3,2.21,0.19,1.79,2.5515543333333333,-80.15,-80.75
1733053319648400548,1733053319647899866,3,2.21,0.19,1.79,2.4702546666666665,-80.02,-80.99
1733053319748262838,1733053319747885465,3,2.21,0.19,1.79,2.332671,-79.43,-81.59
1733053320150861049,1733053320150595664,3,2.21,0.19,1.79,1.682275,-79.05,-80.54
1733053320251080496,1733053320250814676,3,2.21,0.19,1.79,1.5571986666666666,-79.1,-80.63
1733053320350945874,1733053320350742340,3,2.21,0.19,1.79,1.4821530000000003,-78.83,-80.6
1733053320450459373,1733053320450140953,3,2.21,0.19,1.79,1.4008533333333333,-78.92,-80.67
1733053320548251425,1733053320547892332,3,2.21,0.19,1.79,1.3883456666666667,-79.27,-80.68
1733053320649101570,1733053320648833036,3,2.21,0.19,1.79,1.338315,-78.92,-80.44
1733053320748329129,1733053320747881889,3,2.21,0.19,1.79,1.307046,-78.91,-80.81
1733053320849498013,1733053320849035978,3,2.21,0.19,1.79,1.3007923333333333,-78.68,-80.33
1733053321050144218,1733053321050041913,3,2.21,0.19,1.79,1.2882846666666665,-79.51,-81.13
1733053321449869411,1733053321449736356,3,2.21,0.19,1.79,1.375838,-79.35,-81.0
1733053321552153728,1733053321551970005,3,2.21,0.19,1.79,1.4321223333333333,-79.09,-80.56
1733053321649743144,1733053321649500846,3,2.21,0.19,1.79,1.4383763333333335,-79.24,-81.17
1733053321749302497,1733053321749048471,3,2.21,0.19,1.79,1.4884069999999998,-79.21,-80.84
1733053321850351138,1733053321850129842,3,2.21,0.19,1.79,1.5196759999999998,-78.93,-80.59
1733053321950700402,1733053321950509309,3,2.21,0.19,1.79,1.6009753333333334,-79.27,-80.58
1733053322050361652,1733053322050191164,3,2.21,0.19,1.79,1.6635133333333332,-79.1,-80.8
1733053322150117690,1733053322149872303,3,2.21,0.19,1.79,1.7510666666666665,-79.21,-80.73
1733053322251041948,1733053322250847339,3,2.21,0.19,1.79,1.83862,-78.95,-80.7
1733053322350212602,1733053322350042581,3,2.21,0.19,1.79,1.9511886666666662,-79.17,-80.68
1733053322450118919,1733053322449858665,3,2.21,0.19,1.79,1.9887113333333335,-78.99,-80.54
1733053322551244246,1733053322550951957,3,2.21,0.19,1.79,2.0762646666666664,-78.89,-80.54
1733053322651437923,1733053322651147842,3,2.21,0.19,1.79,2.126295,-79.06,-80.61
1733053322751051039,1733053322750909805,3,2.21,0.19,1.79,2.2326099999999998,-78.91,-80.55
1733053322851012036,1733053322850799322,3,2.21,0.19,1.79,2.313909666666667,-79.62,-81.17
1733053322951371473,1733053322950991630,3,2.21,0.19,1.79,2.438986,-79.11,-80.61
1733053323052178666,1733053323052002668,3,2.21,0.19,1.79,2.5515543333333333,-78.88,-80.63
1733053323150398139,1733053323150223731,3,2.21,0.19,1.79,2.6266,-79.4,-81.28
1733053323251258208,1733053323250974416,3,2.21,0.19,1.79,2.689138,-78.72,-80.43
1733053323350655314,1733053323350209474,3,2.21,0.19,1.79,2.789199,-79.12,-80.71
1733053323450073211,1733053323449864864,3,2.21,0.19,1.79,2.8955136666666665,-79.14,-80.8
1733053323550221288,1733053323549982070,3,2.21,0.19,1.79,3.0018283333333335,-79.43,-80.82
1733053323650068572,1733053323649857282,3,2.21,0.19,1.79,3.076874,-79.45,-81.23
1733053323749813473,1733053323749730825,3,2.21,0.19,1.79,3.189442666666667,-79.19,-80.59
1733053323861856658,1733053323853704214,3,2.21,0.19,1.79,3.2832496666666664,-79.4,-81.6
1733053323950597257,1733053323950192213,3,2.21,0.19,1.79,3.408326,-79.14,-82.76
1733053324051045421,1733053324050396680,3,2.21,0.19,1.79,3.4771176666666666,-80.33,-81.24
1733053324150182024,1733053324149898529,3,2.21,0.19,1.79,3.6021939999999995,-79.42,-82.17
1733053324250123562,1733053324249906063,3,2.21,0.19,1.79,3.7085086666666665,-79.45,-81.05
1733053324350018924,1733053324349798202,3,2.21,0.19,1.79,3.8961230000000007,-79.2,-83.33
1733053324450023375,1733053324449875354,3,2.21,0.19,1.79,4.0086916666666665,-79.24,-81.94
1733053324550070039,1733053324549820899,3,2.21,0.19,1.79,4.152529333333334,-80.39,-81.5
1733053324650588904,1733053324650155305,3,2.21,0.19,1.79,4.265098,-79.61,-84.47
1733053324751312464,1733053324751110315,3,2.21,0.19,1.79,4.427697,-79.99,-82.58
1733053324850483404,1733053324850226640,3,2.21,0.19,1.79,4.552773333333334,-80.8,-85.2
1733053324949893252,1733053324949706315,3,2.21,0.19,1.79,4.652834333333334,-80.56,-86.14
1733053325050114273,1733053325049853086,3,2.21,0.19,1.79,4.790418,-80.73,-81.79
1733053325149963541,1733053325149710893,3,2.21,0.19,1.79,4.915494,-80.81,-85.06
1733053325249875160,1733053325249654293,3,2.21,0.19,1.79,5.046824,-80.93,-88.66
1733053325349904732,1733053325349613904,3,2.21,0.19,1.79,5.221930666666666,-80.9,-81.52
1733053325450046310,1733053325449891090,3,2.21,0.19,1.79,5.3970373333333335,-80.49,-85.27
1733053325549909812,1733053325549778223,3,2.21,0.19,1.79,5.497098,-81.17,-87.61
1733053325650056954,1733053325649910449,3,2.21,0.19,1.79,5.684712333333333,-80.71,-81.79
1733053325750455704,1733053325750282526,3,2.21,0.19,1.79,5.822295999999999,-82.33,-84.93
1733053325850597376,1733053325850443124,3,2.21,0.19,1.79,5.959880000000001,-83.14,-89.48
1733053325949900527,1733053325949658155,3,2.21,0.19,1.79,5.909849666666666,-82.44,-87.79
1733053326051204300,1733053326050993204,3,2.21,0.19,1.79,5.872327000000001,-82.05,-97.12
1733053326151063715,1733053326150867462,3,2.21,0.19,1.79,6.109971666666667,-83.95,-84.33
1733053326549781803,1733053326549650192,3,2.21,0.19,1.79,6.704083333333333,-82.06,-84.24
1733053326649677387,1733053326649615526,3,2.21,0.19,1.79,6.879190333333334,-83.38,-83.41
1733053326749948913,1733053326749613523,3,2.21,0.19,1.79,6.9042053333333335,-85.09,-88.42
1733053326851580989,1733053326851340770,3,2.21,0.19,1.79,6.922967,-82.85,-83.2
1733053326948332191,1733053326947939157,3,2.21,0.19,1.79,7.085566,-82.24,-83.47
1733053327048262695,1733053327047903299,3,2.21,0.19,1.79,7.248165,-81.83,-83.82
1733053327148144309,1733053327147906303,3,2.21,0.19,1.79,7.27318,-81.76,-85.13
1733053327248163718,1733053327247904300,3,2.21,0.19,1.79,7.335718,-81.3,-83.98
1733053327349091171,1733053327348902940,3,2.21,0.19,1.79,7.4545406666666665,-80.96,-81.49
1733053327449378996,1733053327449056625,3,2.21,0.19,1.79,7.610886,-80.6,-80.9
1733053327549291490,1733053327549048662,3,2.21,0.19,1.79,7.792246333333334,-80.12,-81.02
1733053327649146444,1733053327648878812,3,2.21,0.19,1.79,7.917322333333334,-80.52,-81.25
1733053327749334452,1733053327749158620,3,2.21,0.19,1.79,8.048652333333331,-79.83,-81.24
1733053327849148139,1733053327848992347,3,2.21,0.19,1.79,8.148713333333331,-80.1,-80.81
1733053327949351718,1733053327949184179,3,2.21,0.19,1.79,8.242520666666666,-80.6,-81.69
1733053328048164802,1733053328047871828,3,2.21,0.19,1.79,8.348835666666668,-80.76,-82.56
1733053328148060510,1733053328147892713,3,2.21,0.19,1.79,8.467658333333334,-80.66,-81.19
1733053328248359981,1733053328247911930,3,2.21,0.19,1.79,8.617749666666667,-79.96,-81.39
1733053328380693679,1733053328380413770,3,2.21,0.19,1.79,8.755333333333335,-79.78,-81.06
1733053328451155962,1733053328450981378,3,2.21,0.19,1.79,8.892917000000002,-79.85,-81.11
1733053328551327238,1733053328551073789,3,2.21,0.19,1.79,9.030501,-79.49,-80.99
1733053328651750336,1733053328651595592,3,2.21,0.19,1.79,9.155577333333333,-79.57,-80.63
1733053328751150899,1733053328750988483,3,2.21,0.19,1.79,9.261892333333334,-79.45,-80.65
1733053328850845625,1733053328850679636,3,2.21,0.19,1.79,9.380714666666668,-79.57,-80.73
1733053328950306039,1733053328950156211,3,2.21,0.19,1.79,9.524552333333334,-80.31,-81.13
1733053329049989607,1733053329049836397,3,2.21,0.19,1.79,9.680897333333334,-80.41,-81.29
1733053329150197525,1733053329150019645,3,2.21,0.19,1.79,9.812227333333334,-80.29,-80.72
1733053329250299551,1733053329250009298,3,2.21,0.19,1.79,9.943557,-79.85,-81.13
1733053329350267464,1733053329350111961,3,2.21,0.19,1.79,10.068633333333333,-80.22,-80.76
1733053329450217881,1733053329449978590,3,2.21,0.19,1.79,10.199962999999999,-80.08,-81.13
1733053329550486371,1733053329550256967,3,2.21,0.19,1.79,10.318785666666665,-80.95,-81.31
1733053329651530749,1733053329651293277,3,2.21,0.19,1.79,10.450115333333335,-80.16,-81.05
1733053329750428270,1733053329750200748,3,2.21,0.19,1.79,10.593953,-80.29,-80.85
1733053329851005368,1733053329850838422,3,2.21,0.19,1.79,10.744044333333335,-80.81,-81.51
1733053329951183259,1733053329950987815,3,2.21,0.19,1.79,10.887882,-81.32,-81.55
1733053330050801877,1733053330050662994,3,2.21,0.19,1.79,11.025466,-82.16,-81.97
1733053330150646647,1733053330150373935,3,2.21,0.19,1.79,11.144288333333334,-82.32,-84.37
1733053330251068917,1733053330250858068,3,2.21,0.19,1.79,11.275618666666666,-82.71,-82.17
1733053330350353281,1733053330350079298,3,2.21,0.19,1.79,11.406948666666667,-83.81,-83.49
1733053330450103543,1733053330449853181,3,2.21,0.19,1.79,11.563293999999999,-81.77,-81.94
1733053330550126222,1733053330549897909,3,2.21,0.19,1.79,11.700877666666665,-81.04,-82.14
1733053330650581031,1733053330650330066,3,2.21,0.19,1.79,11.850969,-80.96,-81.71
1733053330750372304,1733053330750096559,3,2.21,0.19,1.79,11.988552666666665,-81.6,-82.0
1733053330850125456,1733053330849998474,3,2.21,0.19,1.79,12.151151666666665,-81.05,-81.1
1733053330949788494,1733053330949645996,3,2.21,0.19,1.79,12.269974,-81.74,-82.24
1733053331048249022,1733053331047868251,3,2.21,0.19,1.79,12.401304000000001,-83.15,-82.95
1733053331148354340,1733053331147939920,3,2.21,0.19,1.79,12.501365,-82.83,-84.45
1733053331249284382,1733053331249099254,3,2.21,0.19,1.79,12.532634333333334,-85.47,-99.76
1733053331449889863,1733053331449743509,3,2.21,0.19,1.79,12.613934,-79.88,-80.72
1733053331849875920,1733053331849707603,3,2.21,0.19,1.79,12.864086,-79.66,-80.86
1733053331948165017,1733053331947885990,3,2.21,0.19,1.79,12.876593999999999,-80.08,-80.93
1733053332051167426,1733053332050992488,3,2.21,0.19,1.79,12.876593999999999,-80.32,-80.7
1733053332149445047,1733053332149144172,3,2.21,0.19,1.79,12.864086333333333,-80.62,-81.27
1733053332249410136,1733053332249108791,3,2.21,0.19,1.79,12.870339666666666,-80.25,-80.74
1733053332349302366,1733053332349059343,3,2.21,0.19,1.79,12.864085666666666,-80.16,-80.81
1733053332449140743,1733053332448978900,3,2.21,0.19,1.79,12.864085666666668,-80.67,-81.12
1733053332549435288,1733053332549129247,3,2.21,0.19,1.79,12.807801333333336,-80.97,-81.66
1733053332649193877,1733053332648992776,3,2.21,0.19,1.79,12.782786,-80.66,-80.92
1733053332749241114,1733053332749057292,3,2.21,0.19,1.79,12.739009333333334,-80.16,-80.6
1733053332849473878,1733053332849055051,3,2.21,0.19,1.79,12.720248,-80.02,-80.84
1733053333150577066,1733053333150418281,3,2.21,0.19,1.79,12.651456000000001,-80.45,-81.26
1733053333950746449,1733053333950628042,3,2.21,0.19,1.79,12.219943333333333,-82.59,-83.94
1733053334051076421,1733053334050822257,3,2.21,0.19,1.79,12.151151333333333,-82.42,-83.94
1733053334149852918,1733053334149772405,3,2.21,0.19,1.79,12.082359666666667,-83.5,-84.26
1733053334250183176,1733053334250030994,3,2.21,0.19,1.79,11.994806333333335,-84.93,-86.5
1733053334350252204,1733053334350105285,3,2.21,0.19,1.79,11.900999333333333,-84.35,-87.61
1733053334450037143,1733053334449874401,3,2.21,0.19,1.79,11.8197,-84.41,-86.43
1733053334549994994,1733053334549863338,3,2.21,0.19,1.79,11.750908333333333,-84.24,-86.67
1733053334650345676,1733053334650140047,3,2.21,0.19,1.79,11.68837,-82.8,-82.98
1733053334750112434,1733053334749958992,3,2.21,0.19,1.79,11.613323999999999,-82.06,-83.67
